,safegraph_place_id,location_name,region,date_range_start,date_range_end,postal_code,raw_visit_counts,median_dwell,bucketed_dwell_times,est_total_dwell,latitude,longitude,naics_code,state,stateFIPS,countyFIPS,countyName,CBGFIPS
134,sg:0af132ec954b4d4fbd282396aa9685eb,Spellbound Escapes,CT,2019-03-01T00:00:00-05:00,2019-04-01T00:00:00-04:00,6338,38,20.5,"{""<5"":1,""5-20"":18,""21-60"":15,""61-240"":3,"">240"":1}",1526.5,41.476043,-71.96159,423830.0,CT,9.0,9011.0,New London County,90117011005.0
181,sg:10c9429b70b4478c9e8bafbef9e8b5ff,Charlie's Auto Repair,CT,2019-03-01T00:00:00-05:00,2019-04-01T00:00:00-04:00,6801,1,210.0,"{""<5"":0,""5-20"":0,""21-60"":0,""61-240"":1,"">240"":0}",150.5,41.363215999999994,-73.422467,811111.0,CT,9.0,9001.0,Fairfield County,90012001002.0
308,sg:1c746602d90d42829b8f37e54433ae59,Planet Fitness,CT,2019-03-01T00:00:00-05:00,2019-04-01T00:00:00-04:00,6082,714,43.0,"{""<5"":5,""5-20"":140,""21-60"":338,""61-240"":200,"">240"":31}",52991.5,41.991422,-72.560427,713940.0,CT,9.0,9003.0,Hartford County,90034808002.0
372,sg:234f8b6eb1a842fb9afa0400700813d6,Bath Fitter,CT,2019-03-01T00:00:00-05:00,2019-04-01T00:00:00-04:00,6095,31,42.0,"{""<5"":0,""5-20"":13,""21-60"":6,""61-240"":9,"">240"":3}",2480.0,41.895603,-72.64376999999999,236118.0,CT,9.0,9003.0,Hartford County,90034735023.0
409,sg:26bc81b8ef7d46ed9b6fc39fa9fb39a6,Sugar Bowl,CT,2019-03-01T00:00:00-05:00,2019-04-01T00:00:00-04:00,6820,82,42.0,"{""<5"":2,""5-20"":24,""21-60"":27,""61-240"":23,"">240"":6}",6300.0,41.075520000000004,-73.47224399999999,722511.0,CT,9.0,9001.0,Fairfield County,90010304001.0
471,sg:2bf239cf47e5490aa07d10ef37b96f66,Magnant Richard Insurance,CT,2019-03-01T00:00:00-05:00,2019-04-01T00:00:00-04:00,6820,2,5.0,"{""<5"":0,""5-20"":2,""21-60"":0,""61-240"":0,"">240"":0}",25.0,41.081959999999995,-73.463998,524210.0,CT,9.0,9001.0,Fairfield County,90010302001.0
630,sg:3b1fd5bad6dd4ee5bf819243a0c330f5,Zaniac Greenwich,CT,2019-03-01T00:00:00-05:00,2019-04-01T00:00:00-04:00,6830,31,407.0,"{""<5"":0,""5-20"":0,""21-60"":4,""61-240"":10,"">240"":17}",5747.0,41.016945,-73.647615,611691.0,CT,9.0,9001.0,Fairfield County,90010105004.0
701,sg:427a34c44113475b965bb90bae1eb802,Dom's Broad St Eatery,CT,2019-03-01T00:00:00-05:00,2019-04-01T00:00:00-04:00,6095,7,22.0,"{""<5"":1,""5-20"":2,""21-60"":3,""61-240"":1,"">240"":0}",299.5,41.878638,-72.674017,722511.0,CT,9.0,9003.0,Hartford County,90034735013.0
817,sg:4ce66b9221d24820935b3ae76e1b2170,Windham High School,CT,2019-03-01T00:00:00-05:00,2019-04-01T00:00:00-04:00,6226,1073,95.0,"{""<5"":13,""5-20"":235,""21-60"":207,""61-240"":363,"">240"":255}",127185.0,41.723198,-72.214821,611110.0,CT,9.0,9015.0,Windham County,90158007002.0
827,sg:4db52e4c05e048448dc6f271135c76a0,Diane's,CT,2019-03-01T00:00:00-05:00,2019-04-01T00:00:00-04:00,6415,10,84.5,"{""<5"":0,""5-20"":2,""21-60"":1,""61-240"":5,"">240"":2}",1298.0,41.553451,-72.382006,722511.0,CT,9.0,9011.0,New London County,90117141032.0
1133,sg:684cf775d3ab4c5395824c57a0785125,MGA Crisis Intervention,CT,2019-03-01T00:00:00-05:00,2019-04-01T00:00:00-04:00,6103,2,271.0,"{""<5"":0,""5-20"":0,""21-60"":0,""61-240"":1,"">240"":1}",390.5,41.763581,-72.675443,621330.0,CT,9.0,9003.0,Hartford County,90035021001.0
1143,sg:695f4118ea974b76908e5ec0148ad48d,Michels Therapy & Counseling,CT,2019-03-01T00:00:00-05:00,2019-04-01T00:00:00-04:00,6518,16,20.0,"{""<5"":0,""5-20"":9,""21-60"":5,""61-240"":0,"">240"":2}",795.0,41.383332,-72.903595,621330.0,CT,9.0,9009.0,New Haven County,90091660013.0
1674,sg:9f3b61a27043453ba454bc3f64d283e0,Wineport of Darien,CT,2019-03-01T00:00:00-05:00,2019-04-01T00:00:00-04:00,6820,41,10.0,"{""<5"":4,""5-20"":28,""21-60"":5,""61-240"":4,"">240"":0}",1164.5,41.079128999999995,-73.464471,445310.0,CT,9.0,9001.0,Fairfield County,90010302001.0
1741,sg:a4cfffbe2a864cd4861b963884ab66b3,Subway,CT,2019-03-01T00:00:00-05:00,2019-04-01T00:00:00-04:00,6260,9,8.0,"{""<5"":0,""5-20"":7,""21-60"":1,""61-240"":1,"">240"":0}",278.5,41.924411,-71.88910600000001,722513.0,CT,9.0,9015.0,Windham County,90159031004.0
1768,sg:a7beb820587648a18324334dc2d40a17,L E O Outpatient Children's Clinic,CT,2019-03-01T00:00:00-05:00,2019-04-01T00:00:00-04:00,6114,1,19.0,"{""<5"":0,""5-20"":1,""21-60"":0,""61-240"":0,"">240"":0}",12.5,41.755236,-72.67630600000001,621111.0,CT,9.0,9003.0,Hartford County,90035003002.0
1839,sg:ad6e66663aeb4e1499f6cd7915bb58f4,Second Floor Studio,CT,2019-03-01T00:00:00-05:00,2019-04-01T00:00:00-04:00,6825,62,26.0,"{""<5"":3,""5-20"":24,""21-60"":11,""61-240"":23,"">240"":1}",4454.5,41.175703999999996,-73.226485,444120.0,CT,9.0,9001.0,Fairfield County,90010613001.0
1864,sg:af597839504f4e8db3b083b6c4d44b4a,Pilot Flying J,CT,2019-03-01T00:00:00-05:00,2019-04-01T00:00:00-04:00,6359,967,50.0,"{""<5"":9,""5-20"":299,""21-60"":215,""61-240"":191,"">240"":253}",101933.0,41.443365,-71.80009,447110.0,CT,9.0,9011.0,New London County,90117071003.0
1926,sg:b5b3be9cf8eb46858aefacc93ab7a672,Dollar Tree,CT,2019-03-01T00:00:00-05:00,2019-04-01T00:00:00-04:00,6108,266,12.0,"{""<5"":13,""5-20"":177,""21-60"":57,""61-240"":15,"">240"":4}",7771.0,41.779833,-72.610514,452319.0,CT,9.0,9003.0,Hartford County,90035113003.0
1938,sg:b71ed8adfb304741b269b37899729deb,Connecticut Institute Of Hair Design,CT,2019-03-01T00:00:00-05:00,2019-04-01T00:00:00-04:00,6716,9,52.0,"{""<5"":1,""5-20"":3,""21-60"":1,""61-240"":0,"">240"":4}",1040.5,41.555645,-72.955775,611511.0,CT,9.0,9009.0,New Haven County,90093611001.0
1968,sg:b93e7be3aa1c4c0889430f060fe7e13e,First Presbyterian Church Nur Sch,CT,2019-03-01T00:00:00-05:00,2019-04-01T00:00:00-04:00,6905,15,21.0,"{""<5"":0,""5-20"":6,""21-60"":6,""61-240"":2,"">240"":1}",859.0,41.062948,-73.538823,624410.0,CT,9.0,9001.0,Fairfield County,90010216001.0
2025,sg:bfed8d90327c46b687d9436b4a136787,Broken Arrow Nursery,CT,2019-03-01T00:00:00-05:00,2019-04-01T00:00:00-04:00,6518,7,13.0,"{""<5"":0,""5-20"":4,""21-60"":3,""61-240"":0,"">240"":0}",171.5,41.443037,-72.942291,811411.0,CT,9.0,9009.0,New Haven County,90091659001.0
2050,sg:c1a066fc844446c3b05b87bfa6f044f0,The Essex,CT,2019-03-01T00:00:00-05:00,2019-04-01T00:00:00-04:00,6409,30,28.0,"{""<5"":3,""5-20"":8,""21-60"":8,""61-240"":10,"">240"":1}",2176.5,41.351785,-72.410418,722511.0,CT,9.0,9007.0,Middlesex County,90076301006.0
2079,sg:c4bfbd1e6c6b4fff9ddff8acbe05a504,Rodd's Restaurant,CT,2019-03-01T00:00:00-05:00,2019-04-01T00:00:00-04:00,6010,216,25.0,"{""<5"":3,""5-20"":80,""21-60"":99,""61-240"":21,"">240"":13}",11297.5,41.692796,-72.91524100000001,722511.0,CT,9.0,9003.0,Hartford County,90034052001.0
2124,sg:c89fbaca118b4f64b422cdbc200ade34,Blue State Coffee,CT,2019-03-01T00:00:00-05:00,2019-04-01T00:00:00-04:00,6511,451,40.0,"{""<5"":9,""5-20"":145,""21-60"":130,""61-240"":125,"">240"":42}",35992.5,41.311064,-72.92988000000001,722515.0,CT,9.0,9009.0,New Haven County,90093614021.0
2202,sg:d1805407abb64287b7d7aa82dea7bb5d,Northern CT Eye Associates,CT,2019-03-01T00:00:00-05:00,2019-04-01T00:00:00-04:00,6082,140,75.0,"{""<5"":2,""5-20"":23,""21-60"":37,""61-240"":29,"">240"":49}",17915.5,41.986725,-72.559495,621111.0,CT,9.0,9003.0,Hartford County,90034808004.0
2274,sg:d820b360a21a434c9e2ca47f06a5d0e8,CITGO,CT,2019-03-01T00:00:00-05:00,2019-04-01T00:00:00-04:00,6810,349,21.0,"{""<5"":22,""5-20"":147,""21-60"":74,""61-240"":76,"">240"":30}",23527.5,41.389582,-73.447226,447110.0,CT,9.0,9001.0,Fairfield County,90012101003.0
2300,sg:dad46e81d3744e218a27a51bd54dabea,CVS,CT,2019-03-01T00:00:00-05:00,2019-04-01T00:00:00-04:00,6905,259,12.0,"{""<5"":14,""5-20"":157,""21-60"":62,""61-240"":21,"">240"":5}",8869.0,41.080647,-73.532349,446110.0,CT,9.0,9001.0,Fairfield County,90010210002.0
2386,sg:e29b6e6bf445488caf67ecfb2d3b92ae,Mrm Consulting,CT,2019-03-01T00:00:00-05:00,2019-04-01T00:00:00-04:00,6880,13,417.0,"{""<5"":0,""5-20"":1,""21-60"":1,""61-240"":3,"">240"":8}",2424.5,41.138027,-73.3036,524210.0,CT,9.0,9001.0,Fairfield County,90010506003.0
2438,sg:e74881b449a54ac0a3db585e7f81d8a8,Lowlicht Roger A DDS,CT,2019-03-01T00:00:00-05:00,2019-04-01T00:00:00-04:00,6473,72,29.0,"{""<5"":1,""5-20"":29,""21-60"":17,""61-240"":23,"">240"":2}",4995.0,41.376334,-72.853373,621210.0,CT,9.0,9009.0,New Haven County,90091672012.0
2467,sg:e9c577dfaf8843bb996b4716d7e22c3b,Polished Nail & Spa,CT,2019-03-01T00:00:00-05:00,2019-04-01T00:00:00-04:00,6468,8,16.5,"{""<5"":0,""5-20"":4,""21-60"":1,""61-240"":3,"">240"":0}",542.0,41.355395,-73.261347,812113.0,CT,9.0,9001.0,Fairfield County,90012305021.0
2580,sg:f5a7f2aec2ec47f0837822d4543fc058,Connecticut River Academy,CT,2019-03-01T00:00:00-05:00,2019-04-01T00:00:00-04:00,6118,566,217.0,"{""<5"":3,""5-20"":81,""21-60"":63,""61-240"":178,"">240"":241}",88200.5,41.749652000000005,-72.643396,611110.0,CT,9.0,9003.0,Hartford County,90035108001.0
2586,sg:f631fedf248d48f7b9432ee369b86025,Coe Memorial Park,CT,2019-03-01T00:00:00-05:00,2019-04-01T00:00:00-04:00,6790,524,43.0,"{""<5"":13,""5-20"":159,""21-60"":140,""61-240"":184,"">240"":28}",42102.0,41.799139000000004,-73.12191899999999,712190.0,CT,9.0,9005.0,Litchfield County,90053103002.0
2613,sg:f8e759aca3684b4aa50ecaf60ea93efc,Visual Perceptions Vernon,CT,2019-03-01T00:00:00-05:00,2019-04-01T00:00:00-04:00,6066,118,19.0,"{""<5"":2,""5-20"":63,""21-60"":22,""61-240"":28,"">240"":3}",6617.5,41.843668,-72.486368,446130.0,CT,9.0,9013.0,Tolland County,90135303023.0
2640,sg:fc15fec72e40437d8d025705eeb674f1,Subway,CT,2019-03-01T00:00:00-05:00,2019-04-01T00:00:00-04:00,6447,164,10.0,"{""<5"":15,""5-20"":112,""21-60"":26,""61-240"":5,"">240"":6}",4683.0,41.63185,-72.45922900000001,722513.0,CT,9.0,9003.0,Hartford County,90035241005.0
2679,sg:ffe3f28b2cb54635af10c7adb555c00d,Armenian Church of the Holy,CT,2019-03-01T00:00:00-05:00,2019-04-01T00:00:00-04:00,6611,23,11.0,"{""<5"":0,""5-20"":13,""21-60"":3,""61-240"":7,"">240"":0}",1337.5,41.230961,-73.162736,813110.0,CT,9.0,9001.0,Fairfield County,90010905002.0
2816,sg:0c6742a8180b4253b925e923b01badff,Pink Sumo Sushi & Sake Cafe,CT,2019-03-01T00:00:00-05:00,2019-04-01T00:00:00-04:00,6880,313,38.0,"{""<5"":7,""5-20"":89,""21-60"":129,""61-240"":70,"">240"":18}",21209.5,41.141678000000006,-73.36049799999999,722511.0,CT,9.0,9001.0,Fairfield County,90010502002.0
2942,sg:1819c045f02c4bf283a85b4d28020186,Crate and Barrel,CT,2019-03-01T00:00:00-05:00,2019-04-01T00:00:00-04:00,6107,4,8.0,"{""<5"":0,""5-20"":4,""21-60"":0,""61-240"":0,"">240"":0}",50.0,41.759782,-72.74123,442110.0,CT,9.0,9003.0,Hartford County,90034969006.0
2994,sg:1d1f2be2590b4814987c93fb483f9dfa,East Rock Coffee,CT,2019-03-01T00:00:00-05:00,2019-04-01T00:00:00-04:00,6511,81,64.0,"{""<5"":4,""5-20"":27,""21-60"":9,""61-240"":14,"">240"":27}",9299.0,41.319848,-72.91305899999999,722515.0,CT,9.0,9009.0,New Haven County,90091419003.0
3052,sg:2320f30b201d44e8955ec31f8794cd8a,Allstate Insurance,CT,2019-03-01T00:00:00-05:00,2019-04-01T00:00:00-04:00,6109,1,6.0,"{""<5"":0,""5-20"":1,""21-60"":0,""61-240"":0,"">240"":0}",12.5,41.702514,-72.65973199999999,524210.0,CT,9.0,9003.0,Hartford County,90034922002.0
3115,sg:28958defa6324a60beca7e2199b2f7d7,Taco Bell,CT,2019-03-01T00:00:00-05:00,2019-04-01T00:00:00-04:00,6450,206,10.0,"{""<5"":12,""5-20"":135,""21-60"":47,""61-240"":9,"">240"":3}",5695.5,41.529498,-72.77787099999999,722513.0,CT,9.0,9009.0,New Haven County,90091713001.0
3194,sg:2eddb0a407a443cfb6bea2c713aa3834,Ellen Golden DPM Greenwich Total Footcare,CT,2019-03-01T00:00:00-05:00,2019-04-01T00:00:00-04:00,6831,9,32.0,"{""<5"":0,""5-20"":2,""21-60"":6,""61-240"":1,"">240"":0}",418.5,41.028931,-73.630912,621111.0,CT,9.0,9001.0,Fairfield County,90010103004.0
3272,sg:3713faeb73e541739aed21bbd53498ff,P One Natural Juice And Snack Bar,CT,2019-03-01T00:00:00-05:00,2019-04-01T00:00:00-04:00,6604,12,46.5,"{""<5"":0,""5-20"":4,""21-60"":3,""61-240"":4,"">240"":1}",1013.5,41.198766,-73.180547,445310.0,CT,9.0,9001.0,Fairfield County,90010734002.0
3286,sg:38793352185d43c584a3e4a33f1bb676,Bearingstar Insurance,CT,2019-03-01T00:00:00-05:00,2019-04-01T00:00:00-04:00,6250,8,5.5,"{""<5"":1,""5-20"":4,""21-60"":1,""61-240"":0,"">240"":2}",573.0,41.7344,-72.205513,524210.0,CT,9.0,9013.0,Tolland County,90138815004.0
3298,sg:394820a9098f450dbe53e417f42123f6,Nardelli's Grinder Shoppe,CT,2019-03-01T00:00:00-05:00,2019-04-01T00:00:00-04:00,6810,208,8.0,"{""<5"":17,""5-20"":163,""21-60"":4,""61-240"":11,"">240"":13}",7017.5,41.412082,-73.412041,722511.0,CT,9.0,9001.0,Fairfield County,90012104003.0
3308,sg:3a165bcaa5ee44f0afb2e612ac3d71f9,Kingdom Life Church,CT,2019-03-01T00:00:00-05:00,2019-04-01T00:00:00-04:00,6461,6,22.5,"{""<5"":0,""5-20"":3,""21-60"":3,""61-240"":0,"">240"":0}",159.0,41.220187,-73.083947,813110.0,CT,9.0,9009.0,New Haven County,90091506002.0
3311,sg:3a2ece4841e040cda52bb205a692fc5b,Ideal Solutions,CT,2019-03-01T00:00:00-05:00,2019-04-01T00:00:00-04:00,6040,74,20.0,"{""<5"":4,""5-20"":35,""21-60"":16,""61-240"":18,"">240"":1}",4044.5,41.769782,-72.520524,448140.0,CT,9.0,9003.0,Hartford County,90035147001.0
3372,sg:408d425633684a28ae760bfd4e84decc,Chuan Du Hot Pot,CT,2019-03-01T00:00:00-05:00,2019-04-01T00:00:00-04:00,6510,36,36.5,"{""<5"":2,""5-20"":10,""21-60"":11,""61-240"":8,"">240"":5}",2979.5,41.305124,-72.927899,722511.0,CT,9.0,9009.0,New Haven County,90091401001.0
3542,sg:51cd9143f71d41fab4599b1af6460a2f,C & T's Driving School,CT,2019-03-01T00:00:00-05:00,2019-04-01T00:00:00-04:00,6706,183,33.0,"{""<5"":7,""5-20"":69,""21-60"":43,""61-240"":38,"">240"":26}",14580.5,41.539577,-73.036183,453310.0,CT,9.0,9009.0,New Haven County,90093514001.0
3618,sg:5915277af2a146749e46dd5a0d317b5b,Pam's Barber Shop,CT,2019-03-01T00:00:00-05:00,2019-04-01T00:00:00-04:00,6351,39,151.0,"{""<5"":1,""5-20"":5,""21-60"":10,""61-240"":7,"">240"":16}",5363.5,41.614035,-71.963443,812112.0,CT,9.0,9011.0,New London County,90117092002.0
3667,sg:5ee75d618f9940ec937f1ac21b88ff48,It's A Gee Thang Barber Salon & Spa,CT,2019-03-01T00:00:00-05:00,2019-04-01T00:00:00-04:00,6120,164,55.5,"{""<5"":4,""5-20"":46,""21-60"":34,""61-240"":34,"">240"":46}",18119.0,41.787103,-72.673247,812112.0,CT,9.0,9003.0,Hartford County,90035244002.0
3734,sg:656a20a8dd834f64812856f8146562b1,Olympia Diner,CT,2019-03-01T00:00:00-05:00,2019-04-01T00:00:00-04:00,6111,582,26.0,"{""<5"":20,""5-20"":235,""21-60"":219,""61-240"":79,"">240"":29}",30706.5,41.654476,-72.726929,722511.0,CT,9.0,9003.0,Hartford County,90034942013.0
3775,sg:69f850c31c734afaa7e44e0ed195d1fa,Great Expectations Day Care & Lng Ctr Llc,CT,2019-03-01T00:00:00-05:00,2019-04-01T00:00:00-04:00,6488,60,14.5,"{""<5"":1,""5-20"":30,""21-60"":3,""61-240"":10,"">240"":16}",5844.0,41.466763,-73.16974300000001,624410.0,CT,9.0,9009.0,New Haven County,90093481221.0
3874,sg:71c2a1df959f41e3a33066a0fe995850,Baker's Dozen,CT,2019-03-01T00:00:00-05:00,2019-04-01T00:00:00-04:00,6374,261,10.0,"{""<5"":16,""5-20"":169,""21-60"":50,""61-240"":22,"">240"":4}",8448.5,41.668644,-71.915578,722515.0,CT,9.0,9015.0,Windham County,90159073004.0
3932,sg:767bb2ff07874314bda01129ffa69b3c,Campions Pizza,CT,2019-03-01T00:00:00-05:00,2019-04-01T00:00:00-04:00,6074,176,30.5,"{""<5"":6,""5-20"":64,""21-60"":56,""61-240"":38,"">240"":12}",11682.0,41.823411,-72.553686,722511.0,CT,9.0,9003.0,Hartford County,90034875002.0
4257,sg:97fce2ae38c249b6a2ed8d4a792536e8,Edward Jones,CT,2019-03-01T00:00:00-05:00,2019-04-01T00:00:00-04:00,6107,22,461.0,"{""<5"":1,""5-20"":9,""21-60"":0,""61-240"":0,"">240"":12}",2995.0,41.763296999999994,-72.74130799999999,523999.0,CT,9.0,9003.0,Hartford County,90034971004.0
4336,sg:9f41df1c811a4d59a892f031aa35224d,Martocchio Music,CT,2019-03-01T00:00:00-05:00,2019-04-01T00:00:00-04:00,6070,295,46.0,"{""<5"":5,""5-20"":82,""21-60"":95,""61-240"":86,"">240"":27}",24308.0,41.881209000000005,-72.80035699999999,451140.0,CT,9.0,9003.0,Hartford County,90034663002.0
4391,sg:a3958b3308fa4e799b9f14a350819e0d,Kensington Nursery School,CT,2019-03-01T00:00:00-05:00,2019-04-01T00:00:00-04:00,6037,15,11.0,"{""<5"":0,""5-20"":10,""21-60"":3,""61-240"":2,"">240"":0}",547.5,41.623445000000004,-72.78410500000001,624410.0,CT,9.0,9003.0,Hartford County,90034003004.0
4568,sg:b43e209011c94ebf84dc261113ae0936,The Art of Fitness Training Solutions,CT,2019-03-01T00:00:00-05:00,2019-04-01T00:00:00-04:00,6492,18,32.5,"{""<5"":0,""5-20"":6,""21-60"":7,""61-240"":5,"">240"":0}",1111.0,41.485468,-72.812138,713940.0,CT,9.0,9009.0,New Haven County,90091754001.0
4808,sg:cae1e342373b4e19830f3170cfe311d0,Capitol Region Education Council Phs,CT,2019-03-01T00:00:00-05:00,2019-04-01T00:00:00-04:00,6062,1798,67.0,"{""<5"":20,""5-20"":438,""21-60"":369,""61-240"":741,"">240"":230}",187190.0,41.665637,-72.857648,624410.0,CT,9.0,9003.0,Hartford County,90034206005.0
4859,sg:d07177022cad43cca6029610bbec7d34,D & D Power & Pleasure,CT,2019-03-01T00:00:00-05:00,2019-04-01T00:00:00-04:00,6811,61,20.0,"{""<5"":3,""5-20"":29,""21-60"":16,""61-240"":11,"">240"":2}",3153.5,41.420223,-73.424336,441222.0,CT,9.0,9001.0,Fairfield County,90012114003.0
5023,sg:e393173072b8443aaed17c682ab0b206,EagleRider,CT,2019-03-01T00:00:00-05:00,2019-04-01T00:00:00-04:00,6108,119,59.0,"{""<5"":0,""5-20"":21,""21-60"":39,""61-240"":41,"">240"":18}",12332.5,41.770515,-72.65327099999999,713990.0,CT,9.0,9003.0,Hartford County,90035102002.0
5025,sg:e3b871e938d94756aec7c189581c897e,JP's Barber Shop,CT,2019-03-01T00:00:00-05:00,2019-04-01T00:00:00-04:00,6498,23,20.0,"{""<5"":0,""5-20"":13,""21-60"":7,""61-240"":3,"">240"":0}",897.5,41.275748,-72.481616,812112.0,CT,9.0,9007.0,Middlesex County,90076801003.0
5072,sg:e7cb7108c1cd4e59a9e16a8ae6ae8c82,Wood n Tap Bar & Grill Orange,CT,2019-03-01T00:00:00-05:00,2019-04-01T00:00:00-04:00,6477,295,56.0,"{""<5"":5,""5-20"":48,""21-60"":110,""61-240"":127,"">240"":5}",25381.0,41.265305,-73.00398299999999,722511.0,CT,9.0,9009.0,New Haven County,90091571001.0
5094,sg:e981bf1dfaa24fd1a7ff5fe4f0b894b1,Mama's Italian Market,CT,2019-03-01T00:00:00-05:00,2019-04-01T00:00:00-04:00,6457,212,65.5,"{""<5"":4,""5-20"":46,""21-60"":50,""61-240"":68,"">240"":44}",23404.0,41.556569,-72.652608,722511.0,CT,9.0,9007.0,Middlesex County,90075415001.0
5240,sg:f96d15357bd04724bb509c368ef92e24,Muse Nails & Spa,CT,2019-03-01T00:00:00-05:00,2019-04-01T00:00:00-04:00,6830,1,398.0,"{""<5"":0,""5-20"":0,""21-60"":0,""61-240"":0,"">240"":1}",240.0,41.022496999999994,-73.638529,812113.0,CT,9.0,9001.0,Fairfield County,90010105002.0
5269,sg:fbbdb17f6c8544168e9ff1d3327f1385,Essex Motorsports Int'l,CT,2019-03-01T00:00:00-05:00,2019-04-01T00:00:00-04:00,6412,2,531.0,"{""<5"":0,""5-20"":1,""21-60"":0,""61-240"":0,"">240"":1}",252.5,41.395458000000005,-72.441664,441228.0,CT,9.0,9007.0,Middlesex County,90076001002.0
5319,sg:010307a594f94d08a98585b5c495fe13,C&M Antiques,CT,2019-03-01T00:00:00-05:00,2019-04-01T00:00:00-04:00,6782,9,62.0,"{""<5"":0,""5-20"":1,""21-60"":3,""61-240"":3,"">240"":2}",1065.5,41.652043,-73.04415300000001,453310.0,CT,9.0,9005.0,Litchfield County,90054254003.0
5417,sg:09cda7f035e54fc98f01cc4294cd51ce,Farmington Ave Dental Care,CT,2019-03-01T00:00:00-05:00,2019-04-01T00:00:00-04:00,6105,1,496.0,"{""<5"":0,""5-20"":0,""21-60"":0,""61-240"":0,"">240"":1}",240.0,41.766396,-72.711844,621210.0,CT,9.0,9003.0,Hartford County,90035245021.0
5436,sg:0b87ddf26f5c40ac8f7b2d7a54874f75,Ho Tina T DDS,CT,2019-03-01T00:00:00-05:00,2019-04-01T00:00:00-04:00,6473,69,25.0,"{""<5"":1,""5-20"":25,""21-60"":28,""61-240"":15,"">240"":0}",3706.5,41.388127000000004,-72.86399499999999,621210.0,CT,9.0,9009.0,New Haven County,90091672013.0
5807,sg:29db5def317c478d822ea2cca560ccdd,Estuary Council of Senior,CT,2019-03-01T00:00:00-05:00,2019-04-01T00:00:00-04:00,6475,121,38.0,"{""<5"":1,""5-20"":41,""21-60"":46,""61-240"":30,"">240"":3}",7613.0,41.292386,-72.37296500000001,453310.0,CT,9.0,9007.0,Middlesex County,90076702001.0
5931,sg:35ea5ba077134466816547c158a6300a,PCW Computer,CT,2019-03-01T00:00:00-05:00,2019-04-01T00:00:00-04:00,6110,12,11.0,"{""<5"":1,""5-20"":8,""21-60"":2,""61-240"":1,"">240"":0}",334.0,41.732215000000004,-72.731567,443142.0,CT,9.0,9003.0,Hartford County,90034962001.0
5936,sg:36631a09c9ec41fca4345b92fc8e15ca,Blue Fox Rock & Bowl,CT,2019-03-01T00:00:00-05:00,2019-04-01T00:00:00-04:00,6070,158,69.5,"{""<5"":3,""5-20"":23,""21-60"":41,""61-240"":83,"">240"":8}",16367.0,41.916984,-72.791656,713950.0,CT,9.0,9003.0,Hartford County,90034662012.0
6140,sg:490fffaf98e4438c9c4b9b98f7f4dd18,Schriber Park,CT,2019-03-01T00:00:00-05:00,2019-04-01T00:00:00-04:00,6401,197,35.0,"{""<5"":1,""5-20"":64,""21-60"":65,""61-240"":55,"">240"":12}",14592.5,41.343813,-73.048861,712190.0,CT,9.0,9009.0,New Haven County,90091252001.0
6146,sg:496e126d47df473f8b4326ce6924a5eb,Boys & Girls Clubs of America,CT,2019-03-01T00:00:00-05:00,2019-04-01T00:00:00-04:00,6515,127,37.0,"{""<5"":4,""5-20"":40,""21-60"":30,""61-240"":26,"">240"":27}",12118.0,41.347590999999994,-72.957803,624110.0,CT,9.0,9009.0,New Haven County,90091413001.0
6316,sg:5b6c254f3877462481a5e206b42dfdcc,St Thomas More Chapel At Yale,CT,2019-03-01T00:00:00-05:00,2019-04-01T00:00:00-04:00,6511,32,310.5,"{""<5"":0,""5-20"":2,""21-60"":2,""61-240"":10,"">240"":18}",5931.0,41.310942,-72.932372,813110.0,CT,9.0,9009.0,New Haven County,90093614013.0
6419,sg:6532692e65b64cc182f825bb18648407,Greenwood Ave Laundromat,CT,2019-03-01T00:00:00-05:00,2019-04-01T00:00:00-04:00,6801,1,44.0,"{""<5"":0,""5-20"":0,""21-60"":1,""61-240"":0,"">240"":0}",40.5,41.37121,-73.415902,812320.0,CT,9.0,9001.0,Fairfield County,90012001002.0
6503,sg:6e5a4c59bc67469a8df0652662e547d0,Gerhardt Insurance Agency,CT,2019-03-01T00:00:00-05:00,2019-04-01T00:00:00-04:00,6415,48,303.5,"{""<5"":1,""5-20"":10,""21-60"":4,""61-240"":5,"">240"":28}",7762.0,41.574928,-72.326074,524210.0,CT,9.0,9011.0,New London County,90117141013.0
6625,sg:7a6305dd98d84b92917d9ed0f24a660f,New Britain Transition Center,CT,2019-03-01T00:00:00-05:00,2019-04-01T00:00:00-04:00,6053,619,234.0,"{""<5"":5,""5-20"":80,""21-60"":70,""61-240"":163,"">240"":301}",100619.0,41.699331,-72.78837299999999,611110.0,CT,9.0,9003.0,Hartford County,90034175003.0
6645,sg:7b7c39476bbc4761bf2724c14368878f,TCC,CT,2019-03-01T00:00:00-05:00,2019-04-01T00:00:00-04:00,6790,61,12.0,"{""<5"":3,""5-20"":36,""21-60"":18,""61-240"":4,"">240"":0}",1788.5,41.821636,-73.077903,443142.0,CT,9.0,9005.0,Litchfield County,90053106021.0
6792,sg:88a42ed608974bcbad3ccec31826c14c,Richie's Comic Cabana,CT,2019-03-01T00:00:00-05:00,2019-04-01T00:00:00-04:00,6705,616,33.5,"{""<5"":9,""5-20"":201,""21-60"":198,""61-240"":136,"">240"":72}",48302.0,41.552421,-73.0101,451211.0,CT,9.0,9009.0,New Haven County,90093513003.0
6907,sg:94279c7bf1b548c694d0b46ee66acfff,Hartford HealthCare Medical Group,CT,2019-03-01T00:00:00-05:00,2019-04-01T00:00:00-04:00,6110,126,64.0,"{""<5"":0,""5-20"":22,""21-60"":37,""61-240"":33,"">240"":34}",14900.0,41.732168,-72.74391700000001,621111.0,CT,9.0,9003.0,Hartford County,90034964002.0
6910,sg:948538edc5124bae88415aa1c8c4ffdd,The Woodhall School,CT,2019-03-01T00:00:00-05:00,2019-04-01T00:00:00-04:00,6751,18,196.0,"{""<5"":0,""5-20"":4,""21-60"":3,""61-240"":4,"">240"":7}",2453.5,41.635613,-73.203673,611110.0,CT,9.0,9005.0,Litchfield County,90053421003.0
7034,sg:a0fbba29db3d47aea6b9f68b6591e70b,St Joseph's Church,CT,2019-03-01T00:00:00-05:00,2019-04-01T00:00:00-04:00,6018,19,49.0,"{""<5"":0,""5-20"":6,""21-60"":4,""61-240"":8,"">240"":1}",1681.0,42.02705,-73.322742,813110.0,CT,9.0,9005.0,Litchfield County,90052602001.0
7046,sg:a2443d3a3cc24728b78daaa9ad2a3dce,Wings Over,CT,2019-03-01T00:00:00-05:00,2019-04-01T00:00:00-04:00,6111,152,38.5,"{""<5"":6,""5-20"":50,""21-60"":37,""61-240"":34,"">240"":25}",13255.5,41.697548,-72.722952,722511.0,CT,9.0,9003.0,Hartford County,90034944002.0
7256,sg:b660bf639e9c41b7a1cdfa4f47d3547b,Honey Bear Learning Center Inc,CT,2019-03-01T00:00:00-05:00,2019-04-01T00:00:00-04:00,6614,84,313.0,"{""<5"":0,""5-20"":15,""21-60"":4,""61-240"":12,"">240"":53}",14875.5,41.204605,-73.140417,624410.0,CT,9.0,9001.0,Fairfield County,90010809001.0
7331,sg:bd556bfc9ded4d02b8c0bc7782994078,Danehower Richard L PC,CT,2019-03-01T00:00:00-05:00,2019-04-01T00:00:00-04:00,6830,4,299.5,"{""<5"":0,""5-20"":0,""21-60"":0,""61-240"":2,"">240"":2}",781.0,41.034616,-73.631197,621111.0,CT,9.0,9001.0,Fairfield County,90010103003.0
7407,sg:c436d1d06a714fbba9126d5bccd0aeef,The Boarding House,CT,2019-03-01T00:00:00-05:00,2019-04-01T00:00:00-04:00,6854,435,18.0,"{""<5"":15,""5-20"":222,""21-60"":84,""61-240"":35,"">240"":79}",30442.0,41.094283000000004,-73.45160200000001,453910.0,CT,9.0,9001.0,Fairfield County,90010431003.0
7608,sg:daf67463c291477e95af4a78dcdf52ce,Sikorsky Credit Union,CT,2019-03-01T00:00:00-05:00,2019-04-01T00:00:00-04:00,6810,3,5.0,"{""<5"":0,""5-20"":3,""21-60"":0,""61-240"":0,"">240"":0}",37.5,41.398799,-73.456662,522110.0,CT,9.0,9001.0,Fairfield County,90012101001.0
8087,sg:09df2d3b943a4bfd8b7bfe619c64fa80,New England Preschool Academy,CT,2019-03-01T00:00:00-05:00,2019-04-01T00:00:00-04:00,6096,48,98.0,"{""<5"":1,""5-20"":15,""21-60"":2,""61-240"":12,"">240"":18}",6397.0,41.933081,-72.663799,611110.0,CT,9.0,9003.0,Hartford County,90034762002.0
8158,sg:0fca2c6682024a5ca4a828758ff5a21b,Dealmax Motors,CT,2019-03-01T00:00:00-05:00,2019-04-01T00:00:00-04:00,6010,53,10.0,"{""<5"":1,""5-20"":34,""21-60"":9,""61-240"":9,"">240"":0}",2146.5,41.671396,-72.915615,441120.0,CT,9.0,9003.0,Hartford County,90034052004.0
8301,sg:1b6e6f4ba88e41368bb690e2ba6b5133,Young's Package Store,CT,2019-03-01T00:00:00-05:00,2019-04-01T00:00:00-04:00,6226,108,69.0,"{""<5"":4,""5-20"":29,""21-60"":18,""61-240"":31,"">240"":26}",12007.0,41.714644,-72.198977,445310.0,CT,9.0,9015.0,Windham County,90158006001.0
8318,sg:1d4dd5a7d25f4f4996eee1824ee156dc,John's Barber Shop,CT,2019-03-01T00:00:00-05:00,2019-04-01T00:00:00-04:00,6062,12,5.0,"{""<5"":0,""5-20"":12,""21-60"":0,""61-240"":0,"">240"":0}",150.0,41.658931,-72.86616,812112.0,CT,9.0,9003.0,Hartford County,90034206003.0
8413,sg:25a08885c29a4e9da832bb3fa739cf3b,LoveHealing,CT,2019-03-01T00:00:00-05:00,2019-04-01T00:00:00-04:00,6902,20,63.5,"{""<5"":0,""5-20"":6,""21-60"":3,""61-240"":7,"">240"":4}",2210.0,41.041112,-73.51070899999999,812199.0,CT,9.0,9001.0,Fairfield County,90010219003.0
8428,sg:2730081bfe5d494b9efcde9968c0023b,Absolute Shine Auto Boat & Motorcycle Detailing,CT,2019-03-01T00:00:00-05:00,2019-04-01T00:00:00-04:00,6010,121,96.0,"{""<5"":1,""5-20"":28,""21-60"":20,""61-240"":34,"">240"":38}",15399.5,41.684659,-72.948312,811192.0,CT,9.0,9003.0,Hartford County,90034058004.0
8438,sg:281a1353441b4ff5a8e1dad303be0224,Marlborough Arts Center & Museum,CT,2019-03-01T00:00:00-05:00,2019-04-01T00:00:00-04:00,6447,18,10.0,"{""<5"":0,""5-20"":15,""21-60"":3,""61-240"":0,"">240"":0}",309.0,41.641323,-72.475087,712110.0,CT,9.0,9003.0,Hartford County,90035241003.0
8511,sg:30f94b5d3aa544eb996b2789af9b78c0,Family Foot Care & Surgery,CT,2019-03-01T00:00:00-05:00,2019-04-01T00:00:00-04:00,6460,12,19.0,"{""<5"":0,""5-20"":7,""21-60"":3,""61-240"":1,"">240"":1}",599.5,41.217222,-73.06404599999999,621111.0,CT,9.0,9009.0,New Haven County,90091501002.0
8523,sg:31ada0bce1cd47f5b3ffec80b063787e,Grace Episcopal Church of Windsor,CT,2019-03-01T00:00:00-05:00,2019-04-01T00:00:00-04:00,6095,45,84.0,"{""<5"":0,""5-20"":10,""21-60"":10,""61-240"":24,"">240"":1}",4382.0,41.849028999999994,-72.643314,813110.0,CT,9.0,9003.0,Hartford County,90034734001.0
8766,sg:47d6b80e493244fa93066b4685933dbc,Paul's Auto Repair,CT,2019-03-01T00:00:00-05:00,2019-04-01T00:00:00-04:00,6108,118,20.5,"{""<5"":1,""5-20"":58,""21-60"":27,""61-240"":13,"">240"":19}",8337.5,41.781419,-72.61590100000001,811111.0,CT,9.0,9003.0,Hartford County,90035104002.0
8776,sg:489e08f715c7486fac2a26b26a92dd4d,Meadow Social Club,CT,2019-03-01T00:00:00-05:00,2019-04-01T00:00:00-04:00,6708,189,117.0,"{""<5"":0,""5-20"":42,""21-60"":28,""61-240"":46,"">240"":73}",26102.0,41.544026,-73.046939,721110.0,CT,9.0,9009.0,New Haven County,90093517002.0
8845,sg:4e55697e7d644f89bba0f273cb1de35f,Walmart,CT,2019-03-01T00:00:00-05:00,2019-04-01T00:00:00-04:00,6516,3098,21.0,"{""<5"":52,""5-20"":1455,""21-60"":1195,""61-240"":293,"">240"":103}",135531.5,41.270317,-72.97711,452319.0,CT,9.0,9009.0,New Haven County,90091542005.0
8902,sg:538bf65762c74552814ef58acacb3039,Old Mystic Playground,CT,2019-03-01T00:00:00-05:00,2019-04-01T00:00:00-04:00,6355,54,18.0,"{""<5"":4,""5-20"":25,""21-60"":10,""61-240"":5,"">240"":10}",3880.0,41.391615,-71.958727,713990.0,CT,9.0,9011.0,New London County,90117054002.0
8966,sg:5a0910cda5f441ada775aaeab615a2d6,Lisa Gengo ND,CT,2019-03-01T00:00:00-05:00,2019-04-01T00:00:00-04:00,6880,4,524.0,"{""<5"":0,""5-20"":0,""21-60"":0,""61-240"":0,"">240"":4}",960.0,41.140845,-73.35736999999999,621111.0,CT,9.0,9001.0,Fairfield County,90010505004.0
9356,sg:7eda909f7d9040058101c69cbb1a6a00,Little Pub Wilton,CT,2019-03-01T00:00:00-05:00,2019-04-01T00:00:00-04:00,6897,277,42.0,"{""<5"":1,""5-20"":75,""21-60"":115,""61-240"":78,"">240"":8}",19256.5,41.163959000000006,-73.418178,722511.0,CT,9.0,9001.0,Fairfield County,90010454002.0
9359,sg:7f171168f4c746ef9e491dd0d5463542,Urgent Care Center,CT,2019-03-01T00:00:00-05:00,2019-04-01T00:00:00-04:00,6704,1,300.0,"{""<5"":0,""5-20"":0,""21-60"":0,""61-240"":0,"">240"":1}",240.0,41.581159,-73.03456700000001,621493.0,CT,9.0,9009.0,New Haven County,90093510001.0
9796,sg:ad44d1bfa24d4d16a9324d2454f4e686,Jack L Gish & Associates of Danbury,CT,2019-03-01T00:00:00-05:00,2019-04-01T00:00:00-04:00,6810,1,16.0,"{""<5"":0,""5-20"":1,""21-60"":0,""61-240"":0,"">240"":0}",12.5,41.408414,-73.456067,621210.0,CT,9.0,9001.0,Fairfield County,90012102001.0
9992,sg:c0677607580246d084caaed472e67053,Creative Nails & Spa,CT,2019-03-01T00:00:00-05:00,2019-04-01T00:00:00-04:00,6405,36,61.5,"{""<5"":0,""5-20"":9,""21-60"":9,""61-240"":17,"">240"":1}",3275.5,41.283534,-72.821752,812113.0,CT,9.0,9009.0,New Haven County,90091842001.0
10152,sg:cfbce8034d2144d4baa1af89d9faa39e,Star Auto Sales,CT,2019-03-01T00:00:00-05:00,2019-04-01T00:00:00-04:00,6450,12,112.5,"{""<5"":0,""5-20"":2,""21-60"":0,""61-240"":8,"">240"":2}",1709.0,41.513099,-72.80553,,CT,9.0,9009.0,New Haven County,90091711003.0
10184,sg:d36ae7927c054c64b96598e56596d3c8,Taco Bell,CT,2019-03-01T00:00:00-05:00,2019-04-01T00:00:00-04:00,6340,562,10.0,"{""<5"":26,""5-20"":370,""21-60"":99,""61-240"":45,"">240"":22}",20752.0,41.367709000000005,-72.070258,722513.0,CT,9.0,9011.0,New London County,90117023002.0
10295,sg:de14c5e3f395499489a4c74a1db6187c,7-Eleven,CT,2019-03-01T00:00:00-05:00,2019-04-01T00:00:00-04:00,6088,343,8.0,"{""<5"":16,""5-20"":236,""21-60"":38,""61-240"":23,"">240"":30}",15190.5,41.885231,-72.606837,445120.0,CT,9.0,9003.0,Hartford County,90034841003.0
10326,sg:e1a3b2ed761d4a05834163b3d4ae0437,Bridgeport Shooting Range,CT,2019-03-01T00:00:00-05:00,2019-04-01T00:00:00-04:00,6607,428,62.0,"{""<5"":10,""5-20"":93,""21-60"":104,""61-240"":118,"">240"":103}",47878.5,41.182812,-73.154983,452319.0,CT,9.0,9001.0,Fairfield County,90010744001.0
10357,sg:e4b4e13f451a4bd8be1db2d814fdaa39,Catherines Plus Sizes,CT,2019-03-01T00:00:00-05:00,2019-04-01T00:00:00-04:00,6473,21,18.0,"{""<5"":2,""5-20"":11,""21-60"":5,""61-240"":2,"">240"":1}",886.0,41.352268,-72.872507,448120.0,CT,9.0,9009.0,New Haven County,90091672012.0
10384,sg:e69ed193d3ce479ea272c23f2d0ccdeb,Audiotronics,CT,2019-03-01T00:00:00-05:00,2019-04-01T00:00:00-04:00,6850,157,57.0,"{""<5"":4,""5-20"":50,""21-60"":27,""61-240"":52,"">240"":24}",15314.5,41.116077000000004,-73.413604,443142.0,CT,9.0,9001.0,Fairfield County,90010437002.0
10422,sg:eb20761b9e4e4cc2add457296d03f65c,Bruno's Pizzeria & Pasta,CT,2019-03-01T00:00:00-05:00,2019-04-01T00:00:00-04:00,6812,156,14.5,"{""<5"":5,""5-20"":87,""21-60"":43,""61-240"":18,"">240"":3}",6270.5,41.467781,-73.487193,722511.0,CT,9.0,9001.0,Fairfield County,90012202001.0
10515,sg:f33fd10634ea482c83d998d482e1b4ce,Cheers 2 U,CT,2019-03-01T00:00:00-05:00,2019-04-01T00:00:00-04:00,6001,33,40.0,"{""<5"":0,""5-20"":9,""21-60"":14,""61-240"":10,"">240"":0}",2184.5,41.7885,-72.864248,445310.0,CT,9.0,9003.0,Hartford County,90034622012.0
10651,sg:000543892b3244fa9935cfec212b8712,MaMa Sue's SoulFood Kitchen,CT,2019-03-01T00:00:00-05:00,2019-04-01T00:00:00-04:00,6704,50,62.0,"{""<5"":3,""5-20"":12,""21-60"":9,""61-240"":12,"">240"":14}",5688.0,41.563765000000004,-73.030275,722511.0,CT,9.0,9009.0,New Haven County,90093503002.0
10715,sg:0589991c7c3e4aaea3f71c2da70cfa9c,Kid's Connection Iii,CT,2019-03-01T00:00:00-05:00,2019-04-01T00:00:00-04:00,6512,41,341.0,"{""<5"":2,""5-20"":8,""21-60"":1,""61-240"":4,"">240"":26}",6987.5,41.262637,-72.87029100000001,624410.0,CT,9.0,9009.0,New Haven County,90091801001.0
10788,sg:0d4256d011aa47e682315605fd3275e9,Zoi's New Haven,CT,2019-03-01T00:00:00-05:00,2019-04-01T00:00:00-04:00,6511,351,33.0,"{""<5"":9,""5-20"":128,""21-60"":70,""61-240"":77,"">240"":67}",32126.0,41.310457,-72.92165899999999,722511.0,CT,9.0,9009.0,New Haven County,90091420003.0
10836,sg:1129088a23d245b2b9145be20e93375b,Greene Hills Fun Club,CT,2019-03-01T00:00:00-05:00,2019-04-01T00:00:00-04:00,6010,315,240.0,"{""<5"":4,""5-20"":37,""21-60"":44,""61-240"":75,"">240"":155}",50742.0,41.667959,-72.895729,624410.0,CT,9.0,9003.0,Hartford County,90034054012.0
10856,sg:12f1e927488a4ad98d430a4fa3052c1a,Seventh Day Adventist Church,CT,2019-03-01T00:00:00-05:00,2019-04-01T00:00:00-04:00,6903,21,45.0,"{""<5"":0,""5-20"":6,""21-60"":6,""61-240"":4,"">240"":5}",2120.0,41.143201,-73.547064,813110.0,CT,9.0,9001.0,Fairfield County,90010203002.0
11005,sg:215bcfdd22fc43a5b6865f0cf4ac4581,Zheng's Chinese Restaurant,CT,2019-03-01T00:00:00-05:00,2019-04-01T00:00:00-04:00,6016,44,30.0,"{""<5"":1,""5-20"":16,""21-60"":12,""61-240"":9,"">240"":6}",3483.0,41.916438,-72.54642700000001,722511.0,CT,9.0,9003.0,Hartford County,90034842001.0
11391,sg:452fbbc1c106488abe1971c8ef4028bd,Advanced Dentistry of Connecticut,CT,2019-03-01T00:00:00-05:00,2019-04-01T00:00:00-04:00,6615,28,40.5,"{""<5"":0,""5-20"":8,""21-60"":11,""61-240"":6,"">240"":3}",2168.5,41.192409999999995,-73.129805,621210.0,CT,9.0,9001.0,Fairfield County,90010807002.0
11510,sg:51a27ff0236c441da0ecce6e2e085100,UFC Gym,CT,2019-03-01T00:00:00-05:00,2019-04-01T00:00:00-04:00,6901,501,63.0,"{""<5"":6,""5-20"":101,""21-60"":132,""61-240"":193,"">240"":69}",52230.0,41.053981,-73.54051199999999,713940.0,CT,9.0,9001.0,Fairfield County,90010201002.0
11631,sg:5ed6bd833f2c44e2a0e4896be88ee2a1,St Paul's On the Green,CT,2019-03-01T00:00:00-05:00,2019-04-01T00:00:00-04:00,6851,4,50.0,"{""<5"":0,""5-20"":0,""21-60"":3,""61-240"":1,"">240"":0}",272.0,41.120737,-73.407445,813110.0,CT,9.0,9001.0,Fairfield County,90010436003.0
11769,sg:6af29054c1194fd68dea4b581ec870ee,Center For Psychorapy Inc,CT,2019-03-01T00:00:00-05:00,2019-04-01T00:00:00-04:00,6426,11,56.0,"{""<5"":0,""5-20"":3,""21-60"":3,""61-240"":5,"">240"":0}",911.5,41.351805,-72.387955,621111.0,CT,9.0,9007.0,Middlesex County,90076301004.0
11839,sg:71fcaafbd441499089a66964c267f12b,Starling Physicians,CT,2019-03-01T00:00:00-05:00,2019-04-01T00:00:00-04:00,6051,703,50.0,"{""<5"":10,""5-20"":125,""21-60"":272,""61-240"":168,"">240"":128}",68607.5,41.647968,-72.78676899999999,621111.0,CT,9.0,9003.0,Hartford County,90034156003.0
11993,sg:81c29b3d434842178753200c79b03604,Ray's Automotive,CT,2019-03-01T00:00:00-05:00,2019-04-01T00:00:00-04:00,6706,2,42.0,"{""<5"":0,""5-20"":0,""21-60"":2,""61-240"":0,"">240"":0}",81.0,41.530514000000004,-73.037745,811121.0,CT,9.0,9009.0,New Haven County,90093515003.0
12034,sg:85e59a8d45c84dd9af1e058ca1d89562,Greg Twardy Landscape Service,CT,2019-03-01T00:00:00-05:00,2019-04-01T00:00:00-04:00,6820,23,42.0,"{""<5"":0,""5-20"":11,""21-60"":1,""61-240"":5,"">240"":6}",2370.5,41.074676000000004,-73.488116,444130.0,CT,9.0,9001.0,Fairfield County,90010305001.0
12174,sg:92bfc51e137242d4a4aac5b5cdc350dc,Middlebury Convalescent Home,CT,2019-03-01T00:00:00-05:00,2019-04-01T00:00:00-04:00,6762,104,60.5,"{""<5"":3,""5-20"":28,""21-60"":21,""61-240"":24,"">240"":28}",11540.0,41.538376,-73.114599,621610.0,CT,9.0,9009.0,New Haven County,90093441002.0
12237,sg:9889a1e8027f4314b8fffbcd7f97af0c,Foot & Ankle Specialists Of Connecticut,CT,2019-03-01T00:00:00-05:00,2019-04-01T00:00:00-04:00,6062,5,31.0,"{""<5"":0,""5-20"":2,""21-60"":1,""61-240"":2,"">240"":0}",366.5,41.678886,-72.847937,621111.0,CT,9.0,9003.0,Hartford County,90034206002.0
12243,sg:99011f3a2c2e4895bae7e0e37e9df06b,Mexican Restaurants,CT,2019-03-01T00:00:00-05:00,2019-04-01T00:00:00-04:00,6614,56,68.0,"{""<5"":0,""5-20"":20,""21-60"":7,""61-240"":12,"">240"":17}",6419.5,41.219165999999994,-73.136826,722511.0,CT,9.0,9001.0,Fairfield County,90010811001.0
12283,sg:9cb587f872304a5c99d4d9e36431ca83,The Cambridge House Brew Pub,CT,2019-03-01T00:00:00-05:00,2019-04-01T00:00:00-04:00,6035,274,59.5,"{""<5"":3,""5-20"":45,""21-60"":91,""61-240"":115,"">240"":20}",26363.0,41.966035999999995,-72.792688,722511.0,CT,9.0,9003.0,Hartford County,90034681021.0
12504,sg:b41b3cdb0847441eb1a8a20e3ad4e635,Danbury Academy Mixed Martial Arts,CT,2019-03-01T00:00:00-05:00,2019-04-01T00:00:00-04:00,6811,442,64.0,"{""<5"":7,""5-20"":83,""21-60"":108,""61-240"":236,"">240"":8}",42867.0,41.423303999999995,-73.45046500000001,713940.0,CT,9.0,9001.0,Fairfield County,90012112003.0
12597,sg:bd785c60bd134055946bef750967576c,AutoZone,CT,2019-03-01T00:00:00-05:00,2019-04-01T00:00:00-04:00,6483,202,10.0,"{""<5"":8,""5-20"":133,""21-60"":31,""61-240"":25,"">240"":5}",7900.5,41.395146000000004,-73.074572,441310.0,CT,9.0,9009.0,New Haven County,90091301012.0
12702,sg:c6e72e62f42e4f8abdadd87a0b77ad2b,Dick's Sporting Goods,CT,2019-03-01T00:00:00-05:00,2019-04-01T00:00:00-04:00,6082,723,21.0,"{""<5"":16,""5-20"":307,""21-60"":298,""61-240"":62,"">240"":40}",34877.5,41.995020000000004,-72.575653,451110.0,CT,9.0,9003.0,Hartford County,90034808004.0
12776,sg:d10f51ec60804119bc21208317d5139e,Erika's Homecare,CT,2019-03-01T00:00:00-05:00,2019-04-01T00:00:00-04:00,6606,292,124.5,"{""<5"":2,""5-20"":50,""21-60"":58,""61-240"":73,"">240"":109}",40125.5,41.204546,-73.208004,621610.0,CT,9.0,9001.0,Fairfield County,90010723001.0
12932,sg:e04c69da08fa4c939a7d2bdefde1a9ca,Sendflowers com,CT,2019-03-01T00:00:00-05:00,2019-04-01T00:00:00-04:00,6475,2,283.5,"{""<5"":0,""5-20"":1,""21-60"":0,""61-240"":0,"">240"":1}",252.5,41.300127,-72.383932,453110.0,CT,9.0,9007.0,Middlesex County,90076702001.0
13031,sg:eb9ed13882c649f1b4fb99aa92bdda02,Wholesale Mat Boards,CT,2019-03-01T00:00:00-05:00,2019-04-01T00:00:00-04:00,6418,4,43.0,"{""<5"":0,""5-20"":0,""21-60"":3,""61-240"":1,"">240"":0}",272.0,41.313531,-73.07005699999999,453998.0,CT,9.0,9009.0,New Haven County,90091201003.0
13059,sg:ee6a6fb1bb7a4fcd8dd65426115b003f,Associates in Family Chiropractic & Natural Health Care P C,CT,2019-03-01T00:00:00-05:00,2019-04-01T00:00:00-04:00,6851,1,22.0,"{""<5"":0,""5-20"":0,""21-60"":1,""61-240"":0,"">240"":0}",40.5,41.110292,-73.40764300000001,621310.0,CT,9.0,9001.0,Fairfield County,90010436002.0
13142,sg:f6737c25e6f448548768da8b365df4b2,Dunkin',CT,2019-03-01T00:00:00-05:00,2019-04-01T00:00:00-04:00,6610,252,8.0,"{""<5"":19,""5-20"":164,""21-60"":30,""61-240"":23,"">240"":16}",10614.0,41.192803000000005,-73.154208,722515.0,CT,9.0,9001.0,Fairfield County,90010733001.0
13158,sg:f891731dd7124a7db62a3e9935a8898e,Lifted Lash &amp Brow Studio,CT,2019-03-01T00:00:00-05:00,2019-04-01T00:00:00-04:00,6460,24,32.5,"{""<5"":0,""5-20"":10,""21-60"":7,""61-240"":5,"">240"":2}",1641.0,41.215817,-73.072401,446120.0,CT,9.0,9009.0,New Haven County,90091502001.0
13177,sg:f9f77240aece48768c4eaf8986f2e167,Slice of Stamford,CT,2019-03-01T00:00:00-05:00,2019-04-01T00:00:00-04:00,6905,56,17.5,"{""<5"":3,""5-20"":33,""21-60"":17,""61-240"":3,"">240"":0}",1560.0,41.080327000000004,-73.53246,722511.0,CT,9.0,9001.0,Fairfield County,90010210002.0
13243,sg:005e0d46e67d4bddb5ccd4cd9463a5d3,Nichols United Methodist Church,CT,2019-03-01T00:00:00-05:00,2019-04-01T00:00:00-04:00,6611,19,27.0,"{""<5"":1,""5-20"":8,""21-60"":1,""61-240"":9,"">240"":0}",1497.5,41.242166999999995,-73.161291,813110.0,CT,9.0,9001.0,Fairfield County,90010905001.0
13263,sg:021d5dc9aa1e4a3ea7e51f88943f030a,Grassmere Country Club,CT,2019-03-01T00:00:00-05:00,2019-04-01T00:00:00-04:00,6082,110,63.0,"{""<5"":0,""5-20"":25,""21-60"":26,""61-240"":55,"">240"":4}",10603.0,41.953887,-72.53079,713910.0,CT,9.0,9003.0,Hartford County,90034810002.0
13352,sg:0a87966335944cb5bb6a7fee8a9e7a74,G By GUESS,CT,2019-03-01T00:00:00-05:00,2019-04-01T00:00:00-04:00,6338,8,10.5,"{""<5"":0,""5-20"":8,""21-60"":0,""61-240"":0,"">240"":0}",100.0,41.476133000000004,-71.96161,448140.0,CT,9.0,9011.0,New London County,90117011005.0
13412,sg:0e9132bc8264432d9b3614f3cbf8a3e1,ABC Supply,CT,2019-03-01T00:00:00-05:00,2019-04-01T00:00:00-04:00,6120,325,131.0,"{""<5"":5,""5-20"":79,""21-60"":42,""61-240"":80,"">240"":119}",43301.0,41.797155,-72.659842,423330.0,CT,9.0,9003.0,Hartford County,90035007001.0
13517,sg:19d66d70adde48a78aee837b611861ff,85 Main,CT,2019-03-01T00:00:00-05:00,2019-04-01T00:00:00-04:00,6260,479,58.0,"{""<5"":12,""5-20"":97,""21-60"":135,""61-240"":212,"">240"":23}",44136.0,41.915124,-71.908785,722511.0,CT,9.0,9015.0,Windham County,90159031007.0
13518,sg:19f125fed75e4cd8994a4ceac65910c8,Genesis HealthCare,CT,2019-03-01T00:00:00-05:00,2019-04-01T00:00:00-04:00,6070,68,256.5,"{""<5"":0,""5-20"":5,""21-60"":7,""61-240"":19,"">240"":37}",12085.5,41.874093,-72.812026,621498.0,CT,9.0,9003.0,Hartford County,90034663002.0
13530,sg:1b79ba4a87d94e788522a7efc4e0a8f0,Suibian,CT,2019-03-01T00:00:00-05:00,2019-04-01T00:00:00-04:00,6510,203,37.0,"{""<5"":4,""5-20"":79,""21-60"":35,""61-240"":59,"">240"":26}",17534.5,41.305112,-72.92791,722511.0,CT,9.0,9009.0,New Haven County,90091401001.0
13601,sg:23544fb282034458acfa10b012fe3037,Hotel Zero Degrees Danbury,CT,2019-03-01T00:00:00-05:00,2019-04-01T00:00:00-04:00,6810,309,83.0,"{""<5"":0,""5-20"":44,""21-60"":72,""61-240"":111,"">240"":82}",39851.5,41.387003,-73.518247,721110.0,CT,9.0,9001.0,Fairfield County,90012105003.0
13646,sg:2891e8390a4d4877a35d261399285460,Hearing Care Centers,CT,2019-03-01T00:00:00-05:00,2019-04-01T00:00:00-04:00,6790,10,69.5,"{""<5"":0,""5-20"":2,""21-60"":1,""61-240"":3,"">240"":4}",1477.0,41.818577000000005,-73.14555,621399.0,CT,9.0,9005.0,Litchfield County,90053107001.0
13691,sg:2c45d00a994a47bd9d288ec4b1234b3c,Norton Cheshire Southington School,CT,2019-03-01T00:00:00-05:00,2019-04-01T00:00:00-04:00,6410,92,43.0,"{""<5"":9,""5-20"":31,""21-60"":7,""61-240"":15,"">240"":30}",10151.0,41.479103,-72.918622,624410.0,CT,9.0,9009.0,New Haven County,90093434001.0
13752,sg:31f37f08c30b495e861240c7c7703d4f,Keating Bros Motors,CT,2019-03-01T00:00:00-05:00,2019-04-01T00:00:00-04:00,6518,1,389.0,"{""<5"":0,""5-20"":0,""21-60"":0,""61-240"":0,"">240"":1}",240.0,41.391212,-72.897903,811111.0,CT,9.0,9009.0,New Haven County,90091660014.0
13818,sg:378901ec024f415d8956c035b984379e,Hair & Nail Gallery by Darlene D G Bead Designs,CT,2019-03-01T00:00:00-05:00,2019-04-01T00:00:00-04:00,6095,62,88.5,"{""<5"":0,""5-20"":10,""21-60"":16,""61-240"":22,"">240"":14}",7444.0,41.851653000000006,-72.645546,812112.0,CT,9.0,9003.0,Hartford County,90034734001.0
13943,sg:418c91b1c3da411582295c8d59c4446e,NAPA Auto Parts,CT,2019-03-01T00:00:00-05:00,2019-04-01T00:00:00-04:00,6018,12,6.0,"{""<5"":0,""5-20"":12,""21-60"":0,""61-240"":0,"">240"":0}",150.0,42.025923999999996,-73.323944,441310.0,CT,9.0,9005.0,Litchfield County,90052602001.0
13980,sg:459366c1746f4492be77b096ad3f7c5c,Talbot's Outlet,CT,2019-03-01T00:00:00-05:00,2019-04-01T00:00:00-04:00,6413,242,26.0,"{""<5"":3,""5-20"":85,""21-60"":102,""61-240"":41,"">240"":11}",14011.5,41.291767,-72.533723,448120.0,CT,9.0,9007.0,Middlesex County,90076104001.0
14015,sg:4961fcd0ce4b424ba7d90ac798c9ae45,Pandas Playmates,CT,2019-03-01T00:00:00-05:00,2019-04-01T00:00:00-04:00,6897,127,105.0,"{""<5"":0,""5-20"":24,""21-60"":24,""61-240"":65,"">240"":14}",14414.5,41.211616,-73.429076,624410.0,CT,9.0,9001.0,Fairfield County,90010451022.0
14087,sg:4fc6c936de3c45558277ef0e627c3c88,All Saints Catholic School,CT,2019-03-01T00:00:00-05:00,2019-04-01T00:00:00-04:00,6851,580,66.5,"{""<5"":17,""5-20"":196,""21-60"":67,""61-240"":107,"">240"":193}",67629.5,41.137651,-73.417037,611110.0,CT,9.0,9001.0,Fairfield County,90010427002.0
14153,sg:5571b3a4db724dc7928152d70c2885f2,Northern Nurseries,CT,2019-03-01T00:00:00-05:00,2019-04-01T00:00:00-04:00,6096,8,33.5,"{""<5"":0,""5-20"":3,""21-60"":3,""61-240"":2,"">240"":0}",460.0,41.938188000000004,-72.60333100000001,811411.0,CT,9.0,9003.0,Hartford County,90034813002.0
14169,sg:569f041fac254e878b1ceb3520eb1339,Candlewood Valley Health & Rehabilitation Center,CT,2019-03-01T00:00:00-05:00,2019-04-01T00:00:00-04:00,6776,316,165.0,"{""<5"":2,""5-20"":35,""21-60"":48,""61-240"":118,"">240"":113}",47265.5,41.597955,-73.401534,621330.0,CT,9.0,9005.0,Litchfield County,90052532001.0
14213,sg:5b6d956e965946bbad0c66c4cb4c8718,Home Deep Cleaning,CT,2019-03-01T00:00:00-05:00,2019-04-01T00:00:00-04:00,6604,312,100.0,"{""<5"":7,""5-20"":66,""21-60"":42,""61-240"":100,"">240"":97}",40873.5,41.193988,-73.21525600000001,561740.0,CT,9.0,9001.0,Fairfield County,90010722003.0
14248,sg:5d8190b7c3f04f17a5219a8bbc2eedf5,West Elm,CT,2019-03-01T00:00:00-05:00,2019-04-01T00:00:00-04:00,6107,137,21.0,"{""<5"":8,""5-20"":60,""21-60"":36,""61-240"":27,"">240"":6}",7731.5,41.759434000000006,-72.74060899999999,442299.0,CT,9.0,9003.0,Hartford County,90034969006.0
14320,sg:64509863272446e9ba5005d8f26ebee9,Salisbury Artisans,CT,2019-03-01T00:00:00-05:00,2019-04-01T00:00:00-04:00,6068,2,69.0,"{""<5"":0,""5-20"":0,""21-60"":1,""61-240"":1,"">240"":0}",191.0,41.98527,-73.427501,442110.0,CT,9.0,9005.0,Litchfield County,90052611001.0
14343,sg:670cadc8ebd8415eb22924a86f29113c,Jared Eliot School,CT,2019-03-01T00:00:00-05:00,2019-04-01T00:00:00-04:00,6413,962,193.0,"{""<5"":13,""5-20"":213,""21-60"":119,""61-240"":174,"">240"":443}",140021.5,41.297218,-72.51994499999999,611110.0,CT,9.0,9007.0,Middlesex County,90076103001.0
14382,sg:6b7c86cb26eb45efbb24c172250e8ef0,Masters Table Ministries,CT,2019-03-01T00:00:00-05:00,2019-04-01T00:00:00-04:00,6114,27,111.0,"{""<5"":2,""5-20"":6,""21-60"":3,""61-240"":8,"">240"":8}",3325.5,41.740595,-72.672519,813110.0,CT,9.0,9003.0,Hartford County,90035024002.0
14529,sg:7aece148ead348538d4256096f82f47e,Muse Milford,CT,2019-03-01T00:00:00-05:00,2019-04-01T00:00:00-04:00,6461,17,40.0,"{""<5"":2,""5-20"":6,""21-60"":2,""61-240"":6,"">240"":1}",1304.0,41.244977,-73.074775,522110.0,CT,9.0,9009.0,New Haven County,90091507002.0
14626,sg:833f3c851f0b49baa8f8edd7ed43cde9,Family First Chiropractic Center,CT,2019-03-01T00:00:00-05:00,2019-04-01T00:00:00-04:00,6776,3,5.0,"{""<5"":1,""5-20"":1,""21-60"":1,""61-240"":0,"">240"":0}",55.5,41.555484,-73.416496,621310.0,CT,9.0,9005.0,Litchfield County,90052536001.0
14887,sg:9a1587e35b7c44f692268aa86ed56de3,Wesco Sports Center,CT,2019-03-01T00:00:00-05:00,2019-04-01T00:00:00-04:00,6804,48,11.5,"{""<5"":2,""5-20"":38,""21-60"":7,""61-240"":0,"">240"":1}",1003.5,41.44681,-73.404595,451110.0,CT,9.0,9001.0,Fairfield County,90012053003.0
14925,sg:9d9f29cdec554389ae19940f9f20f7ca,Starling Physicians,CT,2019-03-01T00:00:00-05:00,2019-04-01T00:00:00-04:00,6002,21,25.0,"{""<5"":1,""5-20"":6,""21-60"":10,""61-240"":2,"">240"":2}",1263.5,41.816774,-72.724703,621111.0,CT,9.0,9003.0,Hartford County,90034713002.0
14926,sg:9da7690189df4763b4da100e119a683b,New Kitchen,CT,2019-03-01T00:00:00-05:00,2019-04-01T00:00:00-04:00,6604,150,22.5,"{""<5"":8,""5-20"":65,""21-60"":21,""61-240"":23,"">240"":33}",13064.5,41.178329999999995,-73.19575400000001,722511.0,CT,9.0,9001.0,Fairfield County,90010706001.0
14954,sg:a0cb01066b0d4125964ef92111f1e2d7,The Honey Bee Florist and More,CT,2019-03-01T00:00:00-05:00,2019-04-01T00:00:00-04:00,6790,202,28.0,"{""<5"":3,""5-20"":80,""21-60"":62,""61-240"":48,"">240"":9}",12902.5,41.801207,-73.120851,453110.0,CT,9.0,9005.0,Litchfield County,90053103001.0
15221,sg:bbc57294a8ef487baae679d138a0f2b7,D & M Recovery & Towing,CT,2019-03-01T00:00:00-05:00,2019-04-01T00:00:00-04:00,6457,2,190.0,"{""<5"":0,""5-20"":0,""21-60"":0,""61-240"":1,"">240"":1}",390.5,41.551578000000006,-72.643733,488410.0,CT,9.0,9007.0,Middlesex County,90075417002.0
15304,sg:c5be9f2afe67433a97ae49afcb3ea362,Chuck E. Cheese's,CT,2019-03-01T00:00:00-05:00,2019-04-01T00:00:00-04:00,6042,390,61.0,"{""<5"":6,""5-20"":82,""21-60"":104,""61-240"":168,"">240"":30}",37736.0,41.79914,-72.553635,722513.0,CT,9.0,9003.0,Hartford County,90035141021.0
15375,sg:cbf8f3648c5f45d7a0dd5ca9a91810de,Lincoln Technical Institute,CT,2019-03-01T00:00:00-05:00,2019-04-01T00:00:00-04:00,6088,84,43.0,"{""<5"":0,""5-20"":25,""21-60"":21,""61-240"":24,"">240"":14}",8135.0,41.92416,-72.597158,611310.0,CT,9.0,9003.0,Hartford County,90034841002.0
15768,sg:f2d36bb5198b46fb8580817e878ff499,Consignment Originals,CT,2019-03-01T00:00:00-05:00,2019-04-01T00:00:00-04:00,6042,623,31.0,"{""<5"":9,""5-20"":204,""21-60"":269,""61-240"":131,"">240"":10}",35582.5,41.808197,-72.536338,453310.0,CT,9.0,9003.0,Hartford County,90035141021.0
15786,sg:f416e7b8dcbf4c9c958f24081e6406d7,Neil Salesky DMD MAGD,CT,2019-03-01T00:00:00-05:00,2019-04-01T00:00:00-04:00,6479,26,34.0,"{""<5"":0,""5-20"":8,""21-60"":14,""61-240"":4,"">240"":0}",1269.0,41.588113,-72.888276,621210.0,CT,9.0,9003.0,Hartford County,90034301002.0
16000,sg:07ac4d6fd3df4e9ba5a202145b05ed0a,Cheshire Sports Center,CT,2019-03-01T00:00:00-05:00,2019-04-01T00:00:00-04:00,6410,138,21.0,"{""<5"":5,""5-20"":63,""21-60"":31,""61-240"":33,"">240"":6}",8462.0,41.497033,-72.90083,451110.0,CT,9.0,9009.0,New Haven County,90093433001.0
16402,sg:2a86d4aef8004c4f831b8f133eedfb53,Corey's Gift Baskets,CT,2019-03-01T00:00:00-05:00,2019-04-01T00:00:00-04:00,6702,116,8.0,"{""<5"":12,""5-20"":82,""21-60"":7,""61-240"":9,"">240"":6}",4133.0,41.552632,-73.043796,445110.0,CT,9.0,9009.0,New Haven County,90093501002.0
16519,sg:365ee56a9fd149779b5f326ce8123b38,Showroom Auto Center,CT,2019-03-01T00:00:00-05:00,2019-04-01T00:00:00-04:00,6226,2,149.0,"{""<5"":0,""5-20"":0,""21-60"":0,""61-240"":2,"">240"":0}",301.0,41.719408,-72.196252,811121.0,CT,9.0,9015.0,Windham County,90158006001.0
16643,sg:430ad48cd57d41e89a421e318e1dce8c,True Value Hardware,CT,2019-03-01T00:00:00-05:00,2019-04-01T00:00:00-04:00,6355,113,10.0,"{""<5"":8,""5-20"":85,""21-60"":13,""61-240"":7,"">240"":0}",2662.5,41.376965000000006,-71.95938199999999,444130.0,CT,9.0,9011.0,New London County,90117054002.0
16758,sg:4f43340f8698419ebd6eceda7c808ab4,Cedar Grille At The Bar,CT,2019-03-01T00:00:00-05:00,2019-04-01T00:00:00-04:00,6111,81,54.0,"{""<5"":3,""5-20"":20,""21-60"":23,""61-240"":30,"">240"":5}",6904.0,41.695463000000004,-72.74687,722511.0,CT,9.0,9003.0,Hartford County,90034946002.0
16854,sg:5684b24048b74cef8374f5ffa086db47,Dynobite Smiles,CT,2019-03-01T00:00:00-05:00,2019-04-01T00:00:00-04:00,6762,17,30.0,"{""<5"":1,""5-20"":6,""21-60"":7,""61-240"":3,"">240"":0}",812.5,41.529939,-73.086862,621210.0,CT,9.0,9009.0,New Haven County,90093441003.0
17037,sg:6834273c8620405cbd839094ebe38670,Wing It On,CT,2019-03-01T00:00:00-05:00,2019-04-01T00:00:00-04:00,6606,105,15.0,"{""<5"":5,""5-20"":60,""21-60"":24,""61-240"":7,"">240"":9}",4948.0,41.221348,-73.217457,722511.0,CT,9.0,9001.0,Fairfield County,90010727003.0
17110,sg:6ef9379df9e04f6db43aab6391ad94f7,Gfeller Robert J,CT,2019-03-01T00:00:00-05:00,2019-04-01T00:00:00-04:00,6002,35,13.0,"{""<5"":3,""5-20"":16,""21-60"":7,""61-240"":6,"">240"":3}",2114.0,41.809267,-72.76813299999999,621111.0,CT,9.0,9003.0,Hartford County,90034714003.0
17118,sg:6feac9cb220b439ab071cde03da61306,Evergreen II Patient Service Center Aff of Echn Lab,CT,2019-03-01T00:00:00-05:00,2019-04-01T00:00:00-04:00,6074,4,26.5,"{""<5"":0,""5-20"":2,""21-60"":2,""61-240"":0,"">240"":0}",106.0,41.820499,-72.553764,621511.0,CT,9.0,9003.0,Hartford County,90034875002.0
17120,sg:702e810503874bdaabdfce6e782ab409,Precision Hearing,CT,2019-03-01T00:00:00-05:00,2019-04-01T00:00:00-04:00,6614,5,20.0,"{""<5"":0,""5-20"":3,""21-60"":1,""61-240"":0,"">240"":1}",318.0,41.243472,-73.102102,621111.0,CT,9.0,9001.0,Fairfield County,90010812001.0
17176,sg:75dd1e87f3b3457eb34b30895f497756,Levine Insurance Group,CT,2019-03-01T00:00:00-05:00,2019-04-01T00:00:00-04:00,6333,1,5.0,"{""<5"":0,""5-20"":1,""21-60"":0,""61-240"":0,"">240"":0}",12.5,41.368632,-72.221412,524210.0,CT,9.0,9011.0,New London County,90117161021.0
17598,sg:a091e3b0369d4449a5a32b43c9c72aaa,CITGO,CT,2019-03-01T00:00:00-05:00,2019-04-01T00:00:00-04:00,6010,238,8.0,"{""<5"":24,""5-20"":140,""21-60"":31,""61-240"":23,"">240"":20}",11327.0,41.683198,-72.940584,447110.0,CT,9.0,9003.0,Hartford County,90034051001.0
17872,sg:bcb2472f5bec40f98901bae95688c109,Miller Fuel,CT,2019-03-01T00:00:00-05:00,2019-04-01T00:00:00-04:00,6013,3,32.0,"{""<5"":0,""5-20"":0,""21-60"":2,""61-240"":0,"">240"":1}",321.0,41.743187,-72.906559,238220.0,CT,9.0,9003.0,Hartford County,90034101012.0
17878,sg:bd0ee5df45da46eca7fb7620b020237c,Osbornedale State Park,CT,2019-03-01T00:00:00-05:00,2019-04-01T00:00:00-04:00,6418,999,50.0,"{""<5"":26,""5-20"":276,""21-60"":247,""61-240"":288,"">240"":162}",95742.5,41.338858,-73.104452,712190.0,CT,9.0,9009.0,New Haven County,90091202004.0
17906,sg:bfc012c26f74472bb3a44ef1dd4d0dd0,Sysco Food Services,CT,2019-03-01T00:00:00-05:00,2019-04-01T00:00:00-04:00,6067,654,68.0,"{""<5"":9,""5-20"":169,""21-60"":125,""61-240"":205,"">240"":146}",73090.0,41.635616,-72.681341,445110.0,CT,9.0,9003.0,Hartford County,90034903024.0
18154,sg:d7f2b006481b4aa68b6aa3909a0ffbdc,Circulatory Centers,CT,2019-03-01T00:00:00-05:00,2019-04-01T00:00:00-04:00,6415,2,55.0,"{""<5"":0,""5-20"":0,""21-60"":1,""61-240"":1,"">240"":0}",191.0,41.577276,-72.336718,621111.0,CT,9.0,9011.0,New London County,90117141011.0
18191,sg:dc681fc708b34ed19d7b80636c1b4d18,St Emery Catholic Church,CT,2019-03-01T00:00:00-05:00,2019-04-01T00:00:00-04:00,6825,10,24.0,"{""<5"":0,""5-20"":4,""21-60"":4,""61-240"":2,"">240"":0}",513.0,41.168317,-73.232591,813110.0,CT,9.0,9001.0,Fairfield County,90010614001.0
18259,sg:e3652be2572a4affaad4f3c8b8ee82cf,Bassett Furniture Direct,CT,2019-03-01T00:00:00-05:00,2019-04-01T00:00:00-04:00,6492,27,134.0,"{""<5"":0,""5-20"":5,""21-60"":5,""61-240"":6,"">240"":11}",3808.0,41.496072,-72.77747099999999,442110.0,CT,9.0,9009.0,New Haven County,90091758001.0
18324,sg:e8e22dfe40194005a4d0fe7c7b55e533,Leblanc Family Dentistry LLC,CT,2019-03-01T00:00:00-05:00,2019-04-01T00:00:00-04:00,6088,16,33.5,"{""<5"":0,""5-20"":3,""21-60"":8,""61-240"":5,"">240"":0}",1114.0,41.908315,-72.612162,621210.0,CT,9.0,9003.0,Hartford County,90034841004.0
18365,sg:ec4a8f12d43747c0b32d70f6e9812850,Tully Health Center,CT,2019-03-01T00:00:00-05:00,2019-04-01T00:00:00-04:00,6902,476,53.0,"{""<5"":7,""5-20"":92,""21-60"":154,""61-240"":151,"">240"":72}",47410.0,41.064556,-73.534161,621111.0,CT,9.0,9001.0,Fairfield County,90010216004.0
18430,sg:f3b71e5dc14e4ca98cca97ac17fd2cf7,Rose City Auto,CT,2019-03-01T00:00:00-05:00,2019-04-01T00:00:00-04:00,6360,73,20.0,"{""<5"":1,""5-20"":36,""21-60"":16,""61-240"":15,"">240"":5}",4558.0,41.522279,-72.06223100000001,441120.0,CT,9.0,9011.0,New London County,90116970002.0
18501,sg:fbaaa18554cc4deb81f52e7469925af7,Pepsi Cola of Central New England,CT,2019-03-01T00:00:00-05:00,2019-04-01T00:00:00-04:00,6241,29,21.0,"{""<5"":0,""5-20"":14,""21-60"":4,""61-240"":10,"">240"":1}",2082.0,41.873509000000006,-71.900487,452319.0,CT,9.0,9015.0,Windham County,90159044001.0
18549,sg:ffce60d32306448885b932df9efc67a6,S Salon By Salvatore,CT,2019-03-01T00:00:00-05:00,2019-04-01T00:00:00-04:00,6468,5,11.0,"{""<5"":0,""5-20"":3,""21-60"":1,""61-240"":1,"">240"":0}",228.5,41.316547,-73.215781,812112.0,CT,9.0,9001.0,Fairfield County,90011002002.0
18598,sg:03b1ce2dfeb646599e3e051bfabec628,Lil Blessings Academy Day Care,CT,2019-03-01T00:00:00-05:00,2019-04-01T00:00:00-04:00,6604,57,21.0,"{""<5"":0,""5-20"":27,""21-60"":17,""61-240"":11,"">240"":2}",3161.5,41.192429,-73.216492,624410.0,CT,9.0,9001.0,Fairfield County,90010721001.0
18607,sg:04c2b619031f4bb48dc5ee92b2d2bd29,Pine Grove Fun Co,CT,2019-03-01T00:00:00-05:00,2019-04-01T00:00:00-04:00,6001,22,408.0,"{""<5"":0,""5-20"":3,""21-60"":0,""61-240"":1,"">240"":18}",4508.0,41.774898,-72.85516,624410.0,CT,9.0,9003.0,Hartford County,90034622012.0
18650,sg:076afd36c5464c8d933fafae72610cee,Sake Cafe Japanese Restaurant,CT,2019-03-01T00:00:00-05:00,2019-04-01T00:00:00-04:00,6109,101,53.0,"{""<5"":2,""5-20"":24,""21-60"":31,""61-240"":35,"">240"":9}",8988.0,41.691895,-72.657523,722511.0,CT,9.0,9003.0,Hartford County,90034926001.0
18655,sg:07f70d3511494aa282cb06f636c445bb,Kang Tae Kwon Do & Hapkido,CT,2019-03-01T00:00:00-05:00,2019-04-01T00:00:00-04:00,6870,162,30.0,"{""<5"":1,""5-20"":46,""21-60"":62,""61-240"":50,"">240"":3}",11333.5,41.030508000000005,-73.567584,713940.0,CT,9.0,9001.0,Fairfield County,90010110003.0
18756,sg:119d5906b27d48b0af754d3d88d5c26b,The Moto Lab,CT,2019-03-01T00:00:00-05:00,2019-04-01T00:00:00-04:00,6239,12,48.0,"{""<5"":1,""5-20"":4,""21-60"":1,""61-240"":2,"">240"":4}",1354.0,41.744021999999994,-71.901525,441228.0,CT,9.0,9015.0,Windham County,90159071002.0
18763,sg:1234564f03b94392ae2b7ca99e0092b3,Rainbow Stores,CT,2019-03-01T00:00:00-05:00,2019-04-01T00:00:00-04:00,6051,107,14.0,"{""<5"":3,""5-20"":72,""21-60"":29,""61-240"":3,"">240"":0}",2533.5,41.670627,-72.78078199999999,448120.0,CT,9.0,9003.0,Hartford County,90034171001.0
18806,sg:15a247863c8c4fcc861b0bc0a0f75cfa,Wells Fargo,CT,2019-03-01T00:00:00-05:00,2019-04-01T00:00:00-04:00,6514,1,223.0,"{""<5"":0,""5-20"":0,""21-60"":0,""61-240"":1,"">240"":0}",150.5,41.370721,-72.919412,522110.0,CT,9.0,9009.0,New Haven County,90091658012.0
18948,sg:22b9e5756c2d46fd9db28c281c589896,Best Western,CT,2019-03-01T00:00:00-05:00,2019-04-01T00:00:00-04:00,6473,634,143.0,"{""<5"":9,""5-20"":117,""21-60"":90,""61-240"":149,"">240"":269}",92114.5,41.401253999999994,-72.85135600000001,721110.0,CT,9.0,9009.0,New Haven County,90091672022.0
18955,sg:237ec80f3547498db2b3da0f25106796,Creative Wholesale Meats,CT,2019-03-01T00:00:00-05:00,2019-04-01T00:00:00-04:00,6824,363,14.0,"{""<5"":19,""5-20"":191,""21-60"":40,""61-240"":47,"">240"":66}",26968.5,41.16198,-73.233509,445110.0,CT,9.0,9001.0,Fairfield County,90010614001.0
19012,sg:28d0a1efe6524efd9e4ae65f66d4e98b,Pet Valu,CT,2019-03-01T00:00:00-05:00,2019-04-01T00:00:00-04:00,6801,35,6.0,"{""<5"":4,""5-20"":24,""21-60"":0,""61-240"":0,"">240"":7}",1990.0,41.373924,-73.415205,453910.0,CT,9.0,9001.0,Fairfield County,90012002001.0
19021,sg:29951dc906374d1b96c3df470de97cdd,Room With A Doo,CT,2019-03-01T00:00:00-05:00,2019-04-01T00:00:00-04:00,6110,1,445.0,"{""<5"":0,""5-20"":0,""21-60"":0,""61-240"":0,"">240"":1}",240.0,41.741065,-72.719961,812112.0,CT,9.0,9003.0,Hartford County,90034961003.0
19094,sg:3034334a85014545928b3fbfde147144,KNB Design,CT,2019-03-01T00:00:00-05:00,2019-04-01T00:00:00-04:00,6511,374,61.0,"{""<5"":2,""5-20"":106,""21-60"":78,""61-240"":136,"">240"":52}",37437.0,41.32476,-72.93284799999999,442299.0,CT,9.0,9009.0,New Haven County,90091415006.0
19115,sg:32e8523d5d334129a273ea73a895a3d3,St John the Evangelist Episcopal Church,CT,2019-03-01T00:00:00-05:00,2019-04-01T00:00:00-04:00,6492,18,24.5,"{""<5"":1,""5-20"":7,""21-60"":4,""61-240"":5,"">240"":1}",1244.5,41.491938,-72.82109399999999,813110.0,CT,9.0,9009.0,New Haven County,90091757001.0
19381,sg:4df05bdbe443428f9b0af6a47736d4c9,Akasa,CT,2019-03-01T00:00:00-05:00,2019-04-01T00:00:00-04:00,6787,291,62.0,"{""<5"":0,""5-20"":28,""21-60"":109,""61-240"":130,"">240"":24}",30089.5,41.65967,-73.083586,713940.0,CT,9.0,9005.0,Litchfield County,90053491002.0
19464,sg:5540ec23f9f4425088f48cbe3283935d,Goodwill Industries,CT,2019-03-01T00:00:00-05:00,2019-04-01T00:00:00-04:00,6605,698,35.0,"{""<5"":14,""5-20"":228,""21-60"":187,""61-240"":171,"">240"":98}",59714.0,41.161084,-73.219164,453310.0,CT,9.0,9001.0,Fairfield County,90010702002.0
19501,sg:5850229426324c93bcbd9d4d74554478,Kobe Asian Bistro,CT,2019-03-01T00:00:00-05:00,2019-04-01T00:00:00-04:00,6042,135,38.0,"{""<5"":2,""5-20"":45,""21-60"":56,""61-240"":29,"">240"":3}",7920.0,41.798018,-72.553756,722511.0,CT,9.0,9003.0,Hartford County,90035141021.0
19519,sg:5a4b1d904fcb4bef8087b5f806c809b6,CubeSmart,CT,2019-03-01T00:00:00-05:00,2019-04-01T00:00:00-04:00,6237,9,24.0,"{""<5"":0,""5-20"":4,""21-60"":4,""61-240"":1,"">240"":0}",362.5,41.714938000000004,-72.248922,531130.0,CT,9.0,9013.0,Tolland County,90138601002.0
19555,sg:5c98bc2a811641b0b264e54e692094f8,Danielson Pharmacy,CT,2019-03-01T00:00:00-05:00,2019-04-01T00:00:00-04:00,6239,127,48.0,"{""<5"":1,""5-20"":43,""21-60"":27,""61-240"":31,"">240"":25}",12299.0,41.80893,-71.87554200000001,446110.0,CT,9.0,9015.0,Windham County,90159045005.0
19608,sg:6274f4e597cc4e2cbb063402dcdd91e1,Gerard & Company,CT,2019-03-01T00:00:00-05:00,2019-04-01T00:00:00-04:00,6467,12,50.5,"{""<5"":2,""5-20"":1,""21-60"":4,""61-240"":4,"">240"":1}",1021.5,41.564820000000005,-72.899964,812112.0,CT,9.0,9003.0,Hartford County,90034304002.0
19735,sg:6e31f324e572448f83f45e0b82badaf4,Against All Odds Personal Training,CT,2019-03-01T00:00:00-05:00,2019-04-01T00:00:00-04:00,6033,43,20.0,"{""<5"":0,""5-20"":22,""21-60"":14,""61-240"":6,"">240"":1}",1985.0,41.717546,-72.607303,713940.0,CT,9.0,9003.0,Hartford County,90035203022.0
19738,sg:6f2db460fc544ba29183a1b96fa88d97,Ridgefield Physical Therapy,CT,2019-03-01T00:00:00-05:00,2019-04-01T00:00:00-04:00,6877,1,505.0,"{""<5"":0,""5-20"":0,""21-60"":0,""61-240"":0,"">240"":1}",240.0,41.295736,-73.494174,621340.0,CT,9.0,9001.0,Fairfield County,90012451001.0
19861,sg:78ddc9c2a3424edeb900d7cf2cf2e58f,Summit Fitness and Sports,CT,2019-03-01T00:00:00-05:00,2019-04-01T00:00:00-04:00,6360,710,64.0,"{""<5"":5,""5-20"":86,""21-60"":220,""61-240"":392,"">240"":7}",70673.5,41.564178999999996,-72.113333,713940.0,CT,9.0,9011.0,New London County,90116962003.0
19890,sg:7cbbb31ea64445149e45d63c825b4137,State House,CT,2019-03-01T00:00:00-05:00,2019-04-01T00:00:00-04:00,6510,67,37.0,"{""<5"":2,""5-20"":24,""21-60"":19,""61-240"":17,"">240"":5}",4833.0,41.304287,-72.92324,712190.0,CT,9.0,9009.0,New Haven County,90091401001.0
20014,sg:895704dfd656438f8b06f7b0ab44b3cc,BrickBox,CT,2019-03-01T00:00:00-05:00,2019-04-01T00:00:00-04:00,6614,353,45.0,"{""<5"":11,""5-20"":117,""21-60"":66,""61-240"":100,"">240"":59}",33373.0,41.196752000000004,-73.138511,722511.0,CT,9.0,9001.0,Fairfield County,90010809002.0
20027,sg:8a9d1eeefed34f1d8d911d550a4d70f0,Burger King,CT,2019-03-01T00:00:00-05:00,2019-04-01T00:00:00-04:00,6040,297,18.0,"{""<5"":7,""5-20"":153,""21-60"":53,""61-240"":35,"">240"":49}",21104.0,41.773702,-72.540145,722513.0,CT,9.0,9003.0,Hartford County,90035145004.0
20123,sg:923956cfa88d460f885ffd5805fb5358,Lee Partyka Isuzu,CT,2019-03-01T00:00:00-05:00,2019-04-01T00:00:00-04:00,6517,121,60.0,"{""<5"":3,""5-20"":25,""21-60"":33,""61-240"":53,"">240"":7}",11313.0,41.373104,-72.909826,441120.0,CT,9.0,9009.0,New Haven County,90091653001.0
20284,sg:a32f2946deee48af9a867548af3274ae,Diana Remaley Massage Therapy,CT,2019-03-01T00:00:00-05:00,2019-04-01T00:00:00-04:00,6880,2,72.0,"{""<5"":0,""5-20"":0,""21-60"":1,""61-240"":1,"">240"":0}",191.0,41.139699,-73.35323100000001,812199.0,CT,9.0,9001.0,Fairfield County,90010505001.0
20455,sg:b434e00948b942a58a5c6b2278fda942,M & M Cigar & Gifts,CT,2019-03-01T00:00:00-05:00,2019-04-01T00:00:00-04:00,6854,74,47.5,"{""<5"":0,""5-20"":21,""21-60"":18,""61-240"":22,"">240"":13}",7422.5,41.099214,-73.418014,453991.0,CT,9.0,9001.0,Fairfield County,90010441001.0
20472,sg:b6506996aac6475385762d978711225e,Frank's Auto Tops & Seat Covers,CT,2019-03-01T00:00:00-05:00,2019-04-01T00:00:00-04:00,6254,80,9.0,"{""<5"":0,""5-20"":69,""21-60"":10,""61-240"":1,"">240"":0}",1418.0,41.58037,-72.133002,811118.0,CT,9.0,9011.0,New London County,90117121002.0
20503,sg:b8833e790e144ec281103244f7c1ad68,Randstad,CT,2019-03-01T00:00:00-05:00,2019-04-01T00:00:00-04:00,6062,554,240.0,"{""<5"":3,""5-20"":60,""21-60"":54,""61-240"":168,"">240"":269}",92788.5,41.690273,-72.87461,561311.0,CT,9.0,9003.0,Hartford County,90034204001.0
20511,sg:b96332a7a0cf48ccaedff99b193fcf1c,Rockville Bank,CT,2019-03-01T00:00:00-05:00,2019-04-01T00:00:00-04:00,6238,19,40.0,"{""<5"":3,""5-20"":5,""21-60"":3,""61-240"":6,"">240"":2}",1574.5,41.772784,-72.307439,522110.0,CT,9.0,9013.0,Tolland County,90138502002.0
20545,sg:bcdba8abeb6a47f6b1738ce994ed2d5b,Yogi Brian's,CT,2019-03-01T00:00:00-05:00,2019-04-01T00:00:00-04:00,6851,77,100.0,"{""<5"":0,""5-20"":12,""21-60"":20,""61-240"":17,"">240"":28}",10238.5,41.119968,-73.406211,713940.0,CT,9.0,9001.0,Fairfield County,90010436003.0
20648,sg:c606f23137174dc7b820ffd9ca89ca94,The Nail Spa,CT,2019-03-01T00:00:00-05:00,2019-04-01T00:00:00-04:00,6029,38,86.0,"{""<5"":0,""5-20"":4,""21-60"":9,""61-240"":13,"">240"":12}",5251.0,41.893291,-72.46063000000001,812113.0,CT,9.0,9013.0,Tolland County,90135352003.0
20663,sg:c7674579153b48babb2efb6f14e41e4b,Gottier Guy W DC,CT,2019-03-01T00:00:00-05:00,2019-04-01T00:00:00-04:00,6084,2,6.5,"{""<5"":0,""5-20"":2,""21-60"":0,""61-240"":0,"">240"":0}",25.0,41.86975,-72.41126,621310.0,CT,9.0,9013.0,Tolland County,90135331013.0
20666,sg:c7eb59a4c5454a469c2edaed37e588df,Crown Billiards,CT,2019-03-01T00:00:00-05:00,2019-04-01T00:00:00-04:00,6320,578,21.0,"{""<5"":21,""5-20"":264,""21-60"":218,""61-240"":66,"">240"":9}",24274.5,41.367777000000004,-72.117289,451120.0,CT,9.0,9011.0,New London County,90116903004.0
20743,sg:d074674f83f04ac8af417677038e632d,Alpha Plating & Finishing Co,CT,2019-03-01T00:00:00-05:00,2019-04-01T00:00:00-04:00,6062,12,51.0,"{""<5"":1,""5-20"":3,""21-60"":4,""61-240"":4,"">240"":0}",804.0,41.669608000000004,-72.87653399999999,811192.0,CT,9.0,9003.0,Hartford County,90034205001.0
20778,sg:d453e5feae14424eadc70adaa61deba0,Ny deli & grocery,CT,2019-03-01T00:00:00-05:00,2019-04-01T00:00:00-04:00,6516,4,18.5,"{""<5"":0,""5-20"":3,""21-60"":1,""61-240"":0,"">240"":0}",78.0,41.281969000000004,-72.981594,445110.0,CT,9.0,9009.0,New Haven County,90091542001.0
20925,sg:e3d92fb723f64b2db2efb8117cd2881a,Happy Time Nursery School Norwalk,CT,2019-03-01T00:00:00-05:00,2019-04-01T00:00:00-04:00,6850,17,23.0,"{""<5"":1,""5-20"":7,""21-60"":4,""61-240"":4,"">240"":1}",1094.0,41.133505,-73.45197399999999,624410.0,CT,9.0,9001.0,Fairfield County,90010430001.0
21171,sg:ffd908bd7f784b2ca892dbe6fa0110bb,Park Playground 30,CT,2019-03-01T00:00:00-05:00,2019-04-01T00:00:00-04:00,6106,146,60.5,"{""<5"":1,""5-20"":40,""21-60"":32,""61-240"":52,"">240"":21}",14664.5,41.732203999999996,-72.713562,713990.0,CT,9.0,9003.0,Hartford County,90035247003.0
21260,sg:082817a431604518852e4e10c0afa004,Staples,CT,2019-03-01T00:00:00-05:00,2019-04-01T00:00:00-04:00,6514,285,19.0,"{""<5"":9,""5-20"":147,""21-60"":80,""61-240"":35,"">240"":14}",13727.5,41.371303000000005,-72.914825,453210.0,CT,9.0,9009.0,New Haven County,90091660013.0
21263,sg:0860af01a15e46b383a8e2dd75f98789,Zia's cucina,CT,2019-03-01T00:00:00-05:00,2019-04-01T00:00:00-04:00,6702,181,28.0,"{""<5"":9,""5-20"":70,""21-60"":39,""61-240"":34,"">240"":29}",14554.0,41.554947999999996,-73.03411899999999,722511.0,CT,9.0,9009.0,New Haven County,90093504003.0
21422,sg:1736c017199e44bbbd6a5e5e505ac5f1,Bath Fitter,CT,2019-03-01T00:00:00-05:00,2019-04-01T00:00:00-04:00,6460,37,20.0,"{""<5"":1,""5-20"":18,""21-60"":2,""61-240"":9,"">240"":7}",3343.0,41.2404,-73.024077,236118.0,CT,9.0,9009.0,New Haven County,90091508001.0
21540,sg:21edd010999a4db0a40ca6cd41479a5f,Jay's Bubble Bath,CT,2019-03-01T00:00:00-05:00,2019-04-01T00:00:00-04:00,6111,37,32.0,"{""<5"":0,""5-20"":15,""21-60"":10,""61-240"":11,"">240"":1}",2488.0,41.71894,-72.735466,811192.0,CT,9.0,9003.0,Hartford County,90034946001.0
21577,sg:24f9c4428ef04afbae6969b10ffeeef6,Superfly Motorsports,CT,2019-03-01T00:00:00-05:00,2019-04-01T00:00:00-04:00,6787,122,59.0,"{""<5"":3,""5-20"":33,""21-60"":26,""61-240"":36,"">240"":24}",12651.0,41.693326,-73.065393,441228.0,CT,9.0,9005.0,Litchfield County,90053492003.0
21671,sg:2dc58ccf2871484e9bc673159e0d5d4f,Severed Ties Antiques,CT,2019-03-01T00:00:00-05:00,2019-04-01T00:00:00-04:00,6840,131,11.0,"{""<5"":12,""5-20"":78,""21-60"":20,""61-240"":19,"">240"":2}",5154.5,41.146907,-73.49046700000001,453310.0,CT,9.0,9001.0,Fairfield County,90010351002.0
21672,sg:2df25f5604c74ad1b3266732440adc2c,Cid Noelbis OD,CT,2019-03-01T00:00:00-05:00,2019-04-01T00:00:00-04:00,6825,113,39.0,"{""<5"":1,""5-20"":32,""21-60"":44,""61-240"":27,"">240"":9}",8408.0,41.173562,-73.236375,446130.0,CT,9.0,9001.0,Fairfield County,90010613002.0
21713,sg:311d331e768a42cfb175d24c974ee24c,Over The Edge Automotive,CT,2019-03-01T00:00:00-05:00,2019-04-01T00:00:00-04:00,6477,44,12.5,"{""<5"":0,""5-20"":27,""21-60"":14,""61-240"":3,"">240"":0}",1356.0,41.269364,-72.996498,811121.0,CT,9.0,9009.0,New Haven County,90091571001.0
21763,sg:37175ee7bd2d4aa78dea51a7e490952b,Bridgeport International Academy,CT,2019-03-01T00:00:00-05:00,2019-04-01T00:00:00-04:00,6604,120,88.0,"{""<5"":1,""5-20"":34,""21-60"":19,""61-240"":30,"">240"":36}",14352.0,41.167198,-73.188311,611110.0,CT,9.0,9001.0,Fairfield County,90010705001.0
21789,sg:39ee248fdf6940b69aaf16265f3b2424,Plainfield Memorial School,CT,2019-03-01T00:00:00-05:00,2019-04-01T00:00:00-04:00,6374,158,147.0,"{""<5"":0,""5-20"":39,""21-60"":20,""61-240"":24,"">240"":75}",22909.5,41.683426000000004,-71.931815,611110.0,CT,9.0,9015.0,Windham County,90159073003.0
21861,sg:40480cef2c9d48c38ef4a1804372c370,B.GOOD,CT,2019-03-01T00:00:00-05:00,2019-04-01T00:00:00-04:00,6033,369,22.0,"{""<5"":8,""5-20"":154,""21-60"":138,""61-240"":49,"">240"":20}",19708.5,41.720317,-72.620921,722513.0,CT,9.0,9003.0,Hartford County,90035203022.0
21880,sg:426affa599c441e29242dab5ef43f5a8,Hphs Academy Of Nursing And Health Science,CT,2019-03-01T00:00:00-05:00,2019-04-01T00:00:00-04:00,6105,4,73.0,"{""<5"":1,""5-20"":0,""21-60"":1,""61-240"":1,"">240"":1}",433.5,41.765219,-72.701001,611110.0,CT,9.0,9003.0,Hartford County,90035042002.0
21994,sg:4c512fc79db340c8b40a6b48cb5d1080,Toyota of Stamford,CT,2019-03-01T00:00:00-05:00,2019-04-01T00:00:00-04:00,6902,361,21.0,"{""<5"":12,""5-20"":167,""21-60"":77,""61-240"":60,"">240"":45}",25066.0,41.055496000000005,-73.52329399999999,441110.0,CT,9.0,9001.0,Fairfield County,90010218023.0
21997,sg:4cc1f0d167b04d348535c4645deff235,Zita David F Phd,CT,2019-03-01T00:00:00-05:00,2019-04-01T00:00:00-04:00,6371,22,17.0,"{""<5"":0,""5-20"":14,""21-60"":3,""61-240"":4,"">240"":1}",1138.5,41.337159,-72.264315,621111.0,CT,9.0,9011.0,New London County,90116601021.0
22127,sg:56d8beeb89e040e8907031b2cc6fe897,The Chrysalis,CT,2019-03-01T00:00:00-05:00,2019-04-01T00:00:00-04:00,6511,5,10.0,"{""<5"":1,""5-20"":2,""21-60"":1,""61-240"":1,"">240"":0}",218.5,41.310970000000005,-72.91983499999999,812112.0,CT,9.0,9009.0,New Haven County,90091420002.0
22145,sg:598457942e4a4a5dafddc69e2c6ddcf5,La Taqueria,CT,2019-03-01T00:00:00-05:00,2019-04-01T00:00:00-04:00,6830,296,51.0,"{""<5"":8,""5-20"":94,""21-60"":53,""61-240"":93,"">240"":48}",28858.0,41.0306,-73.627183,722511.0,CT,9.0,9001.0,Fairfield County,90010106003.0
22198,sg:5eafe07195c7498f8e23ff560af8b43f,Malta Services of Ct,CT,2019-03-01T00:00:00-05:00,2019-04-01T00:00:00-04:00,6855,1,20.0,"{""<5"":0,""5-20"":1,""21-60"":0,""61-240"":0,"">240"":0}",12.5,41.10561,-73.405573,813110.0,CT,9.0,9001.0,Fairfield County,90010442002.0
22298,sg:6ac268ce0f1e48df9b36b166bad2c468,Mennonite Bible Fellowship Church,CT,2019-03-01T00:00:00-05:00,2019-04-01T00:00:00-04:00,6519,272,57.5,"{""<5"":3,""5-20"":83,""21-60"":55,""61-240"":61,"">240"":70}",29253.0,41.293254,-72.93496400000001,813110.0,CT,9.0,9009.0,New Haven County,90091405001.0
22366,sg:7143212391b34736a61058c690780b1b,Muzzy Athletic Field,CT,2019-03-01T00:00:00-05:00,2019-04-01T00:00:00-04:00,6010,292,37.0,"{""<5"":6,""5-20"":98,""21-60"":81,""61-240"":50,"">240"":57}",25725.5,41.673183,-72.960259,713940.0,CT,9.0,9003.0,Hartford County,90034057001.0
22371,sg:717336b3b07f47d790c790e60932aaed,Waave W Hartford Applied Academic Voc'l Experience,CT,2019-03-01T00:00:00-05:00,2019-04-01T00:00:00-04:00,6117,15,396.0,"{""<5"":0,""5-20"":2,""21-60"":1,""61-240"":2,"">240"":10}",2766.5,41.8005,-72.75055400000001,611110.0,CT,9.0,9003.0,Hartford County,90034975002.0
22516,sg:7f98a75ccd0642319849a5c431e3c230,Mecca Marlborough Elem Child Care,CT,2019-03-01T00:00:00-05:00,2019-04-01T00:00:00-04:00,6447,75,10.0,"{""<5"":5,""5-20"":50,""21-60"":15,""61-240"":5,"">240"":0}",1997.5,41.627893,-72.45958399999999,624410.0,CT,9.0,9003.0,Hartford County,90035241005.0
22826,sg:9ea338ea49e74842a92fba335cd07720,Athena Home Health & Hospice,CT,2019-03-01T00:00:00-05:00,2019-04-01T00:00:00-04:00,6032,2,528.0,"{""<5"":0,""5-20"":0,""21-60"":0,""61-240"":0,"">240"":2}",480.0,41.723156,-72.785552,621610.0,CT,9.0,9003.0,Hartford County,90034601002.0
22832,sg:9ef54fd31057499c99c97d6e5adb5f08,Christo's Pizza Mystic,CT,2019-03-01T00:00:00-05:00,2019-04-01T00:00:00-04:00,6355,140,25.5,"{""<5"":3,""5-20"":53,""21-60"":66,""61-240"":15,"">240"":3}",6320.5,41.377862,-71.957595,722511.0,CT,9.0,9011.0,New London County,90117054002.0
22862,sg:a18114e3db30432da3dde3471eb2ab87,Gingerbread School House Monroe,CT,2019-03-01T00:00:00-05:00,2019-04-01T00:00:00-04:00,6468,18,23.5,"{""<5"":0,""5-20"":9,""21-60"":7,""61-240"":2,"">240"":0}",697.0,41.333315999999996,-73.206653,624410.0,CT,9.0,9001.0,Fairfield County,90011003001.0
22882,sg:a3432653b0a344aabb71750e6fd35186,7-Eleven,CT,2019-03-01T00:00:00-05:00,2019-04-01T00:00:00-04:00,6447,178,9.0,"{""<5"":13,""5-20"":127,""21-60"":27,""61-240"":8,"">240"":3}",4637.5,41.631503,-72.460323,445120.0,CT,9.0,9003.0,Hartford County,90035241004.0
22922,sg:a790e22471724af29275a80ea8501500,MacWear Athletic Apparel & Equipment,CT,2019-03-01T00:00:00-05:00,2019-04-01T00:00:00-04:00,6890,27,12.0,"{""<5"":2,""5-20"":12,""21-60"":0,""61-240"":1,"">240"":12}",3185.5,41.138902,-73.290253,451110.0,CT,9.0,9001.0,Fairfield County,90010606001.0
22956,sg:aad2381b1fbd4048afeb0ab4a103d9cc,Supreme Blenz,CT,2019-03-01T00:00:00-05:00,2019-04-01T00:00:00-04:00,6340,18,77.0,"{""<5"":1,""5-20"":5,""21-60"":2,""61-240"":5,"">240"":5}",2098.5,41.344666,-72.067684,812112.0,CT,9.0,9011.0,New London County,90117025001.0
23100,sg:b9827880b7124b1fadb0e74e566f7020,West Shore Fire District Benham Hill Station,CT,2019-03-01T00:00:00-05:00,2019-04-01T00:00:00-04:00,6516,76,61.0,"{""<5"":5,""5-20"":18,""21-60"":14,""61-240"":21,"">240"":18}",8285.0,41.249526,-72.983434,922160.0,CT,9.0,9009.0,New Haven County,90091547007.0
23133,sg:bd53fcbe3e48468c955e338d28ffef01,Big Baller Kennels,CT,2019-03-01T00:00:00-05:00,2019-04-01T00:00:00-04:00,6907,157,169.0,"{""<5"":0,""5-20"":22,""21-60"":24,""61-240"":47,"">240"":64}",23680.5,41.099067,-73.514626,812910.0,CT,9.0,9001.0,Fairfield County,90010209001.0
23177,sg:c23a32690d8f4c85adceda601d181cd2,The Milford Bank,CT,2019-03-01T00:00:00-05:00,2019-04-01T00:00:00-04:00,6460,58,52.5,"{""<5"":1,""5-20"":21,""21-60"":7,""61-240"":29,"">240"":0}",4913.0,41.227197,-72.997312,522110.0,CT,9.0,9009.0,New Haven County,90091511002.0
23192,sg:c3abbe0f42fa4933a1533a05a948352a,Nonnewaug Falls,CT,2019-03-01T00:00:00-05:00,2019-04-01T00:00:00-04:00,6751,25,22.0,"{""<5"":1,""5-20"":9,""21-60"":10,""61-240"":5,"">240"":0}",1272.5,41.612984999999995,-73.171948,712190.0,CT,9.0,9005.0,Litchfield County,90053421003.0
23289,sg:cceb433d63c34625a1c8334207873a0f,Dynamite Academy Of Gymnastics,CT,2019-03-01T00:00:00-05:00,2019-04-01T00:00:00-04:00,6705,55,29.0,"{""<5"":2,""5-20"":15,""21-60"":23,""61-240"":14,"">240"":1}",3471.0,41.538222999999995,-72.994805,713940.0,CT,9.0,9009.0,New Haven County,90093528001.0
23304,sg:ce8214cd788841f0b5fb4e12cf73cf90,Aaron's,CT,2019-03-01T00:00:00-05:00,2019-04-01T00:00:00-04:00,6514,13,67.0,"{""<5"":0,""5-20"":2,""21-60"":4,""61-240"":3,"">240"":4}",1598.5,41.340662,-72.934691,532289.0,CT,9.0,9009.0,New Haven County,90091655001.0
23333,sg:d1f9f147988b41f4949615262d0c7c4f,Wendy's,CT,2019-03-01T00:00:00-05:00,2019-04-01T00:00:00-04:00,6106,402,10.0,"{""<5"":10,""5-20"":296,""21-60"":81,""61-240"":13,"">240"":2}",9442.0,41.755119,-72.714516,722513.0,CT,9.0,9003.0,Hartford County,90035043002.0
23341,sg:d28d0ed98def4e04afd725e37b71af3c,Reaz Hoque SYNERGY Web Apps,CT,2019-03-01T00:00:00-05:00,2019-04-01T00:00:00-04:00,6907,130,77.0,"{""<5"":1,""5-20"":30,""21-60"":24,""61-240"":53,"">240"":22}",14606.0,41.094109,-73.519413,443142.0,CT,9.0,9001.0,Fairfield County,90010209002.0
23358,sg:d3f9696e2e124d3b926b1836fa9eb8a8,ALDI,CT,2019-03-01T00:00:00-05:00,2019-04-01T00:00:00-04:00,6241,303,17.0,"{""<5"":13,""5-20"":172,""21-60"":103,""61-240"":10,"">240"":5}",9059.0,41.841034,-71.874257,445110.0,CT,9.0,9015.0,Windham County,90159041001.0
23387,sg:d6b87dbe640d4c66bbb8b4ae088ea02a,Prime Climb,CT,2019-03-01T00:00:00-05:00,2019-04-01T00:00:00-04:00,6492,1,4.0,"{""<5"":1,""5-20"":0,""21-60"":0,""61-240"":0,"">240"":0}",2.5,41.456127,-72.83435899999999,445310.0,CT,9.0,9009.0,New Haven County,90091754001.0
23467,sg:e110b5f456c24eb9a9d0ab0688930415,Jila Threading Salon & Spa,CT,2019-03-01T00:00:00-05:00,2019-04-01T00:00:00-04:00,6241,10,19.0,"{""<5"":0,""5-20"":6,""21-60"":1,""61-240"":1,"">240"":2}",746.0,41.872032,-71.873777,812199.0,CT,9.0,9015.0,Windham County,90159041001.0
23494,sg:e39a1bd6532b4fe19f865a13327c7e95,School Age Program Vogel Wetmore,CT,2019-03-01T00:00:00-05:00,2019-04-01T00:00:00-04:00,6790,37,62.0,"{""<5"":1,""5-20"":12,""21-60"":4,""61-240"":14,"">240"":6}",3861.5,41.8042,-73.123263,624410.0,CT,9.0,9005.0,Litchfield County,90053102001.0
23728,sg:faba928f6e63428e81b3f251de1e934b,United Way,CT,2019-03-01T00:00:00-05:00,2019-04-01T00:00:00-04:00,6702,45,87.0,"{""<5"":0,""5-20"":11,""21-60"":8,""61-240"":14,"">240"":12}",5448.5,41.556913,-73.03577800000001,813219.0,CT,9.0,9009.0,New Haven County,90093501001.0
23743,sg:fbaba45739544c09a42ba4162255b686,Education Employment Hotline,CT,2019-03-01T00:00:00-05:00,2019-04-01T00:00:00-04:00,6105,688,143.0,"{""<5"":10,""5-20"":92,""21-60"":100,""61-240"":241,"">240"":245}",100295.5,41.771875,-72.701713,611310.0,CT,9.0,9003.0,Hartford County,90035031004.0
23905,sg:096e0167c69640d195b19a06b4f46229,Mamma Winnies Carribean Restaurant,CT,2019-03-01T00:00:00-05:00,2019-04-01T00:00:00-04:00,6604,105,16.0,"{""<5"":4,""5-20"":59,""21-60"":27,""61-240"":9,"">240"":6}",4635.5,41.184051000000004,-73.213786,722511.0,CT,9.0,9001.0,Fairfield County,90010721003.0
23914,sg:09d05f0e422b43308469b5753de9f95a,New East Meets West,CT,2019-03-01T00:00:00-05:00,2019-04-01T00:00:00-04:00,6067,43,9.0,"{""<5"":0,""5-20"":30,""21-60"":2,""61-240"":6,"">240"":5}",2559.0,41.661367999999996,-72.680451,722511.0,CT,9.0,9003.0,Hartford County,90034903022.0
23921,sg:0a92c28a7f1f4440b809a8cba93307d0,Krispy Krunchy Chicken,CT,2019-03-01T00:00:00-05:00,2019-04-01T00:00:00-04:00,6608,132,45.5,"{""<5"":8,""5-20"":42,""21-60"":18,""61-240"":24,"">240"":40}",14486.0,41.183139000000004,-73.180639,722513.0,CT,9.0,9001.0,Fairfield County,90010740001.0
24003,sg:11b79da4398c41e1884a1fabdcc6c50c,Kids First Pediatric Dentistry & Orthodontics,CT,2019-03-01T00:00:00-05:00,2019-04-01T00:00:00-04:00,6851,1,450.0,"{""<5"":0,""5-20"":0,""21-60"":0,""61-240"":0,"">240"":1}",240.0,41.127752,-73.386626,621210.0,CT,9.0,9001.0,Fairfield County,90010426004.0
24027,sg:13e98b061c194215b3969128125ea077,Bourgeois Services,CT,2019-03-01T00:00:00-05:00,2019-04-01T00:00:00-04:00,6902,696,124.5,"{""<5"":14,""5-20"":152,""21-60"":104,""61-240"":225,"">240"":201}",88249.5,41.054449,-73.53522099999999,443142.0,CT,9.0,9001.0,Fairfield County,90010217003.0
24036,sg:148cdc8f308f452298dc8cfb67d22407,St Vincent De Paul Shoppe,CT,2019-03-01T00:00:00-05:00,2019-04-01T00:00:00-04:00,6418,44,20.0,"{""<5"":2,""5-20"":22,""21-60"":12,""61-240"":6,"">240"":2}",2149.0,41.325237,-73.09723199999999,453310.0,CT,9.0,9009.0,New Haven County,90091202004.0
24090,sg:19656b810625461cae98f53bc90c6584,Brian's Fare,CT,2019-03-01T00:00:00-05:00,2019-04-01T00:00:00-04:00,6053,188,14.0,"{""<5"":11,""5-20"":97,""21-60"":29,""61-240"":30,"">240"":21}",11969.5,41.667947,-72.81653100000001,722513.0,CT,9.0,9003.0,Hartford County,90034165005.0
24101,sg:1a25d88dd3584575b7004b18d1b7dc79,Carrot Patch Shoreline,CT,2019-03-01T00:00:00-05:00,2019-04-01T00:00:00-04:00,6413,2,14.0,"{""<5"":0,""5-20"":1,""21-60"":1,""61-240"":0,"">240"":0}",53.0,41.277871999999995,-72.53615699999999,624410.0,CT,9.0,9007.0,Middlesex County,90076101002.0
24203,sg:238f8e15ee30496bad192a322702b312,Bible Church of Waterbury,CT,2019-03-01T00:00:00-05:00,2019-04-01T00:00:00-04:00,6704,21,92.0,"{""<5"":0,""5-20"":7,""21-60"":2,""61-240"":6,"">240"":6}",2511.5,41.584979,-73.044332,813110.0,CT,9.0,9009.0,New Haven County,90093523001.0
24231,sg:25f7eafecf944aabb96a7b256952c7d2,Hartford HealthCare Medical Group,CT,2019-03-01T00:00:00-05:00,2019-04-01T00:00:00-04:00,6062,2,522.5,"{""<5"":0,""5-20"":0,""21-60"":0,""61-240"":0,"">240"":2}",480.0,41.674775,-72.82235,621111.0,CT,9.0,9003.0,Hartford County,90034165005.0
24318,sg:2e96284860d24fb997b34cd776856a85,Cascade Fine Catering,CT,2019-03-01T00:00:00-05:00,2019-04-01T00:00:00-04:00,6514,231,78.0,"{""<5"":3,""5-20"":36,""21-60"":49,""61-240"":131,"">240"":12}",25037.5,41.408628,-72.909012,722511.0,CT,9.0,9009.0,New Haven County,90091659004.0
24425,sg:37b04bf855b649a5a7ada63089d6df9d,Dr George C Hoo,CT,2019-03-01T00:00:00-05:00,2019-04-01T00:00:00-04:00,6902,21,9.0,"{""<5"":3,""5-20"":16,""21-60"":0,""61-240"":1,"">240"":1}",598.0,41.064552,-73.55883299999999,621210.0,CT,9.0,9001.0,Fairfield County,90010205002.0
24444,sg:3a285f79c6c2471a943336db416760f8,Emmett O'Brien Tech Sports Complex,CT,2019-03-01T00:00:00-05:00,2019-04-01T00:00:00-04:00,6610,249,30.0,"{""<5"":5,""5-20"":98,""21-60"":53,""61-240"":78,"">240"":15}",18723.0,41.335809999999995,-73.059686,713940.0,CT,9.0,9009.0,New Haven County,90091251001.0
24457,sg:3b81862334ed4f51a3ba5b87dfa44739,Mama Deluca's,CT,2019-03-01T00:00:00-05:00,2019-04-01T00:00:00-04:00,6340,87,17.0,"{""<5"":1,""5-20"":54,""21-60"":22,""61-240"":2,"">240"":8}",3789.5,41.393522,-72.089363,722511.0,CT,9.0,9011.0,New London County,90119800001.0
24467,sg:3c500f0bf81b4c90b5e8711c4323c388,Angie's Pizza,CT,2019-03-01T00:00:00-05:00,2019-04-01T00:00:00-04:00,6248,235,20.0,"{""<5"":7,""5-20"":114,""21-60"":57,""61-240"":31,"">240"":26}",14656.5,41.661963,-72.355264,722511.0,CT,9.0,9013.0,Tolland County,90135261023.0
24814,sg:5da85c15a0214691b35af42d275aa740,Vibz Uptown,CT,2019-03-01T00:00:00-05:00,2019-04-01T00:00:00-04:00,6120,18,9.5,"{""<5"":3,""5-20"":8,""21-60"":0,""61-240"":4,"">240"":3}",1429.5,41.795238,-72.66529,721110.0,CT,9.0,9003.0,Hartford County,90035244001.0
24831,sg:5f5ada34f4ce4da78c221dc03c01e95c,People's United Bank,CT,2019-03-01T00:00:00-05:00,2019-04-01T00:00:00-04:00,6614,33,6.0,"{""<5"":1,""5-20"":27,""21-60"":2,""61-240"":1,"">240"":2}",1051.5,41.206693,-73.132366,522110.0,CT,9.0,9001.0,Fairfield County,90010809001.0
25210,sg:843a175d58634960a56b5055e06c5185,CVS,CT,2019-03-01T00:00:00-05:00,2019-04-01T00:00:00-04:00,6035,341,10.0,"{""<5"":25,""5-20"":248,""21-60"":60,""61-240"":7,"">240"":1}",6886.0,41.952214,-72.78607199999999,446110.0,CT,9.0,9003.0,Hartford County,90034681022.0
25231,sg:863358ef887b4fd1a668cb027a525445,Marshalls,CT,2019-03-01T00:00:00-05:00,2019-04-01T00:00:00-04:00,6401,588,25.0,"{""<5"":0,""5-20"":220,""21-60"":322,""61-240"":39,"">240"":7}",23340.5,41.338574,-73.075396,448140.0,CT,9.0,9009.0,New Haven County,90091252002.0
25357,sg:920ce3099e6f48d58ab74a1ce7258ea4,Jericho Partnership,CT,2019-03-01T00:00:00-05:00,2019-04-01T00:00:00-04:00,6810,7,83.0,"{""<5"":0,""5-20"":2,""21-60"":1,""61-240"":4,"">240"":0}",667.5,41.39865,-73.458585,813110.0,CT,9.0,9001.0,Fairfield County,90012107012.0
25600,sg:aa7659fad5f640d78f8162e1582fb03d,Esposito Paul A PHD,CT,2019-03-01T00:00:00-05:00,2019-04-01T00:00:00-04:00,6902,80,71.5,"{""<5"":1,""5-20"":15,""21-60"":21,""61-240"":22,"">240"":21}",9391.5,41.045363,-73.512506,621111.0,CT,9.0,9001.0,Fairfield County,90010219004.0
25671,sg:b17f274d58864f278f762edc6c955682,Qi Gong,CT,2019-03-01T00:00:00-05:00,2019-04-01T00:00:00-04:00,6511,373,64.0,"{""<5"":12,""5-20"":106,""21-60"":66,""61-240"":79,"">240"":110}",42317.5,41.307257,-72.942699,713940.0,CT,9.0,9009.0,New Haven County,90091408001.0
25752,sg:bb846ff4e88a43ffb133007074312042,7-Eleven,CT,2019-03-01T00:00:00-05:00,2019-04-01T00:00:00-04:00,6890,32,6.0,"{""<5"":2,""5-20"":28,""21-60"":2,""61-240"":0,"">240"":0}",436.0,41.139082,-73.289102,445120.0,CT,9.0,9001.0,Fairfield County,90010606001.0
25788,sg:be734757234846ce8a9b14504278afb7,Shulik Alan PHD,CT,2019-03-01T00:00:00-05:00,2019-04-01T00:00:00-04:00,6511,74,89.5,"{""<5"":2,""5-20"":15,""21-60"":9,""61-240"":32,"">240"":16}",9213.0,41.317375,-72.91565899999999,621111.0,CT,9.0,9009.0,New Haven County,90091420003.0
25878,sg:c69833a31b0445dcb189b08264458968,Francine's Salon & Day Spa,CT,2019-03-01T00:00:00-05:00,2019-04-01T00:00:00-04:00,6002,10,78.5,"{""<5"":0,""5-20"":1,""21-60"":1,""61-240"":8,"">240"":0}",1257.0,41.828559000000006,-72.739032,812112.0,CT,9.0,9003.0,Hartford County,90034713003.0
25889,sg:c772b86642474896ada296b67fa0da3f,Carvel,CT,2019-03-01T00:00:00-05:00,2019-04-01T00:00:00-04:00,6614,200,8.0,"{""<5"":21,""5-20"":132,""21-60"":21,""61-240"":14,"">240"":12}",7540.0,41.195236,-73.14053,722515.0,CT,9.0,9001.0,Fairfield County,90010807002.0
25896,sg:c8202930299b4fb18f4313fd34b3ea5c,Meriden Fire Engine Company 4,CT,2019-03-01T00:00:00-05:00,2019-04-01T00:00:00-04:00,6450,281,101.0,"{""<5"":9,""5-20"":74,""21-60"":35,""61-240"":72,"">240"":91}",35041.0,41.547909999999995,-72.783298,922160.0,CT,9.0,9009.0,New Haven County,90091715001.0
25940,sg:ccfaf264605e49b3af49eeac4d2df1b0,Anytime Fitness,CT,2019-03-01T00:00:00-05:00,2019-04-01T00:00:00-04:00,6033,172,59.5,"{""<5"":0,""5-20"":14,""21-60"":78,""61-240"":73,"">240"":7}",16000.5,41.720746999999996,-72.61354,713940.0,CT,9.0,9003.0,Hartford County,90035203022.0
25975,sg:d008f13c6f3046fab7139f5b5d93f5e0,Compounded Solutions In Pharmacy,CT,2019-03-01T00:00:00-05:00,2019-04-01T00:00:00-04:00,6468,59,25.0,"{""<5"":5,""5-20"":22,""21-60"":4,""61-240"":3,"">240"":25}",6901.0,41.346596000000005,-73.259389,446110.0,CT,9.0,9001.0,Fairfield County,90011001002.0
26159,sg:e1ed3b7c500d47e7a57c27dd435a8adb,Rite Aid,CT,2019-03-01T00:00:00-05:00,2019-04-01T00:00:00-04:00,6801,103,10.0,"{""<5"":3,""5-20"":69,""21-60"":22,""61-240"":7,"">240"":2}",3294.5,41.375515,-73.423487,446110.0,CT,9.0,9001.0,Fairfield County,90012001001.0
26160,sg:e20347770c16431caca2666b784e4131,Quest Diagnostics,CT,2019-03-01T00:00:00-05:00,2019-04-01T00:00:00-04:00,6824,9,77.0,"{""<5"":0,""5-20"":2,""21-60"":1,""61-240"":5,"">240"":1}",1058.0,41.150395,-73.243351,621511.0,CT,9.0,9001.0,Fairfield County,90010615001.0
26258,sg:ed596ffd8c184b8e8cb7b1cd48cc500c,A Better Way Wholesale Autos,CT,2019-03-01T00:00:00-05:00,2019-04-01T00:00:00-04:00,6770,389,63.0,"{""<5"":3,""5-20"":81,""21-60"":101,""61-240"":166,"">240"":38}",39213.5,41.512106,-73.021741,441120.0,CT,9.0,9009.0,New Haven County,90093451004.0
26348,sg:f76fcd02f4ba46c0a85110716a14ac6c,Joseph's Autobody,CT,2019-03-01T00:00:00-05:00,2019-04-01T00:00:00-04:00,6416,96,115.5,"{""<5"":2,""5-20"":24,""21-60"":14,""61-240"":16,"">240"":40}",12880.0,41.615291,-72.710033,811121.0,CT,9.0,9007.0,Middlesex County,90075701001.0
26443,sg:014b485a7545484abaf9f2acbf25ea74,Tunxis Hill Center,CT,2019-03-01T00:00:00-05:00,2019-04-01T00:00:00-04:00,6825,1672,15.0,"{""<5"":79,""5-20"":939,""21-60"":415,""61-240"":188,"">240"":51}",69276.5,41.177093,-73.227587,531120.0,CT,9.0,9001.0,Fairfield County,90010613001.0
26449,sg:01b547caed204884acf4d4bf0f799c2d,Intermix,CT,2019-03-01T00:00:00-05:00,2019-04-01T00:00:00-04:00,6880,210,20.0,"{""<5"":6,""5-20"":105,""21-60"":59,""61-240"":31,"">240"":9}",10542.5,41.142163000000004,-73.361858,448120.0,CT,9.0,9001.0,Fairfield County,90010502002.0
26557,sg:0c76ab8b8f6a41b39821fc59b4a372c6,Susan LeClair LMFT LLC,CT,2019-03-01T00:00:00-05:00,2019-04-01T00:00:00-04:00,6107,84,80.0,"{""<5"":0,""5-20"":12,""21-60"":24,""61-240"":19,"">240"":29}",10941.5,41.758528999999996,-72.744789,621330.0,CT,9.0,9003.0,Hartford County,90034965001.0
26647,sg:13d5033f577d48b78c0eb2b1c6fef02d,Village Hair Care,CT,2019-03-01T00:00:00-05:00,2019-04-01T00:00:00-04:00,6057,1,240.0,"{""<5"":0,""5-20"":0,""21-60"":0,""61-240"":1,"">240"":0}",150.5,41.877906,-72.978114,812113.0,CT,9.0,9005.0,Litchfield County,90053061001.0
26720,sg:1b5c3abcb0d842e9bf9ea83c6a207261,Beta Shim,CT,2019-03-01T00:00:00-05:00,2019-04-01T00:00:00-04:00,6484,63,232.0,"{""<5"":2,""5-20"":8,""21-60"":8,""61-240"":15,"">240"":30}",9886.5,41.274460999999995,-73.132343,444130.0,CT,9.0,9001.0,Fairfield County,90011103022.0
26828,sg:23e883aece5f45a0ad4ccc7cfda76ab4,People's United Bank,CT,2019-03-01T00:00:00-05:00,2019-04-01T00:00:00-04:00,6515,4,78.5,"{""<5"":0,""5-20"":1,""21-60"":1,""61-240"":1,"">240"":1}",443.5,41.336794,-72.982161,522110.0,CT,9.0,9009.0,New Haven County,90091412004.0
27099,sg:3d3f09ef43a8495899abad13413f0607,Mayflower Montessori School,CT,2019-03-01T00:00:00-05:00,2019-04-01T00:00:00-04:00,6360,37,414.0,"{""<5"":1,""5-20"":3,""21-60"":5,""61-240"":3,"">240"":25}",6694.0,41.505157000000004,-72.09110600000001,624410.0,CT,9.0,9011.0,New London County,90116967003.0
27105,sg:3dfff94b1c6f487c824b5c60daba0eb3,Hawley Lane Shoes,CT,2019-03-01T00:00:00-05:00,2019-04-01T00:00:00-04:00,6516,879,212.0,"{""<5"":7,""5-20"":135,""21-60"":108,""61-240"":274,"">240"":355}",132516.0,41.290219,-72.966284,448210.0,CT,9.0,9009.0,New Haven County,90091571001.0
27167,sg:4360f51f820e434a9962d1dcd17bcca9,Center Sports of Columbia,CT,2019-03-01T00:00:00-05:00,2019-04-01T00:00:00-04:00,6237,41,25.0,"{""<5"":0,""5-20"":16,""21-60"":12,""61-240"":13,"">240"":0}",2642.5,41.713625,-72.286798,451110.0,CT,9.0,9013.0,Tolland County,90138601002.0
27232,sg:49d748fefc98415a999c94121b1ebedf,Milkcraft,CT,2019-03-01T00:00:00-05:00,2019-04-01T00:00:00-04:00,6107,236,27.0,"{""<5"":2,""5-20"":87,""21-60"":92,""61-240"":42,"">240"":13}",14259.5,41.761452,-72.74314100000001,722515.0,CT,9.0,9003.0,Hartford County,90034965001.0
27253,sg:4b74b684cd8f426d804138278e276474,United Rentals,CT,2019-03-01T00:00:00-05:00,2019-04-01T00:00:00-04:00,6604,123,32.0,"{""<5"":2,""5-20"":51,""21-60"":19,""61-240"":16,"">240"":35}",12220.0,41.189421,-73.191856,532490.0,CT,9.0,9001.0,Fairfield County,90012572002.0
27311,sg:514314bfc5304e8fa511e417634dfbed,West Rocks Middle School,CT,2019-03-01T00:00:00-05:00,2019-04-01T00:00:00-04:00,6851,577,49.0,"{""<5"":14,""5-20"":186,""21-60"":106,""61-240"":66,"">240"":205}",65786.0,41.134415000000004,-73.41539399999999,624410.0,CT,9.0,9001.0,Fairfield County,90010428002.0
27327,sg:526feac989164f01aed38e392d1e3223,Dad's Handyman and Home Improvement,CT,2019-03-01T00:00:00-05:00,2019-04-01T00:00:00-04:00,6422,23,7.0,"{""<5"":0,""5-20"":13,""21-60"":3,""61-240"":3,"">240"":4}",1695.5,41.471208000000004,-72.70489,621610.0,CT,9.0,9007.0,Middlesex County,90075851003.0
27480,sg:625cba9e5c5d40b69f902ae54de8c25a,Paley's Farm Market,CT,2019-03-01T00:00:00-05:00,2019-04-01T00:00:00-04:00,6069,24,331.0,"{""<5"":0,""5-20"":1,""21-60"":2,""61-240"":7,"">240"":14}",4507.0,41.869369,-73.50052600000001,445230.0,CT,9.0,9005.0,Litchfield County,90052621001.0
27483,sg:628241b706b6467f9711da6b0e10c254,Catalyst Health & Fitness,CT,2019-03-01T00:00:00-05:00,2019-04-01T00:00:00-04:00,6762,831,50.0,"{""<5"":3,""5-20"":155,""21-60"":363,""61-240"":300,"">240"":10}",64196.5,41.535154,-73.085604,713940.0,CT,9.0,9009.0,New Haven County,90093441003.0
27527,sg:6754d117a25b4cdcba68be8da87df664,Orange Art Wholesale,CT,2019-03-01T00:00:00-05:00,2019-04-01T00:00:00-04:00,6281,2,127.0,"{""<5"":0,""5-20"":1,""21-60"":0,""61-240"":1,"">240"":0}",163.0,41.977672999999996,-71.991427,453920.0,CT,9.0,9015.0,Windham County,90159011002.0
27632,sg:72b79922a9b741df8eb756cebe0a2106,Alpha,CT,2019-03-01T00:00:00-05:00,2019-04-01T00:00:00-04:00,6615,146,92.0,"{""<5"":0,""5-20"":45,""21-60"":15,""61-240"":40,"">240"":46}",18230.0,41.179505,-73.136862,611110.0,CT,9.0,9001.0,Fairfield County,90010806002.0
27689,sg:7832b42cd3474cf7b0a3f34a09d387a3,Waterford Plaza,CT,2019-03-01T00:00:00-05:00,2019-04-01T00:00:00-04:00,6385,692,12.0,"{""<5"":33,""5-20"":433,""21-60"":121,""61-240"":39,"">240"":66}",32105.0,41.373901000000004,-72.138364,531120.0,CT,9.0,9011.0,New London County,90116937001.0
27801,sg:820b904d13c64bc8aab980d51e3af8ba,Shooters Pistol Range,CT,2019-03-01T00:00:00-05:00,2019-04-01T00:00:00-04:00,6776,120,25.5,"{""<5"":1,""5-20"":52,""21-60"":24,""61-240"":23,"">240"":20}",9886.0,41.55365,-73.418509,452319.0,CT,9.0,9005.0,Litchfield County,90052533002.0
28230,sg:ae79d43d87bf49e2955c6c29328150f4,NorthEast BioLab,CT,2019-03-01T00:00:00-05:00,2019-04-01T00:00:00-04:00,6514,47,103.0,"{""<5"":0,""5-20"":7,""21-60"":8,""61-240"":19,"">240"":13}",6391.0,41.401453000000004,-72.916862,621511.0,CT,9.0,9009.0,New Haven County,90091659004.0
28264,sg:b0da083d156d4910a961ffbec479ba7b,The Country Store,CT,2019-03-01T00:00:00-05:00,2019-04-01T00:00:00-04:00,6880,17,9.0,"{""<5"":1,""5-20"":14,""21-60"":0,""61-240"":2,"">240"":0}",478.5,41.166790999999996,-73.382029,722511.0,CT,9.0,9001.0,Fairfield County,90010501001.0
28270,sg:b221e5ec387b4be3918f84e5006d8556,KinderCare,CT,2019-03-01T00:00:00-05:00,2019-04-01T00:00:00-04:00,6468,5,9.0,"{""<5"":1,""5-20"":3,""21-60"":1,""61-240"":0,"">240"":0}",80.5,41.315847999999995,-73.218663,624410.0,CT,9.0,9001.0,Fairfield County,90011002002.0
28285,sg:b32711f7273d42c2b969bc37c93c7852,Harvest Time Church,CT,2019-03-01T00:00:00-05:00,2019-04-01T00:00:00-04:00,6831,81,59.0,"{""<5"":0,""5-20"":11,""21-60"":31,""61-240"":39,"">240"":0}",7262.5,41.080145,-73.70975200000001,813110.0,CT,9.0,9001.0,Fairfield County,90010101014.0
28399,sg:be2dd94d82664d72b69c1810e992d319,Connecticut Tire,CT,2019-03-01T00:00:00-05:00,2019-04-01T00:00:00-04:00,6037,13,8.0,"{""<5"":1,""5-20"":12,""21-60"":0,""61-240"":0,"">240"":0}",152.5,41.627664,-72.746126,441310.0,CT,9.0,9003.0,Hartford County,90034001003.0
28544,sg:ccd383c3cedf486d8bf6cf122de9c1f7,Monaco Center For Health & Healing,CT,2019-03-01T00:00:00-05:00,2019-04-01T00:00:00-04:00,6073,52,98.0,"{""<5"":2,""5-20"":12,""21-60"":11,""61-240"":9,"">240"":18}",6275.0,41.670579,-72.601789,621330.0,CT,9.0,9003.0,Hartford County,90035204003.0
28591,sg:d11bd6fd331a44858bbc0bbdcdbe2a8d,J Alden Clothiers,CT,2019-03-01T00:00:00-05:00,2019-04-01T00:00:00-04:00,6426,35,66.0,"{""<5"":2,""5-20"":5,""21-60"":9,""61-240"":13,"">240"":6}",3828.5,41.348032,-72.428712,448120.0,CT,9.0,9007.0,Middlesex County,90076301005.0
28852,sg:eb8f85fec73b448fa088567dbac30fde,Hertz,CT,2019-03-01T00:00:00-05:00,2019-04-01T00:00:00-04:00,6114,15,12.0,"{""<5"":2,""5-20"":8,""21-60"":1,""61-240"":4,"">240"":0}",747.5,41.743183,-72.651275,532111.0,CT,9.0,9003.0,Hartford County,90035025001.0
28881,sg:ee72d4d8b9564a048340cce7e036b8a0,Cafe on the Green,CT,2019-03-01T00:00:00-05:00,2019-04-01T00:00:00-04:00,6811,82,19.0,"{""<5"":3,""5-20"":40,""21-60"":18,""61-240"":19,"">240"":2}",4576.0,41.413567,-73.519976,722511.0,CT,9.0,9001.0,Fairfield County,90012108001.0
29027,sg:fe14a57f6ee84ea69a32fa532a879118,Anya's Head Lice Remedy,CT,2019-03-01T00:00:00-05:00,2019-04-01T00:00:00-04:00,6850,18,133.0,"{""<5"":1,""5-20"":6,""21-60"":0,""61-240"":4,"">240"":7}",2359.5,41.121759000000004,-73.438008,621511.0,CT,9.0,9001.0,Fairfield County,90010432001.0
29122,sg:07f1b8bafb5e43f1869a816874682139,The Good Feet Store,CT,2019-03-01T00:00:00-05:00,2019-04-01T00:00:00-04:00,6001,12,27.0,"{""<5"":0,""5-20"":5,""21-60"":3,""61-240"":4,"">240"":0}",786.0,41.807969,-72.82441999999999,446199.0,CT,9.0,9003.0,Hartford County,90034622013.0
29155,sg:0a9ce9551e044e8baa788e53492a0633,People's United Bank,CT,2019-03-01T00:00:00-05:00,2019-04-01T00:00:00-04:00,6082,12,7.5,"{""<5"":1,""5-20"":10,""21-60"":1,""61-240"":0,"">240"":0}",168.0,41.990075,-72.575962,522110.0,CT,9.0,9003.0,Hartford County,90034808004.0
29176,sg:0cbad38ec70b458ea2d115eeb2c5b48a,White Hills Wine & Spirits,CT,2019-03-01T00:00:00-05:00,2019-04-01T00:00:00-04:00,6484,36,9.0,"{""<5"":2,""5-20"":32,""21-60"":0,""61-240"":2,"">240"":0}",706.0,41.331796999999995,-73.137461,445310.0,CT,9.0,9001.0,Fairfield County,90011106002.0
29189,sg:0e3c93d762dc49a9904347fc6e7c2d64,Motel 6,CT,2019-03-01T00:00:00-05:00,2019-04-01T00:00:00-04:00,6357,204,53.0,"{""<5"":4,""5-20"":67,""21-60"":32,""61-240"":36,"">240"":65}",23161.5,41.36081,-72.207774,721110.0,CT,9.0,9011.0,New London County,90118707011.0
29326,sg:1bb2813f1333451ca5df3fc68d031634,Simoes Package Store,CT,2019-03-01T00:00:00-05:00,2019-04-01T00:00:00-04:00,6810,109,33.0,"{""<5"":3,""5-20"":38,""21-60"":40,""61-240"":14,"">240"":14}",7569.5,41.394374,-73.446364,445310.0,CT,9.0,9001.0,Fairfield County,90012101002.0
29426,sg:26c26e323eaf4d94a232502375c78cd5,Diesel Shop,CT,2019-03-01T00:00:00-05:00,2019-04-01T00:00:00-04:00,6320,86,53.0,"{""<5"":1,""5-20"":27,""21-60"":19,""61-240"":24,"">240"":15}",8321.5,41.347213,-72.11174,811111.0,CT,9.0,9011.0,New London County,90116903003.0
29442,sg:27c9c5d27a6b4517bf2f7540413864c5,Antonino Acura,CT,2019-03-01T00:00:00-05:00,2019-04-01T00:00:00-04:00,6340,93,46.0,"{""<5"":3,""5-20"":35,""21-60"":10,""61-240"":10,"">240"":35}",10755.0,41.371305,-72.05866800000001,441110.0,CT,9.0,9011.0,New London County,90118702002.0
29479,sg:2b94508debb54d46aee0910a1b1fdb5e,Joey C's Roadhouse,CT,2019-03-01T00:00:00-05:00,2019-04-01T00:00:00-04:00,6460,191,54.0,"{""<5"":4,""5-20"":44,""21-60"":56,""61-240"":71,"">240"":16}",17353.5,41.227177000000005,-73.06969000000001,722511.0,CT,9.0,9009.0,New Haven County,90091501003.0
29676,sg:3dbfaa1b22bb472197172bc6d0282c84,Simpaug Farms,CT,2019-03-01T00:00:00-05:00,2019-04-01T00:00:00-04:00,6877,188,49.0,"{""<5"":3,""5-20"":46,""21-60"":52,""61-240"":44,"">240"":43}",19630.5,41.287312,-73.493832,445230.0,CT,9.0,9001.0,Fairfield County,90012453003.0
29836,sg:4cbdcd2f6937487fb7e5b0529c745e0a,Denya's Auto Body Inc,CT,2019-03-01T00:00:00-05:00,2019-04-01T00:00:00-04:00,6450,83,118.0,"{""<5"":1,""5-20"":17,""21-60"":9,""61-240"":32,"">240"":24}",11155.5,41.526377000000004,-72.752762,811121.0,CT,9.0,9009.0,New Haven County,90091712005.0
29860,sg:4ec3f7945b324a6a95245082d99b3124,Briarfield Stratford Day School Llc,CT,2019-03-01T00:00:00-05:00,2019-04-01T00:00:00-04:00,6614,532,82.0,"{""<5"":6,""5-20"":107,""21-60"":91,""61-240"":298,"">240"":30}",57087.0,41.214506,-73.15205300000001,624410.0,CT,9.0,9001.0,Fairfield County,90010810002.0
29989,sg:5a3a0e9c79ab4a8b80070fdf42e294dd,Connecticut InFocus,CT,2019-03-01T00:00:00-05:00,2019-04-01T00:00:00-04:00,6033,3,90.0,"{""<5"":0,""5-20"":0,""21-60"":0,""61-240"":3,"">240"":0}",451.5,41.717932,-72.584744,532282.0,CT,9.0,9003.0,Hartford County,90035203011.0
30127,sg:687eeb90505c40a8bec02d235d48bf32,Cornerstone Bank,CT,2019-03-01T00:00:00-05:00,2019-04-01T00:00:00-04:00,6907,10,9.0,"{""<5"":0,""5-20"":7,""21-60"":0,""61-240"":2,"">240"":1}",628.5,41.094272,-73.51854300000001,522110.0,CT,9.0,9001.0,Fairfield County,90010209002.0
30145,sg:6a76aa2ff1e04c798b9dec6c2d59f895,Watertown Cycle Center,CT,2019-03-01T00:00:00-05:00,2019-04-01T00:00:00-04:00,6795,58,17.0,"{""<5"":5,""5-20"":29,""21-60"":10,""61-240"":7,"">240"":7}",3513.5,41.590305,-73.103189,451110.0,CT,9.0,9005.0,Litchfield County,90053604005.0
30160,sg:6c5377b2da9b41ecb69b9b17c16426b1,Corner Grocery,CT,2019-03-01T00:00:00-05:00,2019-04-01T00:00:00-04:00,6513,470,55.0,"{""<5"":8,""5-20"":154,""21-60"":85,""61-240"":95,"">240"":128}",50405.0,41.307154,-72.900561,445110.0,CT,9.0,9009.0,New Haven County,90091423004.0
30186,sg:6efea0e014cf498c9be9c2c020f2f156,Dunkin',CT,2019-03-01T00:00:00-05:00,2019-04-01T00:00:00-04:00,6037,400,8.0,"{""<5"":27,""5-20"":256,""21-60"":54,""61-240"":45,"">240"":18}",16547.0,41.629852,-72.758144,722515.0,CT,9.0,9003.0,Hartford County,90034001001.0
30505,sg:8d99caad74b0418e8c9b73ecc7328de8,Coco and Company,CT,2019-03-01T00:00:00-05:00,2019-04-01T00:00:00-04:00,6890,40,7.0,"{""<5"":4,""5-20"":32,""21-60"":2,""61-240"":0,"">240"":2}",971.0,41.138701,-73.290447,448120.0,CT,9.0,9001.0,Fairfield County,90010606001.0
