,safegraph_place_id,location_name,region,date_range_start,date_range_end,postal_code,raw_visit_counts,median_dwell,bucketed_dwell_times,est_total_dwell,latitude,longitude,naics_code,state,stateFIPS,countyFIPS,countyName,CBGFIPS
21,sg:01bbb9d21d8840cfa09fa33cb0875f1d,Vaporetti Vapor,RI,2019-03-01T00:00:00-05:00,2019-04-01T00:00:00-04:00,2916,11,8.0,"{""<5"":0,""5-20"":10,""21-60"":1,""61-240"":0,"">240"":0}",165.5,41.857516,-71.353515,444120.0,RI,44.0,44007.0,Providence County,440070101021.0
560,sg:346aa0adbfc24ce3a7942f1276871503,Townies,RI,2019-03-01T00:00:00-05:00,2019-04-01T00:00:00-04:00,2914,53,228.0,"{""<5"":3,""5-20"":16,""21-60"":0,""61-240"":8,"">240"":26}",7651.5,41.819665,-71.366346,722511.0,RI,44.0,44007.0,Providence County,440070102004.0
714,sg:4312411a69974d6ea94b0c0a2423e09b,Wayland Square,RI,2019-03-01T00:00:00-05:00,2019-04-01T00:00:00-04:00,2906,8,210.5,"{""<5"":2,""5-20"":2,""21-60"":0,""61-240"":0,"">240"":4}",990.0,41.833809,-71.388738,531120.0,RI,44.0,44007.0,Providence County,440070035004.0
921,sg:5688775265b44f14abe1401ae6ce622b,The Fishery,RI,2019-03-01T00:00:00-05:00,2019-04-01T00:00:00-04:00,2891,4,6.0,"{""<5"":0,""5-20"":4,""21-60"":0,""61-240"":0,"">240"":0}",50.0,41.351265999999995,-71.76361999999999,445220.0,RI,44.0,44009.0,Washington County,440090509022.0
1261,sg:75a6423f2a384792a8c2412e2495adac,Newport Stepboard,RI,2019-03-01T00:00:00-05:00,2019-04-01T00:00:00-04:00,2840,75,63.0,"{""<5"":1,""5-20"":17,""21-60"":18,""61-240"":20,"">240"":19}",8514.0,41.485251,-71.31640300000001,722515.0,RI,44.0,44005.0,Newport County,440050410001.0
1558,sg:922c65efc7c242f19fdb73f58c381326,Dwyer David Toll Gate Chiropractic,RI,2019-03-01T00:00:00-05:00,2019-04-01T00:00:00-04:00,2886,4,11.5,"{""<5"":1,""5-20"":2,""21-60"":0,""61-240"":1,"">240"":0}",178.0,41.70107,-71.469317,621310.0,RI,44.0,44003.0,Kent County,440030221003.0
2039,sg:c0f7eacef6504620b7aa908b830290bf,U Haul Moving & Storage of North Smithfield,RI,2019-03-01T00:00:00-05:00,2019-04-01T00:00:00-04:00,2896,21,6.0,"{""<5"":2,""5-20"":11,""21-60"":5,""61-240"":3,"">240"":0}",796.5,41.973154,-71.508586,532120.0,RI,44.0,44007.0,Providence County,440070128031.0
2382,sg:e23f8b298f2244b8912add3bfe0bafa8,Charles Street Salon,RI,2019-03-01T00:00:00-05:00,2019-04-01T00:00:00-04:00,2904,43,43.0,"{""<5"":3,""5-20"":13,""21-60"":8,""61-240"":10,"">240"":9}",4159.0,41.833386,-71.411108,812112.0,RI,44.0,44007.0,Providence County,440070031005.0
2396,sg:e36a84483e5544ee837bfd56e95ac421,Cranston High School East,RI,2019-03-01T00:00:00-05:00,2019-04-01T00:00:00-04:00,2910,1843,105.0,"{""<5"":21,""5-20"":230,""21-60"":305,""61-240"":876,"">240"":411}",245758.0,41.780303,-71.43777299999999,611110.0,RI,44.0,44007.0,Providence County,440070140001.0
2789,sg:09d9f11831f24ede98f142c4cffcc9fd,Sky Chef Restaurant,RI,2019-03-01T00:00:00-05:00,2019-04-01T00:00:00-04:00,2863,116,38.5,"{""<5"":4,""5-20"":36,""21-60"":31,""61-240"":33,"">240"":12}",9562.0,41.8872,-71.401347,722511.0,RI,44.0,44007.0,Providence County,440070111002.0
3112,sg:28652a17ad05411ca6c812cd7906d51d,First Baptist Church,RI,2019-03-01T00:00:00-05:00,2019-04-01T00:00:00-04:00,2895,115,123.0,"{""<5"":3,""5-20"":22,""21-60"":19,""61-240"":34,"">240"":37}",15049.0,42.005094,-71.516789,813110.0,RI,44.0,44007.0,Providence County,440070180002.0
3437,sg:47dbba40d9304f5eb369068474004c5b,RIRAL Rhode Island Regional Adult Learning,RI,2019-03-01T00:00:00-05:00,2019-04-01T00:00:00-04:00,2895,2,38.0,"{""<5"":0,""5-20"":0,""21-60"":2,""61-240"":0,"">240"":0}",81.0,42.006879,-71.509281,611691.0,RI,44.0,44007.0,Providence County,440070180002.0
3723,sg:648a4aeeebd5464f9654246b1f6a9028,Shell Oil,RI,2019-03-01T00:00:00-05:00,2019-04-01T00:00:00-04:00,2919,281,7.0,"{""<5"":28,""5-20"":197,""21-60"":35,""61-240"":12,"">240"":9}",7916.0,41.823541999999996,-71.498453,447110.0,RI,44.0,44007.0,Providence County,440070124015.0
3817,sg:6d5ebd54c308488eb67de7d323bae040,Newport Sunglass Shop,RI,2019-03-01T00:00:00-05:00,2019-04-01T00:00:00-04:00,2840,465,45.0,"{""<5"":6,""5-20"":112,""21-60"":165,""61-240"":180,"">240"":2}",35667.5,41.489227,-71.31545200000001,453998.0,RI,44.0,44005.0,Newport County,440050410001.0
4331,sg:9edbac2f6b6641e8b62fa27624e4ca1b,W R Dutemple School,RI,2019-03-01T00:00:00-05:00,2019-04-01T00:00:00-04:00,2910,31,11.0,"{""<5"":0,""5-20"":23,""21-60"":3,""61-240"":3,"">240"":2}",1340.5,41.780965,-71.430638,611110.0,RI,44.0,44007.0,Providence County,440070137012.0
4553,sg:b26109f002bc48b098b8960a40d513f2,Acoustic Java,RI,2019-03-01T00:00:00-05:00,2019-04-01T00:00:00-04:00,2903,88,21.0,"{""<5"":4,""5-20"":39,""21-60"":13,""61-240"":15,"">240"":17}",7361.5,41.823136,-71.40554,722515.0,RI,44.0,44007.0,Providence County,440070037002.0
4816,sg:cbd22e40a0564e96aa85f75d85da7f87,James Auto Company,RI,2019-03-01T00:00:00-05:00,2019-04-01T00:00:00-04:00,2914,3,7.0,"{""<5"":0,""5-20"":2,""21-60"":0,""61-240"":0,"">240"":1}",265.0,41.819381,-71.3736,811121.0,RI,44.0,44007.0,Providence County,440070102006.0
5591,sg:17d1f430ba4441828357742c0256fbb5,Family Companion Pet Salon,RI,2019-03-01T00:00:00-05:00,2019-04-01T00:00:00-04:00,2917,81,10.0,"{""<5"":9,""5-20"":44,""21-60"":20,""61-240"":7,"">240"":1}",2676.0,41.877895,-71.500155,453910.0,RI,44.0,44007.0,Providence County,440070126026.0
6111,sg:46a6d9b8233c41f1a2e263aeddddbf7f,Merrill Motors,RI,2019-03-01T00:00:00-05:00,2019-04-01T00:00:00-04:00,2816,9,20.0,"{""<5"":1,""5-20"":5,""21-60"":1,""61-240"":0,"">240"":2}",585.5,41.689983000000005,-71.55991,811111.0,RI,44.0,44003.0,Kent County,440030206021.0
6227,sg:511705411fa34fa69139aef36ea3c73d,Bertucci's,RI,2019-03-01T00:00:00-05:00,2019-04-01T00:00:00-04:00,2886,464,42.0,"{""<5"":13,""5-20"":140,""21-60"":154,""61-240"":121,"">240"":36}",34870.0,41.728517,-71.43759,722511.0,RI,44.0,44003.0,Kent County,440039800001.0
6430,sg:66baa677c08848bb83d8fb6be3d0863b,Harmony Hill School,RI,2019-03-01T00:00:00-05:00,2019-04-01T00:00:00-04:00,2814,134,180.5,"{""<5"":1,""5-20"":22,""21-60"":23,""61-240"":36,"">240"":52}",19107.0,41.915482,-71.62696600000001,611110.0,RI,44.0,44007.0,Providence County,440070131022.0
6902,sg:93c42c38a7cb431896c38f6c0b382fab,TwoTen Oyster Bar & Grill,RI,2019-03-01T00:00:00-05:00,2019-04-01T00:00:00-04:00,2879,369,57.0,"{""<5"":10,""5-20"":71,""21-60"":116,""61-240"":160,"">240"":12}",32570.5,41.427695,-71.496234,722511.0,RI,44.0,44009.0,Washington County,440090512021.0
7022,sg:a02f70425f66412ead55ef858b68e08a,Sonic,RI,2019-03-01T00:00:00-05:00,2019-04-01T00:00:00-04:00,2886,1076,14.0,"{""<5"":43,""5-20"":612,""21-60"":312,""61-240"":55,"">240"":54}",41631.0,41.707857000000004,-71.490988,722513.0,RI,44.0,44003.0,Kent County,440030222021.0
7084,sg:a64867748d1f4f2ca0c487e5a0d5f6c5,PATH Fitness,RI,2019-03-01T00:00:00-05:00,2019-04-01T00:00:00-04:00,2904,226,90.0,"{""<5"":3,""5-20"":49,""21-60"":41,""61-240"":71,"">240"":62}",27846.0,41.848946000000005,-71.419625,713940.0,RI,44.0,44007.0,Providence County,440070029004.0
7553,sg:d3fc09179f2f4aee83f0869db7a85736,Cloth Diaper Exchange,RI,2019-03-01T00:00:00-05:00,2019-04-01T00:00:00-04:00,2891,136,36.5,"{""<5"":3,""5-20"":40,""21-60"":48,""61-240"":31,"">240"":14}",10477.0,41.381598,-71.832009,453310.0,RI,44.0,44009.0,Washington County,440090508015.0
8057,sg:07d8dd973ea94c66aeb08b29b8043b7f,Child's Play,RI,2019-03-01T00:00:00-05:00,2019-04-01T00:00:00-04:00,2906,121,20.0,"{""<5"":2,""5-20"":60,""21-60"":32,""61-240"":23,"">240"":4}",6472.5,41.82954,-71.396304,624410.0,RI,44.0,44007.0,Providence County,440070036011.0
8172,sg:10ff69424b9d44c883a602b4a2bdce51,Ebcap Head Start Mary V Quirk Sc,RI,2019-03-01T00:00:00-05:00,2019-04-01T00:00:00-04:00,2885,123,19.0,"{""<5"":2,""5-20"":62,""21-60"":23,""61-240"":26,"">240"":10}",8024.5,41.722407000000004,-71.280677,624410.0,RI,44.0,44001.0,Bristol County,440010306021.0
8689,sg:40d61d8bb8324ca99a3e600e85ca9997,Hemenway's Restaurant,RI,2019-03-01T00:00:00-05:00,2019-04-01T00:00:00-04:00,2903,331,91.0,"{""<5"":4,""5-20"":62,""21-60"":62,""61-240"":138,"">240"":65}",39665.0,41.823971,-71.407116,722511.0,RI,44.0,44007.0,Providence County,440070008003.0
9132,sg:6b694306000f440e96e031a808338a55,We Gas,RI,2019-03-01T00:00:00-05:00,2019-04-01T00:00:00-04:00,2909,76,26.5,"{""<5"":1,""5-20"":24,""21-60"":32,""61-240"":14,"">240"":5}",4905.5,41.816336,-71.431664,447110.0,RI,44.0,44007.0,Providence County,440070013001.0
9411,sg:859698154dd1446588c989d71b10a7a8,J B's Higgins Florist,RI,2019-03-01T00:00:00-05:00,2019-04-01T00:00:00-04:00,2909,556,31.0,"{""<5"":16,""5-20"":213,""21-60"":115,""61-240"":93,"">240"":119}",49916.5,41.811681,-71.449629,453110.0,RI,44.0,44007.0,Providence County,440070016002.0
9550,sg:94ae8afb5b054cc6b7e599204107f346,Pizza Heaven,RI,2019-03-01T00:00:00-05:00,2019-04-01T00:00:00-04:00,2818,134,115.5,"{""<5"":8,""5-20"":35,""21-60"":17,""61-240"":37,"">240"":37}",15594.5,41.626988,-71.492152,722511.0,RI,44.0,44003.0,Kent County,440030209032.0
10055,sg:c5ec3b5caefe4af8b24dc095b2e31bcc,Cheesecakery,RI,2019-03-01T00:00:00-05:00,2019-04-01T00:00:00-04:00,2886,55,47.0,"{""<5"":1,""5-20"":17,""21-60"":14,""61-240"":12,"">240"":11}",5228.0,41.724857,-71.467091,311811.0,RI,44.0,44003.0,Kent County,440030223004.0
10479,sg:f05e733b049648b9ad6742c9937887f9,BMW of Warwick,RI,2019-03-01T00:00:00-05:00,2019-04-01T00:00:00-04:00,2886,222,24.5,"{""<5"":2,""5-20"":93,""21-60"":44,""61-240"":44,"">240"":39}",18931.5,41.699108,-71.49761099999999,441110.0,RI,44.0,44003.0,Kent County,440030223001.0
10611,sg:fd0d48b2ea144e379100e3a767877c9a,KFC,RI,2019-03-01T00:00:00-05:00,2019-04-01T00:00:00-04:00,2885,110,7.0,"{""<5"":10,""5-20"":89,""21-60"":8,""61-240"":2,"">240"":1}",2002.5,41.71483,-71.26831999999999,722513.0,RI,44.0,44001.0,Bristol County,440010306023.0
12645,sg:c177b85639dd44b096d58a631baef193,Pizza Queen,RI,2019-03-01T00:00:00-05:00,2019-04-01T00:00:00-04:00,2908,273,83.0,"{""<5"":6,""5-20"":88,""21-60"":29,""61-240"":59,"">240"":91}",33009.0,41.840744,-71.44032299999999,722511.0,RI,44.0,44007.0,Providence County,440070023005.0
13091,sg:f11eab3220604e21850d5851564cea98,Town Fair Tire,RI,2019-03-01T00:00:00-05:00,2019-04-01T00:00:00-04:00,2920,84,31.0,"{""<5"":2,""5-20"":34,""21-60"":14,""61-240"":11,"">240"":23}",8172.5,41.752857,-71.453384,441310.0,RI,44.0,44007.0,Providence County,440070142002.0
13521,sg:1a2b9a25939f4879b07edc133857acd6,CVS,RI,2019-03-01T00:00:00-05:00,2019-04-01T00:00:00-04:00,2914,586,10.0,"{""<5"":41,""5-20"":437,""21-60"":92,""61-240"":12,"">240"":4}",12057.0,41.811228,-71.357456,446110.0,RI,44.0,44007.0,Providence County,440070105011.0
13607,sg:2426a238e8394ec58ce48c16500577dd,Iglesia Aposento Alto,RI,2019-03-01T00:00:00-05:00,2019-04-01T00:00:00-04:00,2907,198,63.0,"{""<5"":1,""5-20"":54,""21-60"":39,""61-240"":69,"">240"":35}",21041.5,41.802982,-71.42268299999999,813110.0,RI,44.0,44007.0,Providence County,440070003002.0
13623,sg:25b2bd61399d4dfdb099a352ba9abdd8,The Church of Jesus Christ of Latter day Saints,RI,2019-03-01T00:00:00-05:00,2019-04-01T00:00:00-04:00,2909,209,76.0,"{""<5"":4,""5-20"":53,""21-60"":40,""61-240"":45,"">240"":67}",25145.0,41.809557,-71.436728,813110.0,RI,44.0,44007.0,Providence County,440070014003.0
13964,sg:4386a59c9e624b58a61dc22b9c957e67,YMCA,RI,2019-03-01T00:00:00-05:00,2019-04-01T00:00:00-04:00,2886,91,21.0,"{""<5"":2,""5-20"":41,""21-60"":42,""61-240"":6,"">240"":0}",3121.5,41.694137,-71.494109,624190.0,RI,44.0,44003.0,Kent County,440030222022.0
13974,sg:44efa6d7317848928983a1d7f4a842c0,Once Upon a Child,RI,2019-03-01T00:00:00-05:00,2019-04-01T00:00:00-04:00,2886,580,20.0,"{""<5"":9,""5-20"":301,""21-60"":212,""61-240"":35,"">240"":23}",23158.5,41.707309,-71.49723900000001,453310.0,RI,44.0,44003.0,Kent County,440030223001.0
14324,sg:64c293d2a921446c92ed6c847ffd71e2,Atlas Music,RI,2019-03-01T00:00:00-05:00,2019-04-01T00:00:00-04:00,2840,143,50.0,"{""<5"":9,""5-20"":45,""21-60"":22,""61-240"":34,"">240"":33}",14513.0,41.483012,-71.305846,451140.0,RI,44.0,44005.0,Newport County,440050408001.0
14637,sg:83e95d3219464f259b7885264fe88d9e,Scott's Garage,RI,2019-03-01T00:00:00-05:00,2019-04-01T00:00:00-04:00,2919,5,20.0,"{""<5"":0,""5-20"":3,""21-60"":0,""61-240"":1,"">240"":1}",428.0,41.833751,-71.475876,811111.0,RI,44.0,44007.0,Providence County,440070124016.0
14668,sg:8705a1f789344864b37d585d361740a0,Christopher Franklin CPA,RI,2019-03-01T00:00:00-05:00,2019-04-01T00:00:00-04:00,2886,23,41.0,"{""<5"":0,""5-20"":4,""21-60"":11,""61-240"":5,"">240"":3}",1968.0,41.680446,-71.449256,541213.0,RI,44.0,44003.0,Kent County,440030220003.0
14696,sg:88f92ca862384e96b57bf75021a2b742,Stride Rite,RI,2019-03-01T00:00:00-05:00,2019-04-01T00:00:00-04:00,2919,18,15.0,"{""<5"":0,""5-20"":13,""21-60"":5,""61-240"":0,"">240"":0}",365.0,41.825267,-71.50353,448210.0,RI,44.0,44007.0,Providence County,440070124014.0
16014,sg:08861cc145cf482faf42da7b0ba0af84,Greenwood Montessori School,RI,2019-03-01T00:00:00-05:00,2019-04-01T00:00:00-04:00,2886,16,213.0,"{""<5"":1,""5-20"":4,""21-60"":1,""61-240"":4,"">240"":6}",2135.0,41.703328000000006,-71.462274,624410.0,RI,44.0,44003.0,Kent County,440030221003.0
16186,sg:17544c61afc24f98b9722e27b8da568e,Arete' Salon,RI,2019-03-01T00:00:00-05:00,2019-04-01T00:00:00-04:00,2919,4,240.5,"{""<5"":0,""5-20"":0,""21-60"":0,""61-240"":2,"">240"":2}",781.0,41.865763,-71.5009,812112.0,RI,44.0,44007.0,Providence County,440070123003.0
16671,sg:4665fb2ab4f543ccb3405fee19435d43,Three Ducks Car Wash,RI,2019-03-01T00:00:00-05:00,2019-04-01T00:00:00-04:00,2878,41,113.0,"{""<5"":0,""5-20"":10,""21-60"":9,""61-240"":9,"">240"":13}",4964.0,41.66258,-71.189419,811111.0,RI,44.0,44005.0,Newport County,440050416011.0
16890,sg:5ab39251076040fdb47ed12ad9191692,Mt Pleasant Library,RI,2019-03-01T00:00:00-05:00,2019-04-01T00:00:00-04:00,2908,12,21.5,"{""<5"":0,""5-20"":6,""21-60"":2,""61-240"":1,"">240"":3}",1026.5,41.833383000000005,-71.444087,519120.0,RI,44.0,44007.0,Providence County,440070023003.0
17130,sg:7105588450014663a0dc4cb9530a7cfa,Smoke Stack Cigar Shop,RI,2019-03-01T00:00:00-05:00,2019-04-01T00:00:00-04:00,2911,129,21.0,"{""<5"":7,""5-20"":55,""21-60"":33,""61-240"":29,"">240"":5}",7606.0,41.85759,-71.48395,453991.0,RI,44.0,44007.0,Providence County,440070121041.0
17299,sg:83cd133469224f6ea89303e063e66af1,Shea's Beauty Parlor,RI,2019-03-01T00:00:00-05:00,2019-04-01T00:00:00-04:00,2891,20,10.0,"{""<5"":0,""5-20"":15,""21-60"":0,""61-240"":3,"">240"":2}",1119.0,41.359674,-71.811459,812112.0,RI,44.0,44009.0,Washington County,440090508022.0
17364,sg:89e2904f0def4348842d56a2d83af1e3,Shore's Food Market,RI,2019-03-01T00:00:00-05:00,2019-04-01T00:00:00-04:00,2904,213,13.0,"{""<5"":6,""5-20"":133,""21-60"":48,""61-240"":5,"">240"":21}",9414.0,41.864194,-71.448295,445110.0,RI,44.0,44007.0,Providence County,440070119011.0
17834,sg:b755a2039c7f429e99eb1be5169e2dde,Rt 5 Auto Repair,RI,2019-03-01T00:00:00-05:00,2019-04-01T00:00:00-04:00,2917,17,17.0,"{""<5"":0,""5-20"":9,""21-60"":5,""61-240"":3,"">240"":0}",766.5,41.864889,-71.531056,811111.0,RI,44.0,44007.0,Providence County,440070126012.0
18141,sg:d6dc617c73e74e699e993edeedaf5778,Antique Furnishings,RI,2019-03-01T00:00:00-05:00,2019-04-01T00:00:00-04:00,2852,14,6.5,"{""<5"":1,""5-20"":12,""21-60"":0,""61-240"":1,"">240"":0}",303.0,41.608453000000004,-71.46969,453310.0,RI,44.0,44009.0,Washington County,440090501032.0
19189,sg:3a858a728a464755ae4e5780ba95bdaf,America's Food Basket,RI,2019-03-01T00:00:00-05:00,2019-04-01T00:00:00-04:00,2907,642,14.0,"{""<5"":18,""5-20"":414,""21-60"":138,""61-240"":40,"">240"":32}",24509.0,41.800208000000005,-71.417659,445110.0,RI,44.0,44007.0,Providence County,440070002001.0
19521,sg:5a5abd35cb92404ca3977a9b93a2883f,Westwood Y At Western Coventry,RI,2019-03-01T00:00:00-05:00,2019-04-01T00:00:00-04:00,2827,70,66.0,"{""<5"":8,""5-20"":23,""21-60"":3,""61-240"":14,"">240"":22}",7816.0,41.695769,-71.689628,624410.0,RI,44.0,44003.0,Kent County,440030207022.0
19530,sg:5b016d5734e6475dadf59ec3dca42c21,Engine New Ity,RI,2019-03-01T00:00:00-05:00,2019-04-01T00:00:00-04:00,2891,4,79.0,"{""<5"":0,""5-20"":0,""21-60"":2,""61-240"":2,"">240"":0}",382.0,41.373245000000004,-71.81264499999999,811111.0,RI,44.0,44009.0,Washington County,440090509012.0
20064,sg:8de38b158f9849acb94d977e13c09478,Honey Dew Donuts,RI,2019-03-01T00:00:00-05:00,2019-04-01T00:00:00-04:00,2889,168,13.0,"{""<5"":15,""5-20"":81,""21-60"":21,""61-240"":31,"">240"":20}",11366.0,41.728253,-71.40562800000001,311811.0,RI,44.0,44003.0,Kent County,440030214021.0
20436,sg:b2a97903d3484b3ea7f308f4e226c5f0,Oh Baby Fitness,RI,2019-03-01T00:00:00-05:00,2019-04-01T00:00:00-04:00,2907,197,24.0,"{""<5"":5,""5-20"":88,""21-60"":45,""61-240"":37,"">240"":22}",13783.5,41.798590999999995,-71.425301,713940.0,RI,44.0,44007.0,Providence County,440070003004.0
20950,sg:e6e7b52f2a1542ec98594261b03c9aab,Branch Towing,RI,2019-03-01T00:00:00-05:00,2019-04-01T00:00:00-04:00,2910,10,38.0,"{""<5"":1,""5-20"":2,""21-60"":4,""61-240"":2,"">240"":1}",730.5,41.766183000000005,-71.418524,488410.0,RI,44.0,44007.0,Providence County,440070136002.0
21588,sg:25f88ed7999848ba8849a921635b541a,Kids Junction Inc,RI,2019-03-01T00:00:00-05:00,2019-04-01T00:00:00-04:00,2806,47,87.0,"{""<5"":1,""5-20"":11,""21-60"":8,""61-240"":17,"">240"":10}",5422.5,41.737821000000004,-71.321662,624410.0,RI,44.0,44001.0,Bristol County,440010302003.0
21936,sg:475fedc6ef9240878592c0575707fa00,Diggy's Ice Cream,RI,2019-03-01T00:00:00-05:00,2019-04-01T00:00:00-04:00,2893,153,31.0,"{""<5"":7,""5-20"":49,""21-60"":60,""61-240"":29,"">240"":8}",9344.5,41.717484999999996,-71.52393000000001,722515.0,RI,44.0,44003.0,Kent County,440030204002.0
22277,sg:68f7d40bae54412fb7e54149f5b07c34,Maccoll Field Y School's Out,RI,2019-03-01T00:00:00-05:00,2019-04-01T00:00:00-04:00,2865,14,18.0,"{""<5"":0,""5-20"":8,""21-60"":3,""61-240"":3,"">240"":0}",673.0,41.903797,-71.443915,624410.0,RI,44.0,44007.0,Providence County,440070116003.0
22462,sg:7a2b47aa80e04b199a45f8c4e55afe27,Wilson Insurance Agency,RI,2019-03-01T00:00:00-05:00,2019-04-01T00:00:00-04:00,2909,3,10.0,"{""<5"":0,""5-20"":2,""21-60"":0,""61-240"":0,"">240"":1}",265.0,41.824803,-71.440811,524210.0,RI,44.0,44007.0,Providence County,440070022002.0
22745,sg:9643d306c197436b9857eefa2ccf5549,Professional Planning Group,RI,2019-03-01T00:00:00-05:00,2019-04-01T00:00:00-04:00,2891,14,217.0,"{""<5"":0,""5-20"":0,""21-60"":3,""61-240"":5,"">240"":6}",2314.0,41.376881,-71.827822,523930.0,RI,44.0,44009.0,Washington County,440090508014.0
23730,sg:fac2983a332b487daab081b13d4b03b4,Bank Rhode Island,RI,2019-03-01T00:00:00-05:00,2019-04-01T00:00:00-04:00,2895,148,10.0,"{""<5"":11,""5-20"":84,""21-60"":23,""61-240"":16,"">240"":14}",7777.0,41.991417,-71.483746,522110.0,RI,44.0,44007.0,Providence County,440070185003.0
24117,sg:1bdd85147b414df7a3fdb7a15e7fb1d4,Puppy Lapew,RI,2019-03-01T00:00:00-05:00,2019-04-01T00:00:00-04:00,2860,122,20.0,"{""<5"":4,""5-20"":60,""21-60"":17,""61-240"":36,"">240"":5}",8066.5,41.862312,-71.412421,453910.0,RI,44.0,44007.0,Providence County,440070163001.0
24212,sg:246ad11116d948f6aefc23e3b50a013f,Kosseff Pamela M Psychothrpst,RI,2019-03-01T00:00:00-05:00,2019-04-01T00:00:00-04:00,2840,9,13.0,"{""<5"":0,""5-20"":5,""21-60"":0,""61-240"":2,"">240"":2}",843.5,41.495827,-71.305073,621330.0,RI,44.0,44005.0,Newport County,440050406003.0
24346,sg:317df0d4c8e44cc49288a434542894ea,Rhode Island Tutorial & Educational Services,RI,2019-03-01T00:00:00-05:00,2019-04-01T00:00:00-04:00,2860,6,111.5,"{""<5"":0,""5-20"":0,""21-60"":2,""61-240"":3,"">240"":1}",772.5,41.869748,-71.38672,611691.0,RI,44.0,44007.0,Providence County,440070166001.0
24516,sg:4075b270e919402b8f50b2c96cdc12de,Alviti Link All,RI,2019-03-01T00:00:00-05:00,2019-04-01T00:00:00-04:00,2919,69,12.0,"{""<5"":0,""5-20"":40,""21-60"":6,""61-240"":6,"">240"":17}",5726.0,41.828323,-71.466154,812199.0,RI,44.0,44007.0,Providence County,440070124011.0
24655,sg:4f658cee080447279a415eebc539db68,Mr Cigar,RI,2019-03-01T00:00:00-05:00,2019-04-01T00:00:00-04:00,2904,120,10.0,"{""<5"":6,""5-20"":85,""21-60"":16,""61-240"":11,"">240"":2}",3861.0,41.86376,-71.450006,453991.0,RI,44.0,44007.0,Providence County,440070119011.0
24914,sg:673b4fa0ece04f99a457b6ea8cd758cd,Oakland Grove Health Care Center,RI,2019-03-01T00:00:00-05:00,2019-04-01T00:00:00-04:00,2895,309,149.0,"{""<5"":2,""5-20"":67,""21-60"":50,""61-240"":91,"">240"":99}",40323.0,41.998562,-71.48937099999999,623312.0,RI,44.0,44007.0,Providence County,440070185002.0
25091,sg:77c4f1f27e4a4b3d93abd6e40a05c91f,Providence Coal Fired Pizza,RI,2019-03-01T00:00:00-05:00,2019-04-01T00:00:00-04:00,2891,84,31.5,"{""<5"":5,""5-20"":24,""21-60"":32,""61-240"":23,"">240"":0}",5070.0,41.368127,-71.818775,722511.0,RI,44.0,44009.0,Washington County,440090508021.0
25109,sg:78da344ed387450ba4769ac0b2f1a591,Camp Nowhere,RI,2019-03-01T00:00:00-05:00,2019-04-01T00:00:00-04:00,2911,227,47.0,"{""<5"":5,""5-20"":68,""21-60"":57,""61-240"":91,"">240"":6}",18306.5,41.854528,-71.474293,722511.0,RI,44.0,44007.0,Providence County,440070120004.0
25466,sg:9d64203203dc4b0f9b80deb351e3f33e,Bath & Body Works,RI,2019-03-01T00:00:00-05:00,2019-04-01T00:00:00-04:00,2917,3,26.0,"{""<5"":0,""5-20"":0,""21-60"":2,""61-240"":1,"">240"":0}",231.5,41.87271,-71.518111,446120.0,RI,44.0,44007.0,Providence County,440070126012.0
25558,sg:a5948fea71a54c1e9a369b8e4038aa86,Dreamland Learning Center Inc,RI,2019-03-01T00:00:00-05:00,2019-04-01T00:00:00-04:00,2893,72,94.0,"{""<5"":2,""5-20"":13,""21-60"":13,""61-240"":29,"">240"":15}",8658.5,41.68728,-71.528765,624410.0,RI,44.0,44003.0,Kent County,440030202003.0
25625,sg:acb5a2f9110f42a295382fa7b89d5abb,Weedweaver's,RI,2019-03-01T00:00:00-05:00,2019-04-01T00:00:00-04:00,2879,87,39.0,"{""<5"":2,""5-20"":24,""21-60"":29,""61-240"":31,"">240"":1}",6385.0,41.44235,-71.496023,453110.0,RI,44.0,44009.0,Washington County,440090512022.0
25732,sg:b9469e5da92144c39ba125d53d3bfca4,Gorman Clocks,RI,2019-03-01T00:00:00-05:00,2019-04-01T00:00:00-04:00,2809,9,5.0,"{""<5"":0,""5-20"":8,""21-60"":1,""61-240"":0,"">240"":0}",140.5,41.670873,-71.2769,444130.0,RI,44.0,44001.0,Bristol County,440010307004.0
25819,sg:c17e2b92c11242c2a85bc03c2b0731b9,Scalabrini Villa,RI,2019-03-01T00:00:00-05:00,2019-04-01T00:00:00-04:00,2852,156,99.5,"{""<5"":2,""5-20"":25,""21-60"":36,""61-240"":51,"">240"":42}",19531.0,41.645897,-71.410613,621610.0,RI,44.0,44009.0,Washington County,440090501042.0
26143,sg:e0881f28403d44ee920d6f19f14ef489,Slater Clothing,RI,2019-03-01T00:00:00-05:00,2019-04-01T00:00:00-04:00,2896,1,56.0,"{""<5"":0,""5-20"":0,""21-60"":1,""61-240"":0,"">240"":0}",40.5,41.994198,-71.599594,448120.0,RI,44.0,44007.0,Providence County,440070128011.0
26178,sg:e4418a9de7ee481a86bcfcde6ff811d3,Patriot Wine and Spirits,RI,2019-03-01T00:00:00-05:00,2019-04-01T00:00:00-04:00,2885,114,20.5,"{""<5"":4,""5-20"":53,""21-60"":30,""61-240"":21,"">240"":6}",6488.0,41.735409000000004,-71.285706,445310.0,RI,44.0,44001.0,Bristol County,440010305003.0
26228,sg:e92d65c4044046d784279c2e49cfb8b7,Roberto's Italian Restaurant,RI,2019-03-01T00:00:00-05:00,2019-04-01T00:00:00-04:00,2809,48,66.0,"{""<5"":0,""5-20"":8,""21-60"":15,""61-240"":23,"">240"":2}",4649.0,41.670055,-71.276104,722511.0,RI,44.0,44001.0,Bristol County,440010307004.0
26584,sg:0ef8faa3f6ca49899cf65e1ebe1d0090,Pawtucket Wine and Spirits,RI,2019-03-01T00:00:00-05:00,2019-04-01T00:00:00-04:00,2861,113,10.0,"{""<5"":4,""5-20"":83,""21-60"":21,""61-240"":4,"">240"":1}",2740.0,41.888837,-71.367649,445310.0,RI,44.0,44007.0,Providence County,440070155003.0
27084,sg:3b75131616cf491f937189c285067195,Kid's Kingdom Arlington School,RI,2019-03-01T00:00:00-05:00,2019-04-01T00:00:00-04:00,2920,95,220.0,"{""<5"":1,""5-20"":17,""21-60"":10,""61-240"":23,"">240"":44}",14641.5,41.794101,-71.454931,624410.0,RI,44.0,44007.0,Providence County,440070147002.0
27244,sg:4b116cc7ca54402b8d360cc769b44ef0,New England Wireless & Steam Museum,RI,2019-03-01T00:00:00-05:00,2019-04-01T00:00:00-04:00,2818,9,9.0,"{""<5"":0,""5-20"":6,""21-60"":2,""61-240"":0,"">240"":1}",396.0,41.624282,-71.513005,712110.0,RI,44.0,44003.0,Kent County,440030209033.0
27507,sg:64c8751158884773ae9fecbf2f51c587,RE Antiques and Interiors,RI,2019-03-01T00:00:00-05:00,2019-04-01T00:00:00-04:00,2852,192,17.5,"{""<5"":5,""5-20"":100,""21-60"":37,""61-240"":24,"">240"":26}",12613.0,41.593583,-71.45608399999999,453310.0,RI,44.0,44009.0,Washington County,440090501021.0
27626,sg:7260ec8f60e64cc89e6e300913c6ae0c,Elmwood Health Center,RI,2019-03-01T00:00:00-05:00,2019-04-01T00:00:00-04:00,2907,255,72.0,"{""<5"":10,""5-20"":63,""21-60"":48,""61-240"":50,"">240"":84}",30441.5,41.806761,-71.425405,623312.0,RI,44.0,44007.0,Providence County,440070003005.0
27957,sg:9098f44a0b244375bdd2bcc685b64255,Dot's Dairy Bar,RI,2019-03-01T00:00:00-05:00,2019-04-01T00:00:00-04:00,2861,57,22.0,"{""<5"":4,""5-20"":23,""21-60"":19,""61-240"":9,"">240"":2}",2901.5,41.89355,-71.354295,722515.0,RI,44.0,44007.0,Providence County,440070156001.0
28381,sg:bbe17ca591a340bbb9937aabf9a9dff2,Cumberland Farms,RI,2019-03-01T00:00:00-05:00,2019-04-01T00:00:00-04:00,2818,126,8.0,"{""<5"":10,""5-20"":97,""21-60"":13,""61-240"":2,"">240"":4}",3025.0,41.641067,-71.4688,447110.0,RI,44.0,44003.0,Kent County,440030209042.0
28668,sg:d8c25ac9f752446799a6343bdeb8f2e7,Wood River Golf,RI,2019-03-01T00:00:00-05:00,2019-04-01T00:00:00-04:00,2832,40,33.5,"{""<5"":0,""5-20"":14,""21-60"":14,""61-240"":10,"">240"":2}",2727.0,41.449375,-71.720924,713910.0,RI,44.0,44009.0,Washington County,440090507004.0
28762,sg:e134ec8729814844b7ddad8b7d14bea8,Coletta's Collision Center,RI,2019-03-01T00:00:00-05:00,2019-04-01T00:00:00-04:00,2905,116,14.0,"{""<5"":4,""5-20"":67,""21-60"":20,""61-240"":18,"">240"":7}",6046.5,41.805232000000004,-71.40329399999999,811121.0,RI,44.0,44007.0,Providence County,440070006001.0
28818,sg:e8584241f5d44c0cad2f9ee6182f6323,West Davisville Solar,RI,2019-03-01T00:00:00-05:00,2019-04-01T00:00:00-04:00,2852,34,36.0,"{""<5"":0,""5-20"":12,""21-60"":9,""61-240"":8,"">240"":5}",2918.5,41.603458,-71.47772900000001,221114.0,RI,44.0,44009.0,Washington County,440090501032.0
29306,sg:19d3e58b40fd4c1a9fdbcac204f65923,Island Dental Health,RI,2019-03-01T00:00:00-05:00,2019-04-01T00:00:00-04:00,2842,55,84.0,"{""<5"":0,""5-20"":15,""21-60"":9,""61-240"":19,"">240"":12}",6291.5,41.50662,-71.283457,621210.0,RI,44.0,44005.0,Newport County,440050404002.0
29590,sg:36c6e7166e094a5282de96fbb1bc4b23,Jimmy's Auto Sales,RI,2019-03-01T00:00:00-05:00,2019-04-01T00:00:00-04:00,2904,141,236.0,"{""<5"":3,""5-20"":17,""21-60"":13,""61-240"":43,"">240"":65}",22818.0,41.863271999999995,-71.423659,,RI,44.0,44007.0,Providence County,440070118003.0
29798,sg:48a1bbdb884f49bdb29aa2f7049e07d1,Tool and Equipment Depot,RI,2019-03-01T00:00:00-05:00,2019-04-01T00:00:00-04:00,2878,37,21.0,"{""<5"":1,""5-20"":17,""21-60"":12,""61-240"":5,"">240"":2}",1933.5,41.627557,-71.145267,444130.0,RI,44.0,44005.0,Newport County,440050417011.0
30426,sg:85a95650ea6e41fab8cc9798f0123b65,Drop It,RI,2019-03-01T00:00:00-05:00,2019-04-01T00:00:00-04:00,2886,14,74.0,"{""<5"":1,""5-20"":4,""21-60"":1,""61-240"":5,"">240"":3}",1565.5,41.697472999999995,-71.467458,812191.0,RI,44.0,44003.0,Kent County,440030222011.0
30643,sg:9933015253394ddda1ddedf73b439d0a,East Side Enterprises,RI,2019-03-01T00:00:00-05:00,2019-04-01T00:00:00-04:00,2888,59,5.0,"{""<5"":7,""5-20"":45,""21-60"":4,""61-240"":3,"">240"":0}",1193.5,41.749256,-71.422506,445110.0,RI,44.0,44003.0,Kent County,440030211001.0
31395,sg:e1ff50ea8448417d9fa1617b72c7223e,Laurel Lane Country Club,RI,2019-03-01T00:00:00-05:00,2019-04-01T00:00:00-04:00,2892,48,12.0,"{""<5"":3,""5-20"":26,""21-60"":11,""61-240"":8,"">240"":0}",1982.0,41.489844,-71.604232,712190.0,RI,44.0,44009.0,Washington County,440090513061.0
31463,sg:e8ccb918b1b445a3a02df11e1dd6474c,Cru Cafe,RI,2019-03-01T00:00:00-05:00,2019-04-01T00:00:00-04:00,2840,176,26.0,"{""<5"":6,""5-20"":59,""21-60"":83,""61-240"":23,"">240"":5}",8775.5,41.481936,-71.307825,722511.0,RI,44.0,44005.0,Newport County,440050408001.0
31730,sg:0497cbc4e0644490b9421e054af8275c,Printmakers Inc,RI,2019-03-01T00:00:00-05:00,2019-04-01T00:00:00-04:00,2860,141,33.0,"{""<5"":4,""5-20"":54,""21-60"":36,""61-240"":16,"">240"":31}",11991.0,41.862507,-71.364329,452319.0,RI,44.0,44007.0,Providence County,440070171003.0
32097,sg:23b31fff35474b8093164d748086bab2,Sayles Livingston Design,RI,2019-03-01T00:00:00-05:00,2019-04-01T00:00:00-04:00,2878,44,21.5,"{""<5"":2,""5-20"":19,""21-60"":14,""61-240"":7,"">240"":2}",2343.0,41.571777000000004,-71.18808299999999,453110.0,RI,44.0,44005.0,Newport County,440050417023.0
32412,sg:40d8fd295fc44310bb49641d4b3b11e5,Kathy's Driving School,RI,2019-03-01T00:00:00-05:00,2019-04-01T00:00:00-04:00,2907,260,64.5,"{""<5"":6,""5-20"":61,""21-60"":56,""61-240"":80,"">240"":57}",28765.5,41.796595,-71.417303,453310.0,RI,44.0,44007.0,Providence County,440070002004.0
32542,sg:4f3f03f270fe43c6a03466eca5e890ea,Angel Hair Beauty Salon,RI,2019-03-01T00:00:00-05:00,2019-04-01T00:00:00-04:00,2904,1,68.0,"{""<5"":0,""5-20"":0,""21-60"":0,""61-240"":1,"">240"":0}",150.5,41.864466,-71.44694100000001,812112.0,RI,44.0,44007.0,Providence County,440070119011.0
32578,sg:5290869d063c45a695ad5da15318b6f4,St Benedict's Church,RI,2019-03-01T00:00:00-05:00,2019-04-01T00:00:00-04:00,2889,53,48.0,"{""<5"":1,""5-20"":18,""21-60"":13,""61-240"":17,"">240"":4}",4272.5,41.722516999999996,-71.38448199999999,813110.0,RI,44.0,44003.0,Kent County,440030214023.0
33119,sg:863125c826e14dea8fdd13f2efa6a74b,Port of Paws,RI,2019-03-01T00:00:00-05:00,2019-04-01T00:00:00-04:00,2840,114,35.5,"{""<5"":3,""5-20"":34,""21-60"":39,""61-240"":29,"">240"":9}",8536.5,41.481747,-71.314613,453910.0,RI,44.0,44005.0,Newport County,440050410002.0
33247,sg:944f2bbe190d42b78203338176f2268f,Narragansett Elementary,RI,2019-03-01T00:00:00-05:00,2019-04-01T00:00:00-04:00,2882,209,58.0,"{""<5"":3,""5-20"":63,""21-60"":41,""61-240"":57,"">240"":45}",21834.0,41.437432,-71.47095999999999,611110.0,RI,44.0,44009.0,Washington County,440090515031.0
33263,sg:952445d59a3643b29451c5c29c03ea28,O'neil's Package Store,RI,2019-03-01T00:00:00-05:00,2019-04-01T00:00:00-04:00,2882,104,10.0,"{""<5"":8,""5-20"":67,""21-60"":12,""61-240"":15,"">240"":2}",4081.0,41.429584999999996,-71.480111,445310.0,RI,44.0,44009.0,Washington County,440090515033.0
33393,sg:a001792897794fe98be23652e0605606,New England Tractor Trailer Training School Of Rhode Island,RI,2019-03-01T00:00:00-05:00,2019-04-01T00:00:00-04:00,2860,477,63.0,"{""<5"":5,""5-20"":114,""21-60"":112,""61-240"":164,"">240"":82}",50335.5,41.880331,-71.405888,611519.0,RI,44.0,44007.0,Providence County,440070151001.0
33425,sg:a37dbe15ca4d4ccc859e7c2ef81ee7a2,Eye Care For RI,RI,2019-03-01T00:00:00-05:00,2019-04-01T00:00:00-04:00,2842,132,38.0,"{""<5"":5,""5-20"":42,""21-60"":42,""61-240"":37,"">240"":6}",9247.0,41.527791,-71.295626,446130.0,RI,44.0,44005.0,Newport County,440050403042.0
34890,sg:3276fa66081f487baf924ce75353494d,Eastward Look Park,RI,2019-03-01T00:00:00-05:00,2019-04-01T00:00:00-04:00,2882,64,69.0,"{""<5"":2,""5-20"":12,""21-60"":16,""61-240"":22,"">240"":12}",6994.0,41.396679,-71.476507,712190.0,RI,44.0,44009.0,Washington County,440090515033.0
34912,sg:348a054cec1843adac4de0522551c0f7,Tri County Comm Aa Johnston,RI,2019-03-01T00:00:00-05:00,2019-04-01T00:00:00-04:00,2919,182,47.5,"{""<5"":3,""5-20"":46,""21-60"":63,""61-240"":42,"">240"":28}",16175.0,41.822055999999996,-71.486083,624410.0,RI,44.0,44007.0,Providence County,440070124015.0
35557,sg:7141ae0c1df0404fac8f7c420604a88b,Navigant Credit Union,RI,2019-03-01T00:00:00-05:00,2019-04-01T00:00:00-04:00,2896,8,6.5,"{""<5"":1,""5-20"":6,""21-60"":0,""61-240"":1,"">240"":0}",228.0,42.005503999999995,-71.587647,522110.0,RI,44.0,44007.0,Providence County,440070128011.0
35767,sg:8622639e34104a81aecc3ce0507aed1f,Signature Automotive Accessories,RI,2019-03-01T00:00:00-05:00,2019-04-01T00:00:00-04:00,2893,123,113.0,"{""<5"":6,""5-20"":29,""21-60"":16,""61-240"":35,"">240"":37}",15173.0,41.711968,-71.503108,443142.0,RI,44.0,44003.0,Kent County,440030205003.0
36298,sg:ba9336abb77b416ea8ccd5f22573469d,Berniers Auto Body &amp Sales,RI,2019-03-01T00:00:00-05:00,2019-04-01T00:00:00-04:00,2895,135,11.0,"{""<5"":2,""5-20"":107,""21-60"":23,""61-240"":3,"">240"":0}",2725.5,42.013718,-71.512091,811121.0,RI,44.0,44007.0,Providence County,440070181001.0
36489,sg:cd16962f8cc04a3fbfe61148031e31e3,Zabinski Music Studio,RI,2019-03-01T00:00:00-05:00,2019-04-01T00:00:00-04:00,2860,13,6.0,"{""<5"":2,""5-20"":11,""21-60"":0,""61-240"":0,"">240"":0}",142.5,41.877215,-71.38499300000001,451140.0,RI,44.0,44007.0,Providence County,440070152002.0
36652,sg:df5d06e13d584fce8412deeea0db5526,Bayview Pharmacy,RI,2019-03-01T00:00:00-05:00,2019-04-01T00:00:00-04:00,2886,131,12.0,"{""<5"":4,""5-20"":67,""21-60"":10,""61-240"":12,"">240"":38}",12178.5,41.685695,-71.453244,446110.0,RI,44.0,44003.0,Kent County,440030220003.0
36961,sg:fc224b9e862149f2a172dd4ac96cf856,Brittany Motors,RI,2019-03-01T00:00:00-05:00,2019-04-01T00:00:00-04:00,2919,61,35.0,"{""<5"":1,""5-20"":20,""21-60"":21,""61-240"":11,"">240"":8}",4678.5,41.835943,-71.478606,,RI,44.0,44007.0,Providence County,440070123002.0
37179,sg:119e4411e97e4b1296cf12c50bc421a1,Darlington Market,RI,2019-03-01T00:00:00-05:00,2019-04-01T00:00:00-04:00,2861,161,32.0,"{""<5"":9,""5-20"":58,""21-60"":28,""61-240"":43,"">240"":23}",13873.0,41.886915,-71.35960899999999,447110.0,RI,44.0,44007.0,Providence County,440070156003.0
37194,sg:12814a4b19604d3d985b1e2f47c60c35,Devine City Cycle,RI,2019-03-01T00:00:00-05:00,2019-04-01T00:00:00-04:00,2903,444,43.0,"{""<5"":10,""5-20"":131,""21-60"":124,""61-240"":142,"">240"":37}",36935.5,41.818959,-71.423932,713940.0,RI,44.0,44007.0,Providence County,440070011002.0
37574,sg:343b59ad519645099a09f01100dc0693,Elmwood Liquors,RI,2019-03-01T00:00:00-05:00,2019-04-01T00:00:00-04:00,2907,227,19.0,"{""<5"":9,""5-20"":110,""21-60"":61,""61-240"":33,"">240"":14}",12194.5,41.790476,-71.422402,445310.0,RI,44.0,44007.0,Providence County,440070002005.0
38318,sg:7b1891418f8640ce9ba8a53dd77372c4,The Gift Shop,RI,2019-03-01T00:00:00-05:00,2019-04-01T00:00:00-04:00,2830,1190,63.0,"{""<5"":8,""5-20"":215,""21-60"":339,""61-240"":566,"">240"":62}",116500.0,41.984989,-71.607805,448310.0,RI,44.0,44007.0,Providence County,440070130021.0
38395,sg:811de1cd9eff4c6a9b6c6397ad6bfaea,H&R Block,RI,2019-03-01T00:00:00-05:00,2019-04-01T00:00:00-04:00,2889,4,17.5,"{""<5"":0,""5-20"":3,""21-60"":0,""61-240"":0,"">240"":1}",277.5,41.708093,-71.398987,541213.0,RI,44.0,44003.0,Kent County,440030218002.0
39309,sg:dd8f5e84af5a40a68be91195992c9352,Supreme Pizza,RI,2019-03-01T00:00:00-05:00,2019-04-01T00:00:00-04:00,2818,34,41.5,"{""<5"":0,""5-20"":12,""21-60"":8,""61-240"":10,"">240"":4}",2939.0,41.622885,-71.491396,722511.0,RI,44.0,44003.0,Kent County,440030209032.0
39605,sg:fc29515ce9954621b99bb68898513e07,Seven Layer Skin,RI,2019-03-01T00:00:00-05:00,2019-04-01T00:00:00-04:00,2903,438,33.5,"{""<5"":21,""5-20"":165,""21-60"":93,""61-240"":129,"">240"":30}",32496.0,41.816617,-71.418233,446120.0,RI,44.0,44007.0,Providence County,440070007003.0
40119,sg:2bdd9e2119444dd2a52e2803c3168605,Quonnie Bait and Tackle,RI,2019-03-01T00:00:00-05:00,2019-04-01T00:00:00-04:00,2813,16,13.5,"{""<5"":2,""5-20"":8,""21-60"":4,""61-240"":1,"">240"":1}",657.5,41.355756,-71.7186,451110.0,RI,44.0,44009.0,Washington County,440090511013.0
40192,sg:32c80b7e04234d7dab8c35f7f53904b4,Subway,RI,2019-03-01T00:00:00-05:00,2019-04-01T00:00:00-04:00,2889,225,13.0,"{""<5"":7,""5-20"":140,""21-60"":54,""61-240"":13,"">240"":11}",8551.0,41.732815,-71.40901,722513.0,RI,44.0,44003.0,Kent County,440030214013.0
40234,sg:3699ed80a9f14e2d9cca66062253e1f9,Annie's,RI,2019-03-01T00:00:00-05:00,2019-04-01T00:00:00-04:00,2840,182,37.0,"{""<5"":7,""5-20"":57,""21-60"":45,""61-240"":43,"">240"":30}",16224.0,41.483338,-71.30825,722513.0,RI,44.0,44005.0,Newport County,440050408001.0
40596,sg:599cd790d38a4ccba183d68f18c78613,Koch Eye Associates,RI,2019-03-01T00:00:00-05:00,2019-04-01T00:00:00-04:00,2852,119,36.0,"{""<5"":3,""5-20"":41,""21-60"":26,""61-240"":28,"">240"":21}",10827.0,41.585869,-71.45889100000001,621111.0,RI,44.0,44009.0,Washington County,440090501022.0
40675,sg:619f9afdfbb241c5808fbb6b8e6af7bd,D Palmieri's Bakery,RI,2019-03-01T00:00:00-05:00,2019-04-01T00:00:00-04:00,2919,268,11.0,"{""<5"":16,""5-20"":160,""21-60"":44,""61-240"":14,"">240"":34}",14089.0,41.828801,-71.473062,722511.0,RI,44.0,44007.0,Providence County,440070124013.0
40872,sg:72ed1e1199b74dc1b3002565813e6105,The Children's Workshop,RI,2019-03-01T00:00:00-05:00,2019-04-01T00:00:00-04:00,2885,4,239.0,"{""<5"":0,""5-20"":1,""21-60"":1,""61-240"":0,"">240"":2}",533.0,41.729763,-71.267742,624410.0,RI,44.0,44001.0,Bristol County,440010306011.0
42248,sg:fef902ca79f64b3286d4e83d1a4322c9,Uncle Sushi & Grill,RI,2019-03-01T00:00:00-05:00,2019-04-01T00:00:00-04:00,2910,372,20.0,"{""<5"":17,""5-20"":179,""21-60"":97,""61-240"":43,"">240"":36}",21320.0,41.783145000000005,-71.438237,722511.0,RI,44.0,44007.0,Providence County,440070140001.0
42693,sg:2ae7518fc5fd42058d7b9d3f74f28ef7,Sunset Cafe,RI,2019-03-01T00:00:00-05:00,2019-04-01T00:00:00-04:00,2809,258,47.0,"{""<5"":8,""5-20"":69,""21-60"":77,""61-240"":67,"">240"":37}",22964.5,41.670891,-71.276885,722515.0,RI,44.0,44001.0,Bristol County,440010307004.0
42728,sg:2e6f09be88804df2867c0363ba494395,HUB International,RI,2019-03-01T00:00:00-05:00,2019-04-01T00:00:00-04:00,2886,97,85.0,"{""<5"":3,""5-20"":20,""21-60"":19,""61-240"":30,"">240"":25}",11542.0,41.711240999999994,-71.470332,524210.0,RI,44.0,44003.0,Kent County,440030221003.0
42732,sg:2eacf2097ce848a9afd649bb08543615,McDonald's,RI,2019-03-01T00:00:00-05:00,2019-04-01T00:00:00-04:00,2904,591,8.0,"{""<5"":50,""5-20"":445,""21-60"":74,""61-240"":15,"">240"":7}",12622.0,41.853408,-71.42871,722513.0,RI,44.0,44007.0,Providence County,440070027001.0
42917,sg:3e00cb9d6f4346db86ffbbf73a557a3f,D & H Collision Center,RI,2019-03-01T00:00:00-05:00,2019-04-01T00:00:00-04:00,2888,5,10.0,"{""<5"":1,""5-20"":2,""21-60"":0,""61-240"":1,"">240"":1}",418.0,41.759138,-71.424961,811121.0,RI,44.0,44003.0,Kent County,440030211001.0
43211,sg:58818cbbb3694829ab383d2cfde0de18,Autoland,RI,2019-03-01T00:00:00-05:00,2019-04-01T00:00:00-04:00,2816,76,33.0,"{""<5"":2,""5-20"":32,""21-60"":7,""61-240"":21,"">240"":14}",7209.0,41.684225,-71.556793,441120.0,RI,44.0,44003.0,Kent County,440030206021.0
43328,sg:6406accd045e475692043b23c371a409,Blackstone Valley Prep E 2,RI,2019-03-01T00:00:00-05:00,2019-04-01T00:00:00-04:00,2864,112,425.0,"{""<5"":1,""5-20"":9,""21-60"":9,""61-240"":12,"">240"":81}",21725.5,41.905687,-71.387558,611110.0,RI,44.0,44007.0,Providence County,440070112002.0
43493,sg:722e847a43b84abdb1a1bca5ed9a847c,Seaplane Diner,RI,2019-03-01T00:00:00-05:00,2019-04-01T00:00:00-04:00,2905,341,30.0,"{""<5"":6,""5-20"":119,""21-60"":136,""61-240"":54,"">240"":26}",21377.5,41.804721,-71.402426,722511.0,RI,44.0,44007.0,Providence County,440070006001.0
43494,sg:722fc49f68b644509c65c62868180192,MacDonald Malcom,RI,2019-03-01T00:00:00-05:00,2019-04-01T00:00:00-04:00,2837,2,7.5,"{""<5"":0,""5-20"":2,""21-60"":0,""61-240"":0,"">240"":0}",25.0,41.552294,-71.133395,621111.0,RI,44.0,44005.0,Newport County,440050414002.0
43840,sg:923ed81133e84514a1682732df713638,Alibi Cafe,RI,2019-03-01T00:00:00-05:00,2019-04-01T00:00:00-04:00,2903,58,25.5,"{""<5"":0,""5-20"":23,""21-60"":14,""61-240"":17,"">240"":4}",4373.0,41.817899,-71.410895,722511.0,RI,44.0,44007.0,Providence County,440070006001.0
43898,sg:96dfc2d46c554d69b545ac7ec862b46e,Glacier Ice,RI,2019-03-01T00:00:00-05:00,2019-04-01T00:00:00-04:00,2885,6,237.5,"{""<5"":0,""5-20"":1,""21-60"":0,""61-240"":2,"">240"":3}",1033.5,41.733243,-71.27409399999999,722515.0,RI,44.0,44001.0,Bristol County,440010305001.0
44471,sg:cdd4be1c65384d20a8e3d48af9236ddd,Peter U Wolff DMD,RI,2019-03-01T00:00:00-05:00,2019-04-01T00:00:00-04:00,2818,28,48.5,"{""<5"":1,""5-20"":11,""21-60"":5,""61-240"":3,"">240"":8}",2714.0,41.626265000000004,-71.49215,621210.0,RI,44.0,44003.0,Kent County,440030209032.0
45167,sg:0fba08c138554bb2ae4f5f61f6edb983,Cambio Auto Sales,RI,2019-03-01T00:00:00-05:00,2019-04-01T00:00:00-04:00,2909,1,240.0,"{""<5"":0,""5-20"":0,""21-60"":0,""61-240"":1,"">240"":0}",150.5,41.812784,-71.459389,,RI,44.0,44007.0,Providence County,440070018005.0
45369,sg:21ecb1661bec43df9b2ea082b1573297,Valley Country Club,RI,2019-03-01T00:00:00-05:00,2019-04-01T00:00:00-04:00,2886,675,45.0,"{""<5"":21,""5-20"":223,""21-60"":130,""61-240"":208,"">240"":93}",61729.0,41.702158000000004,-71.510181,713910.0,RI,44.0,44003.0,Kent County,440030223001.0
45709,sg:4228066fc5914d889b684c1f73a07066,Valvoline,RI,2019-03-01T00:00:00-05:00,2019-04-01T00:00:00-04:00,2919,132,36.0,"{""<5"":2,""5-20"":41,""21-60"":45,""61-240"":25,"">240"":19}",10662.5,41.865424,-71.498257,811198.0,RI,44.0,44007.0,Providence County,440070123001.0
45812,sg:4aff3ead55e140d997f7be5078870efc,Rite Aid,RI,2019-03-01T00:00:00-05:00,2019-04-01T00:00:00-04:00,2904,149,10.0,"{""<5"":13,""5-20"":88,""21-60"":17,""61-240"":14,"">240"":17}",8008.0,41.850299,-71.420558,446110.0,RI,44.0,44007.0,Providence County,440070029004.0
46232,sg:7373a8bd26ec4ec4ab68bae58020fe23,Lawrence D Page DDS,RI,2019-03-01T00:00:00-05:00,2019-04-01T00:00:00-04:00,2906,22,155.0,"{""<5"":0,""5-20"":8,""21-60"":2,""61-240"":3,"">240"":9}",2792.5,41.841007,-71.386703,621210.0,RI,44.0,44007.0,Providence County,440070034002.0
46245,sg:748d1ee4275d4b658f5296790aab754f,Property Masters,RI,2019-03-01T00:00:00-05:00,2019-04-01T00:00:00-04:00,2895,26,53.5,"{""<5"":3,""5-20"":5,""21-60"":7,""61-240"":3,"">240"":8}",2725.0,42.002206,-71.502,522110.0,RI,44.0,44007.0,Providence County,440070179001.0
46680,sg:9ce784d0f42b41cbb61b90a59dde61a8,Artistic Holistics,RI,2019-03-01T00:00:00-05:00,2019-04-01T00:00:00-04:00,2888,2,118.0,"{""<5"":0,""5-20"":1,""21-60"":0,""61-240"":1,"">240"":0}",163.0,41.746964,-71.40572900000001,621330.0,RI,44.0,44003.0,Kent County,440030212001.0
48160,sg:2c166622de574b4391b83337d8ad51f7,South Kingstown Dog Park,RI,2019-03-01T00:00:00-05:00,2019-04-01T00:00:00-04:00,2879,620,44.0,"{""<5"":4,""5-20"":148,""21-60"":248,""61-240"":214,"">240"":6}",45551.0,41.45228,-71.481829,712190.0,RI,44.0,44009.0,Washington County,440090512024.0
48275,sg:35d4e4302f9b40878eb0f529eaf74438,Brookdale,RI,2019-03-01T00:00:00-05:00,2019-04-01T00:00:00-04:00,2889,89,64.0,"{""<5"":2,""5-20"":19,""21-60"":21,""61-240"":28,"">240"":19}",9867.0,41.703924,-71.4225,623110.0,RI,44.0,44003.0,Kent County,440030219022.0
48685,sg:5c0b60459b2f48b4b04fab3d52477db0,Sunshine Creamery,RI,2019-03-01T00:00:00-05:00,2019-04-01T00:00:00-04:00,2916,100,47.0,"{""<5"":8,""5-20"":35,""21-60"":8,""61-240"":29,"">240"":20}",9946.0,41.833037,-71.360782,722515.0,RI,44.0,44007.0,Providence County,440070102001.0
49066,sg:7f37cb2392ba42a3b3a76d2fba987c3a,The Aesthetic Dental Studio of RI,RI,2019-03-01T00:00:00-05:00,2019-04-01T00:00:00-04:00,2911,160,161.0,"{""<5"":2,""5-20"":24,""21-60"":26,""61-240"":41,"">240"":67}",23608.5,41.858534000000006,-71.478871,621210.0,RI,44.0,44007.0,Providence County,440070121041.0
49434,sg:a318a9faad9446ca8fd07ac8b648821f,Manton Liquors,RI,2019-03-01T00:00:00-05:00,2019-04-01T00:00:00-04:00,2909,125,61.0,"{""<5"":4,""5-20"":40,""21-60"":18,""61-240"":35,"">240"":28}",13226.5,41.823402,-71.45151899999999,445310.0,RI,44.0,44007.0,Providence County,440070019003.0
49695,sg:bcc19e9895844421ac9ee10fdc65e75d,Culinary Art Museum And Archives,RI,2019-03-01T00:00:00-05:00,2019-04-01T00:00:00-04:00,2903,2268,79.0,"{""<5"":25,""5-20"":464,""21-60"":453,""61-240"":1114,"">240"":212}",242746.0,41.819894,-71.412757,712110.0,RI,44.0,44007.0,Providence County,440070008003.0
49807,sg:c7c61292cc384347bc57433fe8e6662f,Grandma's Library Little Free Library Charter 34034,RI,2019-03-01T00:00:00-05:00,2019-04-01T00:00:00-04:00,2864,16,100.5,"{""<5"":1,""5-20"":6,""21-60"":1,""61-240"":1,"">240"":7}",1948.5,41.949141,-71.397584,451211.0,RI,44.0,44007.0,Providence County,440070114012.0
50004,sg:dadf15207b0547f2b9694bc1e6bdc8be,Final Gift Cremation Service,RI,2019-03-01T00:00:00-05:00,2019-04-01T00:00:00-04:00,2921,171,73.0,"{""<5"":4,""5-20"":51,""21-60"":28,""61-240"":49,"">240"":39}",18516.0,41.783953000000004,-71.52348,812910.0,RI,44.0,44007.0,Providence County,440070146002.0
50490,sg:0a6ecf7a5c654968bbc9a28eb948a39f,Advance Auto Parts,RI,2019-03-01T00:00:00-05:00,2019-04-01T00:00:00-04:00,2919,110,9.0,"{""<5"":9,""5-20"":77,""21-60"":13,""61-240"":4,"">240"":7}",3793.5,41.859071,-71.48850300000001,441310.0,RI,44.0,44007.0,Providence County,440070123001.0
50582,sg:13ba6bd35b4d4ecdba84231946a21838,Jeffrey B Shapiro DMD,RI,2019-03-01T00:00:00-05:00,2019-04-01T00:00:00-04:00,2906,10,26.0,"{""<5"":0,""5-20"":5,""21-60"":2,""61-240"":2,"">240"":1}",684.5,41.827228999999996,-71.393668,621210.0,RI,44.0,44007.0,Providence County,440070036012.0
50648,sg:19e196efd5b84784827119c8410d9b07,Concordia Center for Spiritual Living,RI,2019-03-01T00:00:00-05:00,2019-04-01T00:00:00-04:00,2889,35,56.0,"{""<5"":0,""5-20"":7,""21-60"":12,""61-240"":14,"">240"":2}",3160.5,41.73105,-71.396731,813110.0,RI,44.0,44003.0,Kent County,440030213002.0
51002,sg:39a0bbf078544b10b88525ca72a29256,Massautowerks,RI,2019-03-01T00:00:00-05:00,2019-04-01T00:00:00-04:00,2895,31,46.0,"{""<5"":0,""5-20"":8,""21-60"":10,""61-240"":10,"">240"":3}",2730.0,42.006409000000005,-71.516014,811111.0,RI,44.0,44007.0,Providence County,440070180002.0
51070,sg:3fd3b8f5528642269c24b6b06b6bf55a,Eddy Tires Sales,RI,2019-03-01T00:00:00-05:00,2019-04-01T00:00:00-04:00,2920,106,132.0,"{""<5"":1,""5-20"":23,""21-60"":15,""61-240"":31,"">240"":36}",14203.0,41.801486,-71.444351,441310.0,RI,44.0,44007.0,Providence County,440070141003.0
51521,sg:6c847c34c88145a588888de2ed4d5295,Walker Farm Kayak Rental,RI,2019-03-01T00:00:00-05:00,2019-04-01T00:00:00-04:00,2806,18,19.5,"{""<5"":1,""5-20"":8,""21-60"":9,""61-240"":0,"">240"":0}",467.0,41.753415999999994,-71.32206,336999.0,RI,44.0,44001.0,Bristol County,440010302001.0
51846,sg:8d868754064f431a97c1fe45fe734905,Liberty Lunch,RI,2019-03-01T00:00:00-05:00,2019-04-01T00:00:00-04:00,2861,226,11.0,"{""<5"":8,""5-20"":124,""21-60"":64,""61-240"":13,"">240"":17}",10198.5,41.887912,-71.354858,722511.0,RI,44.0,44007.0,Providence County,440070156002.0
51881,sg:912b4bf227a2444189dbf654d2069730,Vendata Society of Providence,RI,2019-03-01T00:00:00-05:00,2019-04-01T00:00:00-04:00,2906,107,59.0,"{""<5"":0,""5-20"":27,""21-60"":28,""61-240"":37,"">240"":15}",10640.0,41.828117,-71.398424,813110.0,RI,44.0,44007.0,Providence County,440070036011.0
51938,sg:96dc8c6b5c4e49df85fed3a3f6754eb8,Moe's Southwest Grill,RI,2019-03-01T00:00:00-05:00,2019-04-01T00:00:00-04:00,2886,13,7.0,"{""<5"":1,""5-20"":9,""21-60"":0,""61-240"":3,"">240"":0}",566.5,41.686036,-71.498409,722511.0,RI,44.0,44003.0,Kent County,440030222022.0
53144,sg:0c46523b61be4777b5112b564c42a632,Eden Park School,RI,2019-03-01T00:00:00-05:00,2019-04-01T00:00:00-04:00,2910,131,20.0,"{""<5"":1,""5-20"":65,""21-60"":23,""61-240"":25,"">240"":17}",9589.0,41.772403000000004,-71.446072,611110.0,RI,44.0,44007.0,Providence County,440070137023.0
53770,sg:4467eea3ea964b73902c3075210f5681,Papi's Tacos,RI,2019-03-01T00:00:00-05:00,2019-04-01T00:00:00-04:00,2889,79,34.0,"{""<5"":0,""5-20"":26,""21-60"":26,""61-240"":23,"">240"":4}",5799.5,41.724138,-71.382548,722511.0,RI,44.0,44003.0,Kent County,440030215011.0
53806,sg:476ea91a5ac24515b556c360d5077e36,Sandy Lane Auto Sales & Repairs,RI,2019-03-01T00:00:00-05:00,2019-04-01T00:00:00-04:00,2889,24,37.0,"{""<5"":0,""5-20"":11,""21-60"":7,""61-240"":2,"">240"":4}",1682.0,41.704776,-71.418227,441120.0,RI,44.0,44003.0,Kent County,440030219031.0
54023,sg:5bd1fa20a730401dba99beda14bb35cf,Sakonnet Greenway Trail,RI,2019-03-01T00:00:00-05:00,2019-04-01T00:00:00-04:00,2832,20,26.5,"{""<5"":0,""5-20"":8,""21-60"":8,""61-240"":4,"">240"":0}",1026.0,41.541034,-71.696512,712190.0,RI,44.0,44009.0,Washington County,440090507001.0
54462,sg:84d70d937aa049eeb2959d2c53f0a89d,Dialysis Center Of Pawtucket,RI,2019-03-01T00:00:00-05:00,2019-04-01T00:00:00-04:00,2860,61,22.0,"{""<5"":0,""5-20"":29,""21-60"":14,""61-240"":15,"">240"":3}",3907.0,41.87975,-71.368375,621492.0,RI,44.0,44007.0,Providence County,440070171002.0
54837,sg:a78d909083e14ad2ad7e630263341901,Verizon Wireless,RI,2019-03-01T00:00:00-05:00,2019-04-01T00:00:00-04:00,2852,104,31.5,"{""<5"":1,""5-20"":38,""21-60"":29,""61-240"":16,"">240"":20}",8860.0,41.581185999999995,-71.500341,517312.0,RI,44.0,44009.0,Washington County,440090503011.0
55100,sg:c247e8921f4b4e98afa5ab9f3e12a3c8,3 Amigos Taqueria,RI,2019-03-01T00:00:00-05:00,2019-04-01T00:00:00-04:00,2863,150,23.0,"{""<5"":2,""5-20"":67,""21-60"":42,""61-240"":27,"">240"":12}",9487.0,41.887189,-71.39726800000001,722511.0,RI,44.0,44007.0,Providence County,440070110003.0
55710,sg:ff305bdb56184ac38531878e7f8d5e3d,Coventry Pines Country Club,RI,2019-03-01T00:00:00-05:00,2019-04-01T00:00:00-04:00,2816,56,31.5,"{""<5"":2,""5-20"":22,""21-60"":10,""61-240"":17,"">240"":5}",4443.5,41.669672,-71.630027,713910.0,RI,44.0,44003.0,Kent County,440030207022.0
55912,sg:124c6ee3931d461cb55d6a2b83944015,Iggy's Doughboys & Chowder House,RI,2019-03-01T00:00:00-05:00,2019-04-01T00:00:00-04:00,2889,323,30.0,"{""<5"":4,""5-20"":112,""21-60"":156,""61-240"":46,"">240"":5}",15851.0,41.684506,-71.398025,722511.0,RI,44.0,44003.0,Kent County,440030217002.0
56215,sg:3152ed8ab8f8448e85e5fd78128b78ec,Depetrillo's Pizza & Bakery,RI,2019-03-01T00:00:00-05:00,2019-04-01T00:00:00-04:00,2889,158,59.0,"{""<5"":4,""5-20"":36,""21-60"":41,""61-240"":59,"">240"":18}",15320.0,41.729341,-71.406565,722511.0,RI,44.0,44003.0,Kent County,440030214013.0
56876,sg:753f2a2af4d7443a972158f2ee433859,Murphy's Providence,RI,2019-03-01T00:00:00-05:00,2019-04-01T00:00:00-04:00,2903,355,60.0,"{""<5"":5,""5-20"":73,""21-60"":101,""61-240"":132,"">240"":44}",35441.5,41.823423999999996,-71.415705,722511.0,RI,44.0,44007.0,Providence County,440070008001.0
56920,sg:79050ad68a5f4b5eb6dcc78b5aa9987d,CVS,RI,2019-03-01T00:00:00-05:00,2019-04-01T00:00:00-04:00,2863,291,9.0,"{""<5"":18,""5-20"":207,""21-60"":31,""61-240"":15,"">240"":20}",10945.5,41.883686,-71.38656,446110.0,RI,44.0,44007.0,Providence County,440070108001.0
57005,sg:80c2d6fe293f4f779f96de9c5e9de0f3,First Baptist Church of Pawt,RI,2019-03-01T00:00:00-05:00,2019-04-01T00:00:00-04:00,2907,10,86.5,"{""<5"":1,""5-20"":2,""21-60"":0,""61-240"":7,"">240"":0}",1081.0,41.79138,-71.428021,813110.0,RI,44.0,44007.0,Providence County,440070015002.0
57130,sg:8cf94bbaf37e46bfb410fe63f1d4b1df,International Pocket Cafe Kingston,RI,2019-03-01T00:00:00-05:00,2019-04-01T00:00:00-04:00,2881,89,11.0,"{""<5"":4,""5-20"":61,""21-60"":23,""61-240"":1,"">240"":0}",1854.5,41.485749,-71.52439,722511.0,RI,44.0,44009.0,Washington County,440090514001.0
57226,sg:947373fd91c34ed6bd0ad7f3eb8c2343,Golden House,RI,2019-03-01T00:00:00-05:00,2019-04-01T00:00:00-04:00,2914,94,27.5,"{""<5"":1,""5-20"":39,""21-60"":23,""61-240"":21,"">240"":10}",6982.0,41.811598,-71.361866,722511.0,RI,44.0,44007.0,Providence County,440070105012.0
57467,sg:acdac4ec53924109b92e61f4563d130c,Dunkin',RI,2019-03-01T00:00:00-05:00,2019-04-01T00:00:00-04:00,2920,607,19.0,"{""<5"":13,""5-20"":323,""21-60"":218,""61-240"":37,"">240"":16}",22307.5,41.754731,-71.461167,722515.0,RI,44.0,44007.0,Providence County,440070142002.0
57669,sg:c067a9b1bb3649e3971c2722db413749,Pointview Marina,RI,2019-03-01T00:00:00-05:00,2019-04-01T00:00:00-04:00,2879,36,41.0,"{""<5"":0,""5-20"":11,""21-60"":9,""61-240"":15,"">240"":1}",2999.5,41.388521000000004,-71.51769,441222.0,RI,44.0,44009.0,Washington County,440090513026.0
57829,sg:cf10227ce55c4cbb8cb094d17055c5e6,WellOne Primary Medical & Dental Care,RI,2019-03-01T00:00:00-05:00,2019-04-01T00:00:00-04:00,2859,59,44.0,"{""<5"":3,""5-20"":17,""21-60"":16,""61-240"":15,"">240"":8}",5045.5,41.956802,-71.702402,621330.0,RI,44.0,44007.0,Providence County,440070129004.0
58414,sg:07452329ae1b4a7dbefa66b16147097a,Tritan Systems LLC,RI,2019-03-01T00:00:00-05:00,2019-04-01T00:00:00-04:00,2910,93,91.0,"{""<5"":2,""5-20"":22,""21-60"":15,""61-240"":27,"">240"":27}",11431.0,41.780833,-71.45040999999999,443142.0,RI,44.0,44007.0,Providence County,440070140004.0
58622,sg:1a8a959a3fd248f28e5c7cd73577831b,Lees Chinese Restaurant & Lounge,RI,2019-03-01T00:00:00-05:00,2019-04-01T00:00:00-04:00,2915,211,49.0,"{""<5"":0,""5-20"":59,""21-60"":62,""61-240"":51,"">240"":39}",20284.0,41.768786999999996,-71.360879,722511.0,RI,44.0,44007.0,Providence County,440070106006.0
59488,sg:6f85858898d2486e85a6b68d4743347a,Ryder,RI,2019-03-01T00:00:00-05:00,2019-04-01T00:00:00-04:00,2888,186,15.5,"{""<5"":3,""5-20"":101,""21-60"":25,""61-240"":30,"">240"":27}",13277.5,41.756693,-71.43815,532120.0,RI,44.0,44003.0,Kent County,440030211002.0
59539,sg:7562271b05c4429aac4fe0e2ced9598f,The Barn,RI,2019-03-01T00:00:00-05:00,2019-04-01T00:00:00-04:00,2801,134,43.0,"{""<5"":2,""5-20"":24,""21-60"":65,""61-240"":22,"">240"":21}",11288.5,41.554536999999996,-71.12858100000001,722511.0,RI,44.0,44005.0,Newport County,440050414002.0
60516,sg:d367f53d7a2e434baf39d6962afaaa0c,Johnston Acupuncture Clinic,RI,2019-03-01T00:00:00-05:00,2019-04-01T00:00:00-04:00,2919,21,30.0,"{""<5"":0,""5-20"":8,""21-60"":9,""61-240"":3,"">240"":1}",1156.0,41.823584999999994,-71.49585,621111.0,RI,44.0,44007.0,Providence County,440070124014.0
61011,sg:03a7b6cbd27f48cfb026feac88fe483d,West Warwick Fire Department Station 1 Headquarters,RI,2019-03-01T00:00:00-05:00,2019-04-01T00:00:00-04:00,2893,37,83.0,"{""<5"":1,""5-20"":8,""21-60"":8,""61-240"":13,"">240"":7}",4063.0,41.706540000000004,-71.522786,922160.0,RI,44.0,44003.0,Kent County,440030203003.0
61255,sg:179d1cb9329b4c6e83272a2e20643b91,Hair Designs,RI,2019-03-01T00:00:00-05:00,2019-04-01T00:00:00-04:00,2886,6,12.0,"{""<5"":0,""5-20"":5,""21-60"":1,""61-240"":0,"">240"":0}",103.0,41.722121,-71.441643,812112.0,RI,44.0,44003.0,Kent County,440030211004.0
61344,sg:215e6619b16b4e0bacc9b6ce3dbd23e2,L'atelier Hair Salon,RI,2019-03-01T00:00:00-05:00,2019-04-01T00:00:00-04:00,2885,3,272.0,"{""<5"":0,""5-20"":1,""21-60"":0,""61-240"":0,"">240"":2}",492.5,41.729704999999996,-71.278852,812112.0,RI,44.0,44001.0,Bristol County,440010305002.0
61649,sg:3bebd51d8b7d413ba576aacf42dddf2a,Petro Home Services,RI,2019-03-01T00:00:00-05:00,2019-04-01T00:00:00-04:00,2895,18,13.0,"{""<5"":1,""5-20"":9,""21-60"":5,""61-240"":3,"">240"":0}",769.0,42.009027,-71.529609,221210.0,RI,44.0,44007.0,Providence County,440070174001.0
62262,sg:70780cd2eac944f7818872f3375ac04e,Universe Bar & Cafe,RI,2019-03-01T00:00:00-05:00,2019-04-01T00:00:00-04:00,2904,127,41.0,"{""<5"":1,""5-20"":42,""21-60"":44,""61-240"":33,"">240"":7}",8956.0,41.869026,-71.423787,722511.0,RI,44.0,44007.0,Providence County,440070118001.0
62569,sg:8d02d428e05c4f4f88fec7f72459ae53,Advance America Cash Advance Center,RI,2019-03-01T00:00:00-05:00,2019-04-01T00:00:00-04:00,2919,17,9.0,"{""<5"":0,""5-20"":12,""21-60"":4,""61-240"":1,"">240"":0}",462.5,41.825585,-71.499976,522291.0,RI,44.0,44007.0,Providence County,440070124014.0
63031,sg:b71f5bd32cf742dcafdc516e83c62521,White Dog Distilling,RI,2019-03-01T00:00:00-05:00,2019-04-01T00:00:00-04:00,2860,4,157.0,"{""<5"":0,""5-20"":1,""21-60"":0,""61-240"":2,"">240"":1}",553.5,41.872713,-71.407493,722515.0,RI,44.0,44007.0,Providence County,440070163001.0
63040,sg:b82b2eb234ff49c4b0348de95ceb90d5,Magniventris,RI,2019-03-01T00:00:00-05:00,2019-04-01T00:00:00-04:00,2905,147,42.0,"{""<5"":3,""5-20"":48,""21-60"":29,""61-240"":41,"">240"":26}",14192.5,41.787158000000005,-71.39695,448140.0,RI,44.0,44007.0,Providence County,440070001013.0
63247,sg:cb4c659565974e8e983503bc2219b6b8,Caribe Super Market,RI,2019-03-01T00:00:00-05:00,2019-04-01T00:00:00-04:00,2904,434,30.5,"{""<5"":15,""5-20"":167,""21-60"":93,""61-240"":105,"">240"":54}",34654.0,41.853419,-71.420053,445110.0,RI,44.0,44007.0,Providence County,440070029002.0
63546,sg:e7b2753e11fb40b096190ddb42fd9751,United Brothers Synagogue,RI,2019-03-01T00:00:00-05:00,2019-04-01T00:00:00-04:00,2809,6,28.5,"{""<5"":0,""5-20"":3,""21-60"":3,""61-240"":0,"">240"":0}",159.0,41.668913,-71.273425,813110.0,RI,44.0,44001.0,Bristol County,440010307004.0
63803,sg:015c7e51eaf442ba903261833d91fd31,Little Caesars,RI,2019-03-01T00:00:00-05:00,2019-04-01T00:00:00-04:00,2910,127,43.0,"{""<5"":4,""5-20"":51,""21-60"":14,""61-240"":21,"">240"":37}",13255.0,41.779422,-71.444193,722513.0,RI,44.0,44007.0,Providence County,440070140005.0
63983,sg:0efea47f828f4a1dbcfa84209db582fe,McCarthy's Auto Repair & Service,RI,2019-03-01T00:00:00-05:00,2019-04-01T00:00:00-04:00,2809,2,506.5,"{""<5"":0,""5-20"":0,""21-60"":1,""61-240"":0,"">240"":1}",280.5,41.674189,-71.259507,811111.0,RI,44.0,44001.0,Bristol County,440010308001.0
64133,sg:1d8e1846f6b74732a0178824c4e58757,BrewGrindz,RI,2019-03-01T00:00:00-05:00,2019-04-01T00:00:00-04:00,2904,211,19.0,"{""<5"":15,""5-20"":93,""21-60"":61,""61-240"":31,"">240"":11}",10976.0,41.862372,-71.45841,722515.0,RI,44.0,44007.0,Providence County,440070119021.0
64445,sg:3bcde52faf3e489b9f539f32eb259d3f,Wendy's,RI,2019-03-01T00:00:00-05:00,2019-04-01T00:00:00-04:00,2852,353,9.0,"{""<5"":23,""5-20"":242,""21-60"":59,""61-240"":16,"">240"":13}",11000.0,41.631214,-71.468968,722513.0,RI,44.0,44009.0,Washington County,440090501035.0
64982,sg:6bf10d5bcac64968ad17f6834616ae6a,Happy Garden,RI,2019-03-01T00:00:00-05:00,2019-04-01T00:00:00-04:00,2888,1,10.0,"{""<5"":0,""5-20"":1,""21-60"":0,""61-240"":0,"">240"":0}",12.5,41.741981,-71.406599,722511.0,RI,44.0,44003.0,Kent County,440030213004.0
65337,sg:8b09c87db1954986bb9487e53726d25c,The Chicken Coop on Smith Hill,RI,2019-03-01T00:00:00-05:00,2019-04-01T00:00:00-04:00,2908,151,97.0,"{""<5"":2,""5-20"":48,""21-60"":19,""61-240"":37,"">240"":45}",17743.0,41.834876,-71.42435400000001,722511.0,RI,44.0,44007.0,Providence County,440070026001.0
65525,sg:9bf4e0cccb274b639b8b84de51618f89,Dunkin',RI,2019-03-01T00:00:00-05:00,2019-04-01T00:00:00-04:00,2874,285,7.0,"{""<5"":24,""5-20"":199,""21-60"":30,""61-240"":20,"">240"":12}",9652.5,41.494968,-71.457321,722515.0,RI,44.0,44009.0,Washington County,440090513051.0
65920,sg:c19fd4d5fb7247409270b929580de59d,Smithfield Dental Associates,RI,2019-03-01T00:00:00-05:00,2019-04-01T00:00:00-04:00,2917,18,323.0,"{""<5"":0,""5-20"":0,""21-60"":0,""61-240"":3,"">240"":15}",4051.5,41.865029,-71.532985,621210.0,RI,44.0,44007.0,Providence County,440070127021.0
66185,sg:dc7283ec2b814c519fa8fceece8867ce,Providence Country Day School,RI,2019-03-01T00:00:00-05:00,2019-04-01T00:00:00-04:00,2914,725,40.0,"{""<5"":14,""5-20"":239,""21-60"":173,""61-240"":234,"">240"":65}",60846.0,41.816731,-71.354381,611110.0,RI,44.0,44007.0,Providence County,440070103002.0
66866,sg:1a812176c4614fe3ad93a8a12cb0f6e1,South County Nursing and Subacute Center,RI,2019-03-01T00:00:00-05:00,2019-04-01T00:00:00-04:00,2852,40,243.0,"{""<5"":0,""5-20"":3,""21-60"":5,""61-240"":12,"">240"":20}",6846.0,41.558822,-71.487905,621340.0,RI,44.0,44009.0,Washington County,440090503013.0
67310,sg:3eac9d1b77d64dc4a37c3ccf07f0cdd2,Shell Oil,RI,2019-03-01T00:00:00-05:00,2019-04-01T00:00:00-04:00,2905,98,7.0,"{""<5"":14,""5-20"":62,""21-60"":15,""61-240"":5,"">240"":2}",2650.0,41.786184999999996,-71.39474200000001,447110.0,RI,44.0,44007.0,Providence County,440070001011.0
67616,sg:59a4b39d412e4be49036add5e1b5142a,Slate Hill Park,RI,2019-03-01T00:00:00-05:00,2019-04-01T00:00:00-04:00,2920,198,60.5,"{""<5"":3,""5-20"":63,""21-60"":33,""61-240"":72,"">240"":27}",19447.5,41.756726,-71.463042,712190.0,RI,44.0,44007.0,Providence County,440070144001.0
68730,sg:c747d50dcdad444bab583656c4b2395b,Smithfield High School,RI,2019-03-01T00:00:00-05:00,2019-04-01T00:00:00-04:00,2917,1543,220.0,"{""<5"":8,""5-20"":185,""21-60"":189,""61-240"":426,"">240"":735}",250500.0,41.880657,-71.543948,611110.0,RI,44.0,44007.0,Providence County,440070127013.0
69396,sg:05e6889283c14b15bf19b817bb72a188,Bonetown Burgers & BBQ,RI,2019-03-01T00:00:00-05:00,2019-04-01T00:00:00-04:00,2920,110,56.5,"{""<5"":1,""5-20"":16,""21-60"":40,""61-240"":27,"">240"":26}",12126.0,41.78241,-71.466747,722511.0,RI,44.0,44007.0,Providence County,440070147005.0
69853,sg:2d6711eaa3a64aac96569a1024d15d01,Kingston Congregational Church,RI,2019-03-01T00:00:00-05:00,2019-04-01T00:00:00-04:00,2881,127,40.0,"{""<5"":2,""5-20"":39,""21-60"":34,""61-240"":40,"">240"":12}",10769.5,41.480059999999995,-71.525512,813110.0,RI,44.0,44009.0,Washington County,440090513063.0
69995,sg:3a5b3a05ed584d5b9617d28956b87b6f,Bay Marina,RI,2019-03-01T00:00:00-05:00,2019-04-01T00:00:00-04:00,2889,7,11.0,"{""<5"":1,""5-20"":5,""21-60"":1,""61-240"":0,"">240"":0}",105.5,41.698153000000005,-71.38810500000001,441222.0,RI,44.0,44003.0,Kent County,440030217001.0
70175,sg:48bbaa8444844dcb84ec6e090a96a87f,YMCA,RI,2019-03-01T00:00:00-05:00,2019-04-01T00:00:00-04:00,2816,4,71.0,"{""<5"":0,""5-20"":0,""21-60"":1,""61-240"":2,"">240"":1}",581.5,41.679024,-71.671625,624190.0,RI,44.0,44003.0,Kent County,440030207022.0
70226,sg:4bed263254494b708e71e821dac6bf6c,Jeff Allen's Latin and Ballroom Dance Studio,RI,2019-03-01T00:00:00-05:00,2019-04-01T00:00:00-04:00,2920,126,31.5,"{""<5"":2,""5-20"":49,""21-60"":43,""61-240"":25,"">240"":7}",7801.5,41.784886,-71.473382,713940.0,RI,44.0,44007.0,Providence County,440070148003.0
70356,sg:58cb52622ebd4cc79ad069f39fa4c0a5,Oop,RI,2019-03-01T00:00:00-05:00,2019-04-01T00:00:00-04:00,2906,110,45.0,"{""<5"":2,""5-20"":25,""21-60"":33,""61-240"":27,"">240"":23}",11237.5,41.827464,-71.39263100000001,452319.0,RI,44.0,44007.0,Providence County,440070036012.0
70395,sg:5c7a19dacad7496e92c0c0a81c15f9dc,Cranston Fire Department Station 2,RI,2019-03-01T00:00:00-05:00,2019-04-01T00:00:00-04:00,2910,325,61.0,"{""<5"":8,""5-20"":93,""21-60"":61,""61-240"":94,"">240"":69}",34360.0,41.779683,-71.43509399999999,922160.0,RI,44.0,44007.0,Providence County,440070140001.0
70565,sg:6cc36a6a86a64b28b3fc9a8f7bbbaf0a,Wally's Tap House,RI,2019-03-01T00:00:00-05:00,2019-04-01T00:00:00-04:00,2878,149,51.0,"{""<5"":4,""5-20"":39,""21-60"":40,""61-240"":50,"">240"":16}",13482.5,41.624887,-71.146982,722511.0,RI,44.0,44005.0,Newport County,440050417021.0
70975,sg:91eec752a4b8422687ba342f03f8362c,1 Alpha And Omega Cleaning Services,RI,2019-03-01T00:00:00-05:00,2019-04-01T00:00:00-04:00,2886,293,70.0,"{""<5"":14,""5-20"":76,""21-60"":48,""61-240"":87,"">240"":68}",32342.5,41.720009999999995,-71.47284300000001,561740.0,RI,44.0,44003.0,Kent County,440030223003.0
71153,sg:a3409a431fa34dcba83d5ef9431fc86a,Olympic Physical Therapy & Foot Orthotics,RI,2019-03-01T00:00:00-05:00,2019-04-01T00:00:00-04:00,2809,4,11.5,"{""<5"":0,""5-20"":3,""21-60"":0,""61-240"":1,"">240"":0}",188.0,41.670056,-71.27620999999999,446199.0,RI,44.0,44001.0,Bristol County,440010307004.0
71220,sg:a9c4aef88b2a46ca986489e2a0060d30,Ardente Supply Co Inc,RI,2019-03-01T00:00:00-05:00,2019-04-01T00:00:00-04:00,2908,330,39.5,"{""<5"":4,""5-20"":119,""21-60"":75,""61-240"":77,"">240"":55}",29323.5,41.827901000000004,-71.436596,444130.0,RI,44.0,44007.0,Providence County,440070022002.0
71278,sg:af4fa215b8ff47eca34f07c0cab30695,Robin Hollow Farm,RI,2019-03-01T00:00:00-05:00,2019-04-01T00:00:00-04:00,2874,3,778.0,"{""<5"":0,""5-20"":0,""21-60"":0,""61-240"":0,"">240"":3}",720.0,41.517711,-71.451385,453110.0,RI,44.0,44009.0,Washington County,440090504023.0
71570,sg:c910cb9ab39149438846530bc597f053,El Paso Restaurant,RI,2019-03-01T00:00:00-05:00,2019-04-01T00:00:00-04:00,2863,224,37.0,"{""<5"":3,""5-20"":79,""21-60"":52,""61-240"":70,"">240"":20}",18436.0,41.896822,-71.388819,722511.0,RI,44.0,44007.0,Providence County,440070109003.0
71719,sg:d78ff4c784d54f3dac44b9a0399149c8,Center For Womens Gastrointestinal Health,RI,2019-03-01T00:00:00-05:00,2019-04-01T00:00:00-04:00,2905,1,518.0,"{""<5"":0,""5-20"":0,""21-60"":0,""61-240"":0,"">240"":1}",240.0,41.81006,-71.410904,621111.0,RI,44.0,44007.0,Providence County,440070006002.0
71730,sg:d8c5b89fa43f4a83997bca8a71a10a98,Nicholas A Ferri Middle,RI,2019-03-01T00:00:00-05:00,2019-04-01T00:00:00-04:00,2919,348,340.5,"{""<5"":0,""5-20"":5,""21-60"":4,""61-240"":90,"">240"":249}",73529.5,41.829582,-71.502307,611110.0,RI,44.0,44007.0,Providence County,440070124014.0
72466,sg:1ed9763967634989bd7e0ad963663c4a,Cox Store,RI,2019-03-01T00:00:00-05:00,2019-04-01T00:00:00-04:00,2916,14,162.5,"{""<5"":0,""5-20"":2,""21-60"":3,""61-240"":5,"">240"":4}",1859.0,41.858321999999994,-71.35570600000001,517312.0,RI,44.0,44007.0,Providence County,440070101011.0
72603,sg:2ad8b198a5f94e718009c8fe9c7f2a9a,Douglas Maiko Hypnosis Center,RI,2019-03-01T00:00:00-05:00,2019-04-01T00:00:00-04:00,2860,63,91.0,"{""<5"":3,""5-20"":13,""21-60"":14,""61-240"":17,"">240"":16}",7135.5,41.864391,-71.41766899999999,621330.0,RI,44.0,44007.0,Providence County,440070163002.0
72636,sg:2d5ed5fed3434e1c9a891d9128e03771,Tony T's,RI,2019-03-01T00:00:00-05:00,2019-04-01T00:00:00-04:00,2891,16,11.5,"{""<5"":1,""5-20"":10,""21-60"":2,""61-240"":3,"">240"":0}",660.0,41.366074,-71.830462,722511.0,RI,44.0,44009.0,Washington County,440090508021.0
72953,sg:479c6bc62b0146b4a18696373d0be7ba,Raffa Yoga and Urban Sweat,RI,2019-03-01T00:00:00-05:00,2019-04-01T00:00:00-04:00,2920,347,64.0,"{""<5"":8,""5-20"":93,""21-60"":62,""61-240"":133,"">240"":51}",35950.0,41.738958000000004,-71.458359,713940.0,RI,44.0,44007.0,Providence County,440070142002.0
73045,sg:50f7c4b6aa9c48df8dc09d780146c659,Ocean State Chiropractic and Sports Rehabilitation,RI,2019-03-01T00:00:00-05:00,2019-04-01T00:00:00-04:00,2904,1,49.0,"{""<5"":0,""5-20"":0,""21-60"":1,""61-240"":0,"">240"":0}",40.5,41.859784000000005,-71.468671,621310.0,RI,44.0,44007.0,Providence County,440070120005.0
73186,sg:5db5a465d2a346348c436b0dccd32273,Mill Street Inn,RI,2019-03-01T00:00:00-05:00,2019-04-01T00:00:00-04:00,2840,139,138.0,"{""<5"":3,""5-20"":23,""21-60"":21,""61-240"":39,"">240"":53}",19735.0,41.486424,-71.312441,721110.0,RI,44.0,44005.0,Newport County,440050408002.0
73481,sg:76b3d402432b44f4a545730f76ecb7d4,Napolitano's Brooklyn Pizza,RI,2019-03-01T00:00:00-05:00,2019-04-01T00:00:00-04:00,2920,53,74.0,"{""<5"":1,""5-20"":13,""21-60"":10,""61-240"":20,"">240"":9}",5740.0,41.737527,-71.464439,722511.0,RI,44.0,44007.0,Providence County,440070142001.0
74171,sg:bcdbdf38cbc44e70b5299ce032295010,Apex Tire and Service Centers,RI,2019-03-01T00:00:00-05:00,2019-04-01T00:00:00-04:00,2860,207,59.0,"{""<5"":9,""5-20"":69,""21-60"":29,""61-240"":54,"">240"":46}",21226.5,41.876214000000004,-71.381033,441310.0,RI,44.0,44007.0,Providence County,440070167001.0
74272,sg:c6563640c4a5464b82101c770aa3b0e7,Southwest Airlines,RI,2019-03-01T00:00:00-05:00,2019-04-01T00:00:00-04:00,2886,2,8.5,"{""<5"":0,""5-20"":2,""21-60"":0,""61-240"":0,"">240"":0}",25.0,41.725947,-71.435353,488190.0,RI,44.0,44003.0,Kent County,440039800001.0
74391,sg:d3a7d3053bdd48b8ae20f9304976d0b2,Wicked Flowers & Design,RI,2019-03-01T00:00:00-05:00,2019-04-01T00:00:00-04:00,2860,243,89.0,"{""<5"":4,""5-20"":54,""21-60"":46,""61-240"":77,"">240"":62}",29016.5,41.873457,-71.373012,453110.0,RI,44.0,44007.0,Providence County,440070167002.0
74574,sg:e3b35faba0904888a5c31587b1a3f4f4,Partners In Obstetrics & Gynecology,RI,2019-03-01T00:00:00-05:00,2019-04-01T00:00:00-04:00,2860,20,79.5,"{""<5"":0,""5-20"":3,""21-60"":5,""61-240"":10,"">240"":2}",2225.0,41.867225,-71.377589,621111.0,RI,44.0,44007.0,Providence County,440070167002.0
74875,sg:02d4614084404c01a4e6605c9bf0aa59,Steere Farm Elementary School,RI,2019-03-01T00:00:00-05:00,2019-04-01T00:00:00-04:00,2859,281,64.0,"{""<5"":9,""5-20"":65,""21-60"":66,""61-240"":54,"">240"":87}",32515.0,41.938607,-71.67485400000001,611110.0,RI,44.0,44007.0,Providence County,440070130023.0
74994,sg:0d2d6e07aeda4d068ec532969fab3d5e,George Hanaford School,RI,2019-03-01T00:00:00-05:00,2019-04-01T00:00:00-04:00,2818,143,69.0,"{""<5"":2,""5-20"":42,""21-60"":26,""61-240"":25,"">240"":48}",16865.5,41.650203999999995,-71.468806,611110.0,RI,44.0,44003.0,Kent County,440030209014.0
75226,sg:221d7b83e0524e2295d05242bbc3b0d7,Ollie's Diner,RI,2019-03-01T00:00:00-05:00,2019-04-01T00:00:00-04:00,2864,302,40.0,"{""<5"":12,""5-20"":84,""21-60"":117,""61-240"":57,"">240"":32}",22077.0,41.923725,-71.399062,722511.0,RI,44.0,44007.0,Providence County,440070113011.0
75360,sg:2d325fd8c7af4d50b59077952e9fa36d,Chuck Georgie's Skincare & Wellness,RI,2019-03-01T00:00:00-05:00,2019-04-01T00:00:00-04:00,2920,45,28.0,"{""<5"":3,""5-20"":15,""21-60"":12,""61-240"":14,"">240"":1}",3028.0,41.74798,-71.478894,446120.0,RI,44.0,44007.0,Providence County,440070144002.0
76048,sg:679af820edf04e9cae77372bacc03f2f,Elisa Boutique,RI,2019-03-01T00:00:00-05:00,2019-04-01T00:00:00-04:00,2909,217,22.0,"{""<5"":4,""5-20"":94,""21-60"":47,""61-240"":40,"">240"":32}",16788.5,41.8125,-71.459282,448120.0,RI,44.0,44007.0,Providence County,440070017003.0
76098,sg:6d1c88b0a1ea419d81b0ee71aeb437e7,Wesco Oil,RI,2019-03-01T00:00:00-05:00,2019-04-01T00:00:00-04:00,2917,110,27.5,"{""<5"":3,""5-20"":36,""21-60"":33,""61-240"":33,"">240"":5}",7960.5,41.909017,-71.540612,447110.0,RI,44.0,44007.0,Providence County,440070126011.0
76366,sg:86ba503e6577442bb3c262a8f84728d5,Mulzer's Car Care,RI,2019-03-01T00:00:00-05:00,2019-04-01T00:00:00-04:00,2852,2,146.0,"{""<5"":0,""5-20"":0,""21-60"":0,""61-240"":2,"">240"":0}",301.0,41.554672,-71.44132900000001,811111.0,RI,44.0,44009.0,Washington County,440090503022.0
76526,sg:972996be707d46ceadcfcd0dcbe19699,Gastroenterology Associates,RI,2019-03-01T00:00:00-05:00,2019-04-01T00:00:00-04:00,2904,132,44.0,"{""<5"":4,""5-20"":41,""21-60"":40,""61-240"":30,"">240"":17}",10737.5,41.840425,-71.416411,621111.0,RI,44.0,44007.0,Providence County,440070029004.0
77326,sg:e6b3be6618414a6692a083b29d54c6dd,Graniteville Baptist Church,RI,2019-03-01T00:00:00-05:00,2019-04-01T00:00:00-04:00,2919,16,79.0,"{""<5"":0,""5-20"":5,""21-60"":3,""61-240"":2,"">240"":6}",1925.0,41.861767,-71.493726,813110.0,RI,44.0,44007.0,Providence County,440070123001.0
78133,sg:2fa9eee8d3b142eebb51de6bdc5ade85,Royal Flush Havanese,RI,2019-03-01T00:00:00-05:00,2019-04-01T00:00:00-04:00,2813,8,264.0,"{""<5"":0,""5-20"":0,""21-60"":3,""61-240"":1,"">240"":4}",1232.0,41.399901,-71.622485,812910.0,RI,44.0,44009.0,Washington County,440090511021.0
78259,sg:3b935f4ee7814733b835fd20bdbb695a,Ocean State Pain Management,RI,2019-03-01T00:00:00-05:00,2019-04-01T00:00:00-04:00,2895,84,37.5,"{""<5"":3,""5-20"":29,""21-60"":23,""61-240"":11,"">240"":18}",7277.0,42.005062,-71.494681,621111.0,RI,44.0,44007.0,Providence County,440070185001.0
78522,sg:53a0f7414c43407c93002986dffb14ac,Subway,RI,2019-03-01T00:00:00-05:00,2019-04-01T00:00:00-04:00,2886,147,12.0,"{""<5"":9,""5-20"":89,""21-60"":28,""61-240"":20,"">240"":1}",5519.0,41.718654,-71.486285,722513.0,RI,44.0,44003.0,Kent County,440030223002.0
79157,sg:916311f17bd74bb2b99b023831e0fafa,Pawtucket,RI,2019-03-01T00:00:00-05:00,2019-04-01T00:00:00-04:00,2861,126,164.5,"{""<5"":6,""5-20"":30,""21-60"":13,""61-240"":29,"">240"":48}",16801.0,41.893716999999995,-71.37197900000001,441110.0,RI,44.0,44007.0,Providence County,440070153001.0
79392,sg:a93c5112f00f413488fd273623552b84,Asian Gourmet,RI,2019-03-01T00:00:00-05:00,2019-04-01T00:00:00-04:00,2878,110,14.0,"{""<5"":2,""5-20"":61,""21-60"":20,""61-240"":24,"">240"":3}",5909.5,41.626503,-71.147374,722511.0,RI,44.0,44005.0,Newport County,440050417011.0
79563,sg:b7b2d501892144bcbd0411a5e9ce3cfc,Midville Golf Club,RI,2019-03-01T00:00:00-05:00,2019-04-01T00:00:00-04:00,2893,229,56.0,"{""<5"":5,""5-20"":63,""21-60"":51,""61-240"":62,"">240"":48}",23716.5,41.722849,-71.50104300000001,713910.0,RI,44.0,44003.0,Kent County,440030205002.0
79636,sg:bfead523b4e1440daaeef5725484b023,La Nuova Pizzeria,RI,2019-03-01T00:00:00-05:00,2019-04-01T00:00:00-04:00,2919,91,46.0,"{""<5"":1,""5-20"":35,""21-60"":14,""61-240"":31,"">240"":10}",8072.5,41.819219,-71.49699100000001,722511.0,RI,44.0,44007.0,Providence County,440070124015.0
79669,sg:c32fc6d5080d4ea8a8604b4397215659,Social Security,RI,2019-03-01T00:00:00-05:00,2019-04-01T00:00:00-04:00,2895,45,532.0,"{""<5"":0,""5-20"":3,""21-60"":3,""61-240"":5,"">240"":34}",9071.5,42.014839,-71.46564599999999,921190.0,RI,44.0,44007.0,Providence County,440070184003.0
80101,sg:ee2668883d0a447a86dcaa45c338e8ac,St Andrews School,RI,2019-03-01T00:00:00-05:00,2019-04-01T00:00:00-04:00,2806,559,124.0,"{""<5"":10,""5-20"":116,""21-60"":77,""61-240"":159,"">240"":197}",75803.0,41.749981,-71.324158,611110.0,RI,44.0,44001.0,Bristol County,440010302001.0
80139,sg:f260d6f8aedd4e2b8f3b86503e46419a,Hackman Edmund T Jr Optmtrst,RI,2019-03-01T00:00:00-05:00,2019-04-01T00:00:00-04:00,2888,47,102.0,"{""<5"":0,""5-20"":9,""21-60"":11,""61-240"":12,"">240"":15}",5964.0,41.738838,-71.40786700000001,446130.0,RI,44.0,44003.0,Kent County,440030213004.0
80321,sg:03c37b204c2746a496e69b285e609bf4,Verizon Wireless,RI,2019-03-01T00:00:00-05:00,2019-04-01T00:00:00-04:00,2917,10,257.0,"{""<5"":0,""5-20"":1,""21-60"":0,""61-240"":2,"">240"":7}",1993.5,41.874705,-71.51666,517312.0,RI,44.0,44007.0,Providence County,440070126012.0
80495,sg:12b88edbe170412495fbe2fad7e8a12d,abloom Hair,RI,2019-03-01T00:00:00-05:00,2019-04-01T00:00:00-04:00,2893,5,256.0,"{""<5"":0,""5-20"":0,""21-60"":1,""61-240"":1,"">240"":3}",911.0,41.689283,-71.50145,812112.0,RI,44.0,44003.0,Kent County,440030201021.0
80685,sg:21ec6a374587409d86694ffb0889482b,AAA,RI,2019-03-01T00:00:00-05:00,2019-04-01T00:00:00-04:00,2910,67,26.0,"{""<5"":2,""5-20"":20,""21-60"":31,""61-240"":8,"">240"":6}",4154.5,41.773672,-71.451666,524210.0,RI,44.0,44007.0,Providence County,440070140005.0
80919,sg:376389ac524f4b75a6c541bb595f14ef,Hallett Center For Diabetes and Endocrinology,RI,2019-03-01T00:00:00-05:00,2019-04-01T00:00:00-04:00,2903,9,544.0,"{""<5"":0,""5-20"":0,""21-60"":1,""61-240"":1,"">240"":7}",1871.0,41.808527000000005,-71.346858,621111.0,RI,44.0,44007.0,Providence County,440070105011.0
80957,sg:3b504da4726d41678511c06c65df5070,McManus & Pratt Dentistry,RI,2019-03-01T00:00:00-05:00,2019-04-01T00:00:00-04:00,2818,1,10.0,"{""<5"":0,""5-20"":1,""21-60"":0,""61-240"":0,"">240"":0}",12.5,41.66775,-71.448851,621210.0,RI,44.0,44003.0,Kent County,440030220003.0
80960,sg:3bcdd617715840d6a73995fc456117b0,Alignmentz Pilates Studio,RI,2019-03-01T00:00:00-05:00,2019-04-01T00:00:00-04:00,2809,85,12.0,"{""<5"":10,""5-20"":40,""21-60"":18,""61-240"":12,"">240"":5}",4260.0,41.672259999999994,-71.277375,713940.0,RI,44.0,44001.0,Bristol County,440010307004.0
81191,sg:504a083273674f218bab74e67930697e,Shell Oil,RI,2019-03-01T00:00:00-05:00,2019-04-01T00:00:00-04:00,2906,20,7.0,"{""<5"":0,""5-20"":13,""21-60"":4,""61-240"":3,"">240"":0}",776.0,41.85693,-71.391471,447110.0,RI,44.0,44007.0,Providence County,440070165002.0
81267,sg:55f3a176a19f498087077e325b94aed7,Kids Klub Calef Elementary,RI,2019-03-01T00:00:00-05:00,2019-04-01T00:00:00-04:00,2919,39,24.0,"{""<5"":1,""5-20"":18,""21-60"":5,""61-240"":12,"">240"":3}",2956.0,41.831936999999996,-71.474366,624410.0,RI,44.0,44007.0,Providence County,440070124016.0
81988,sg:9d9c1c3147c34a1fbb45441c7f87823c,Cesar's Auto Service,RI,2019-03-01T00:00:00-05:00,2019-04-01T00:00:00-04:00,2915,68,52.0,"{""<5"":0,""5-20"":23,""21-60"":15,""61-240"":14,"">240"":16}",6842.0,41.761089,-71.360661,811111.0,RI,44.0,44007.0,Providence County,440070106005.0
82789,sg:f084d70b6175419f988062c2698a9c9c,Aegean Pizza,RI,2019-03-01T00:00:00-05:00,2019-04-01T00:00:00-04:00,2814,125,30.0,"{""<5"":5,""5-20"":46,""21-60"":25,""61-240"":26,"">240"":23}",11033.0,41.915253,-71.671151,722511.0,RI,44.0,44007.0,Providence County,440070131022.0
82874,sg:f9e56141ec174e87b8ba5c78796d980e,Tortillas La Mexicana,RI,2019-03-01T00:00:00-05:00,2019-04-01T00:00:00-04:00,2909,275,45.0,"{""<5"":7,""5-20"":82,""21-60"":64,""61-240"":66,"">240"":56}",27007.5,41.813793,-71.451574,447110.0,RI,44.0,44007.0,Providence County,440070016007.0
82892,sg:fbb78da534144a50a4de28e75cce8a96,Park Square Plaza,RI,2019-03-01T00:00:00-05:00,2019-04-01T00:00:00-04:00,2895,945,13.0,"{""<5"":26,""5-20"":619,""21-60"":222,""61-240"":62,"">240"":16}",29964.5,41.984167,-71.515055,531120.0,RI,44.0,44007.0,Providence County,440070177002.0
82922,sg:fe78deb837ac4f2ca0d43bc38cf1ecb1,A&B Family Appliances,RI,2019-03-01T00:00:00-05:00,2019-04-01T00:00:00-04:00,2879,1,4.0,"{""<5"":1,""5-20"":0,""21-60"":0,""61-240"":0,"">240"":0}",2.5,41.4426,-71.489752,444130.0,RI,44.0,44009.0,Washington County,440090512022.0
83118,sg:122630a2de7240a291867d018a2c858e,Roy L Souza Nationwide Insurance,RI,2019-03-01T00:00:00-05:00,2019-04-01T00:00:00-04:00,2842,10,9.0,"{""<5"":0,""5-20"":6,""21-60"":2,""61-240"":1,"">240"":1}",546.5,41.529278000000005,-71.294485,524210.0,RI,44.0,44005.0,Newport County,440050403042.0
83248,sg:1cb6deee1d114a24978ca3353a7c2e15,George D Auto Repair,RI,2019-03-01T00:00:00-05:00,2019-04-01T00:00:00-04:00,2893,36,85.5,"{""<5"":0,""5-20"":15,""21-60"":3,""61-240"":8,"">240"":10}",3913.0,41.725438,-71.48979,811111.0,RI,44.0,44003.0,Kent County,440030205001.0
84581,sg:96ebca109b2044eeb10a4a1efb2413cb,Allstate Insurance,RI,2019-03-01T00:00:00-05:00,2019-04-01T00:00:00-04:00,2896,8,28.5,"{""<5"":0,""5-20"":2,""21-60"":3,""61-240"":2,"">240"":1}",687.5,41.979812,-71.51371400000001,524210.0,RI,44.0,44007.0,Providence County,440070128022.0
84800,sg:abf0dda131934fb4b7063b7f5482e26a,Soda Motors Auto Sales LLC,RI,2019-03-01T00:00:00-05:00,2019-04-01T00:00:00-04:00,2840,151,26.0,"{""<5"":4,""5-20"":63,""21-60"":35,""61-240"":28,"">240"":21}",11469.0,41.515599,-71.316653,441120.0,RI,44.0,44005.0,Newport County,440050405001.0
85682,sg:013698dcadb74ee792e5f480ab060e13,ANLI Academy,RI,2019-03-01T00:00:00-05:00,2019-04-01T00:00:00-04:00,2914,7,16.0,"{""<5"":0,""5-20"":4,""21-60"":1,""61-240"":2,"">240"":0}",391.5,41.816618,-71.358081,611310.0,RI,44.0,44007.0,Providence County,440070103003.0
85814,sg:0dc5c14060d34b629c59a3a6f3a2f47e,Triggs Memorial Golf Course,RI,2019-03-01T00:00:00-05:00,2019-04-01T00:00:00-04:00,2909,540,39.0,"{""<5"":19,""5-20"":183,""21-60"":120,""61-240"":128,"">240"":90}",48059.0,41.836644,-71.458718,713910.0,RI,44.0,44007.0,Providence County,440070024005.0
85885,sg:13a9a2736f154688a140e84856416006,Ivy Lodge Bed and Breakfast,RI,2019-03-01T00:00:00-05:00,2019-04-01T00:00:00-04:00,2840,198,64.0,"{""<5"":4,""5-20"":62,""21-60"":31,""61-240"":42,"">240"":59}",22521.5,41.476844,-71.306035,721110.0,RI,44.0,44005.0,Newport County,440050408003.0
86053,sg:22364343a2624c74864186f44a332908,Washington Trust,RI,2019-03-01T00:00:00-05:00,2019-04-01T00:00:00-04:00,2886,56,5.5,"{""<5"":5,""5-20"":48,""21-60"":1,""61-240"":2,"">240"":0}",954.0,41.697505,-71.468096,522110.0,RI,44.0,44003.0,Kent County,440030222011.0
86305,sg:3822b9be5dc94e1da8f46ea83b13d664,R B S,RI,2019-03-01T00:00:00-05:00,2019-04-01T00:00:00-04:00,2842,141,170.0,"{""<5"":0,""5-20"":12,""21-60"":14,""61-240"":64,"">240"":51}",22589.0,41.501872,-71.287583,541213.0,RI,44.0,44005.0,Newport County,440050404002.0
86474,sg:455d5133e463418d81e973ce0f41956f,Fearless Fish Market,RI,2019-03-01T00:00:00-05:00,2019-04-01T00:00:00-04:00,2903,13,12.0,"{""<5"":0,""5-20"":12,""21-60"":0,""61-240"":0,"">240"":1}",390.0,41.818838,-71.423889,445220.0,RI,44.0,44007.0,Providence County,440070011002.0
86687,sg:5bca9d707ba7452eab9acd6762eed9d0,Dog House,RI,2019-03-01T00:00:00-05:00,2019-04-01T00:00:00-04:00,2879,69,110.0,"{""<5"":2,""5-20"":14,""21-60"":11,""61-240"":24,"">240"":18}",8557.5,41.440374,-71.493921,453910.0,RI,44.0,44009.0,Washington County,440090512021.0
86779,sg:6442a838cf07477b9106f299e7811688,Living Hope Assembly of God,RI,2019-03-01T00:00:00-05:00,2019-04-01T00:00:00-04:00,2860,278,75.0,"{""<5"":7,""5-20"":52,""21-60"":58,""61-240"":112,"">240"":49}",31632.5,41.877449,-71.380619,813110.0,RI,44.0,44007.0,Providence County,440070160001.0
87240,sg:90113b029d72422ab9a2e3b9b07c34e4,Smithfield Friends Meeting,RI,2019-03-01T00:00:00-05:00,2019-04-01T00:00:00-04:00,2895,4,8.0,"{""<5"":0,""5-20"":4,""21-60"":0,""61-240"":0,"">240"":0}",50.0,41.989112,-71.529389,813110.0,RI,44.0,44007.0,Providence County,440070175002.0
88188,sg:e8bcf9165cb54dd79dc5e8bbde29536c,Belanger Michael Dr,RI,2019-03-01T00:00:00-05:00,2019-04-01T00:00:00-04:00,2919,15,98.0,"{""<5"":0,""5-20"":1,""21-60"":3,""61-240"":8,"">240"":3}",2058.0,41.827502,-71.50142199999999,621111.0,RI,44.0,44007.0,Providence County,440070124014.0
88642,sg:1079c093b18f4ef7beb7775a915950da,Li'l General,RI,2019-03-01T00:00:00-05:00,2019-04-01T00:00:00-04:00,2895,27,13.0,"{""<5"":1,""5-20"":18,""21-60"":3,""61-240"":4,"">240"":1}",1191.0,41.997388,-71.49068299999999,445110.0,RI,44.0,44007.0,Providence County,440070185003.0
89028,sg:32aa5359ad324be9989b919ea43aa772,Allstate Insurance,RI,2019-03-01T00:00:00-05:00,2019-04-01T00:00:00-04:00,2888,20,27.0,"{""<5"":2,""5-20"":6,""21-60"":6,""61-240"":5,"">240"":1}",1315.5,41.75215,-71.404486,524210.0,RI,44.0,44003.0,Kent County,440030212001.0
89170,sg:3e03aa22c67144e29ede86c5465a914b,Point Jude Boats,RI,2019-03-01T00:00:00-05:00,2019-04-01T00:00:00-04:00,2879,261,50.0,"{""<5"":3,""5-20"":52,""21-60"":92,""61-240"":79,"">240"":35}",24673.0,41.436710999999995,-71.50215,441222.0,RI,44.0,44009.0,Washington County,440090512023.0
89666,sg:6b550083c5794b9eb1f2e517fea1077b,D & H Therapy,RI,2019-03-01T00:00:00-05:00,2019-04-01T00:00:00-04:00,2828,9,18.0,"{""<5"":0,""5-20"":5,""21-60"":2,""61-240"":0,"">240"":2}",623.5,41.869894,-71.536167,621340.0,RI,44.0,44007.0,Providence County,440070127021.0
90649,sg:c5ed279a4b534a979737c0333d09a14f,United States Postal Service (USPS),RI,2019-03-01T00:00:00-05:00,2019-04-01T00:00:00-04:00,2813,14,6.0,"{""<5"":0,""5-20"":10,""21-60"":3,""61-240"":1,"">240"":0}",397.0,41.387387,-71.62360799999999,491110.0,RI,44.0,44009.0,Washington County,440090511021.0
91043,sg:eeb6ed7a40914d63b186fccf7220ebca,Shell Oil,RI,2019-03-01T00:00:00-05:00,2019-04-01T00:00:00-04:00,2914,226,7.0,"{""<5"":18,""5-20"":175,""21-60"":18,""61-240"":15,"">240"":0}",5219.0,41.815849,-71.356786,447110.0,RI,44.0,44007.0,Providence County,440070103003.0
91210,sg:feee1b5a4641419fa508388d4d9dd1b4,Genesis HealthCare,RI,2019-03-01T00:00:00-05:00,2019-04-01T00:00:00-04:00,2842,123,108.0,"{""<5"":2,""5-20"":28,""21-60"":22,""61-240"":27,"">240"":44}",15869.5,41.505476,-71.286197,621498.0,RI,44.0,44005.0,Newport County,440050404002.0
92257,sg:60b8ba3509ea44abac55fb20621b5b18,Apollo Auto Sales,RI,2019-03-01T00:00:00-05:00,2019-04-01T00:00:00-04:00,2864,4,10.0,"{""<5"":0,""5-20"":3,""21-60"":0,""61-240"":1,"">240"":0}",188.0,41.916665,-71.40366999999999,,RI,44.0,44007.0,Providence County,440070113011.0
92275,sg:62e449e07823425ba65c09492c674849,Evolutionary Sports,RI,2019-03-01T00:00:00-05:00,2019-04-01T00:00:00-04:00,2893,101,44.0,"{""<5"":2,""5-20"":27,""21-60"":29,""61-240"":39,"">240"":4}",8346.5,41.686284,-71.52441800000001,713940.0,RI,44.0,44003.0,Kent County,440030201022.0
92503,sg:78db1b02337f423fbbab6e6c32a9cb54,Mastery martial arts warwick,RI,2019-03-01T00:00:00-05:00,2019-04-01T00:00:00-04:00,2886,128,52.0,"{""<5"":1,""5-20"":17,""21-60"":58,""61-240"":44,"">240"":8}",11106.0,41.717615,-71.46484,713940.0,RI,44.0,44003.0,Kent County,440030221001.0
92734,sg:91e822304ae9442d860b03dbfb503491,Brunswick Walnut Hill Bowl,RI,2019-03-01T00:00:00-05:00,2019-04-01T00:00:00-04:00,2895,415,65.0,"{""<5"":6,""5-20"":92,""21-60"":91,""61-240"":192,"">240"":34}",41906.5,42.016267,-71.475771,713950.0,RI,44.0,44007.0,Providence County,440070184003.0
92870,sg:9f5f39157cbf4f5c9517dd075cf34bc5,Steere Orchard,RI,2019-03-01T00:00:00-05:00,2019-04-01T00:00:00-04:00,2828,1,5.0,"{""<5"":0,""5-20"":1,""21-60"":0,""61-240"":0,"">240"":0}",12.5,41.884885,-71.57074399999999,445230.0,RI,44.0,44007.0,Providence County,440070127013.0
92915,sg:a30a4b5212da4256ae1082edd6a1be29,Roberts Health Centre,RI,2019-03-01T00:00:00-05:00,2019-04-01T00:00:00-04:00,2852,172,62.0,"{""<5"":8,""5-20"":31,""21-60"":44,""61-240"":53,"">240"":36}",18806.0,41.580378,-71.493815,621330.0,RI,44.0,44009.0,Washington County,440090503011.0
93231,sg:c1374e72610249cc842f959b8281e843,Walmart,RI,2019-03-01T00:00:00-05:00,2019-04-01T00:00:00-04:00,2852,1607,21.0,"{""<5"":41,""5-20"":717,""21-60"":609,""61-240"":151,"">240"":89}",77815.0,41.585935,-71.491276,452319.0,RI,44.0,44009.0,Washington County,440090503011.0
93657,sg:eaa0ee207ac54c8595785653756eec75,John Street Playground,RI,2019-03-01T00:00:00-05:00,2019-04-01T00:00:00-04:00,2861,352,95.5,"{""<5"":10,""5-20"":70,""21-60"":60,""61-240"":80,"">240"":132}",47050.0,41.892234,-71.371481,713990.0,RI,44.0,44007.0,Providence County,440070155003.0
93931,sg:059216c6baf0483c961e0f65212d742b,Iannotti Brothers Select Cars,RI,2019-03-01T00:00:00-05:00,2019-04-01T00:00:00-04:00,2816,9,110.0,"{""<5"":0,""5-20"":1,""21-60"":3,""61-240"":1,"">240"":4}",1244.5,41.683577,-71.556286,,RI,44.0,44003.0,Kent County,440030206031.0
94449,sg:34de6ac63ae94d719dda8891194e170c,Speedway,RI,2019-03-01T00:00:00-05:00,2019-04-01T00:00:00-04:00,2904,389,10.0,"{""<5"":22,""5-20"":233,""21-60"":56,""61-240"":48,"">240"":30}",19659.5,41.853187,-71.400685,447110.0,RI,44.0,44007.0,Providence County,440070033004.0
95648,sg:a3861fe1df784b478aea5cce69fcd0e8,Johnny Rockets,RI,2019-03-01T00:00:00-05:00,2019-04-01T00:00:00-04:00,2865,3014,41.0,"{""<5"":86,""5-20"":1001,""21-60"":646,""61-240"":960,"">240"":321}",260410.5,41.887901,-71.44894599999999,722511.0,RI,44.0,44007.0,Providence County,440070116002.0
96016,sg:c7d077bec1d34e54ac3531914bf84517,Blackstone Valley Chiropractic Health Care,RI,2019-03-01T00:00:00-05:00,2019-04-01T00:00:00-04:00,2861,16,46.0,"{""<5"":0,""5-20"":6,""21-60"":3,""61-240"":1,"">240"":6}",1787.0,41.886029,-71.354422,621310.0,RI,44.0,44007.0,Providence County,440070159001.0
96346,sg:e83531bbeb1d4c2ea381b12c53f7c2bb,Pet Valu,RI,2019-03-01T00:00:00-05:00,2019-04-01T00:00:00-04:00,2891,140,10.0,"{""<5"":12,""5-20"":91,""21-60"":23,""61-240"":8,"">240"":6}",4743.0,41.369745,-71.819299,453910.0,RI,44.0,44009.0,Washington County,440090508021.0
96555,sg:fd851a6af9914dbb88624a482a4a9a76,Chaves Gardens & Florist,RI,2019-03-01T00:00:00-05:00,2019-04-01T00:00:00-04:00,2842,104,22.0,"{""<5"":4,""5-20"":41,""21-60"":35,""61-240"":21,"">240"":3}",5820.5,41.53006,-71.272491,453110.0,RI,44.0,44005.0,Newport County,440050404001.0
97107,sg:308dc27ed4564f83a26b7e99ada31fd8,Aquidneck Island Acupuncture,RI,2019-03-01T00:00:00-05:00,2019-04-01T00:00:00-04:00,2842,13,17.0,"{""<5"":0,""5-20"":9,""21-60"":3,""61-240"":1,"">240"":0}",384.5,41.494469,-71.284869,621111.0,RI,44.0,44005.0,Newport County,440050404002.0
97152,sg:345618e27494443b9f7f949ec22fd8df,Prince Food Mart,RI,2019-03-01T00:00:00-05:00,2019-04-01T00:00:00-04:00,2893,103,72.0,"{""<5"":1,""5-20"":27,""21-60"":18,""61-240"":35,"">240"":22}",11616.5,41.695488,-71.527224,451130.0,RI,44.0,44003.0,Kent County,440030202003.0
97778,sg:6988c3c86c424157b7a7b1793ab3b6a5,Centreville Bank,RI,2019-03-01T00:00:00-05:00,2019-04-01T00:00:00-04:00,2882,15,30.0,"{""<5"":0,""5-20"":5,""21-60"":4,""61-240"":5,"">240"":1}",1217.0,41.487021999999996,-71.436697,522110.0,RI,44.0,44009.0,Washington County,440090515021.0
97861,sg:7016642415ce4fe0824abcc8e498bd92,El Taconazo,RI,2019-03-01T00:00:00-05:00,2019-04-01T00:00:00-04:00,2909,200,84.0,"{""<5"":5,""5-20"":44,""21-60"":38,""61-240"":57,"">240"":56}",24120.0,41.806981,-71.456515,722511.0,RI,44.0,44007.0,Providence County,440070017001.0
98104,sg:875620f5853c46f983dd9d62ee727463,Aardvark Antiques,RI,2019-03-01T00:00:00-05:00,2019-04-01T00:00:00-04:00,2840,84,7.0,"{""<5"":12,""5-20"":47,""21-60"":14,""61-240"":5,"">240"":6}",3377.0,41.499285,-71.316769,453310.0,RI,44.0,44005.0,Newport County,440050405002.0
98290,sg:9968bfcfbdf74f19a8ac45e638629089,Newport Baptist Academy,RI,2019-03-01T00:00:00-05:00,2019-04-01T00:00:00-04:00,2842,37,56.0,"{""<5"":1,""5-20"":12,""21-60"":7,""61-240"":15,"">240"":2}",3173.5,41.524376000000004,-71.293602,624410.0,RI,44.0,44005.0,Newport County,440050403042.0
98444,sg:a9f8d383ed964c0d99bb09d8a15d0d33,Auto Audio & Accessories,RI,2019-03-01T00:00:00-05:00,2019-04-01T00:00:00-04:00,2814,12,15.5,"{""<5"":0,""5-20"":8,""21-60"":3,""61-240"":0,"">240"":1}",461.5,41.914532,-71.671162,441120.0,RI,44.0,44007.0,Providence County,440070131013.0
99381,sg:05ffa1fe9dc14c18aeb88269c91846fb,Cranston Bible Chapel,RI,2019-03-01T00:00:00-05:00,2019-04-01T00:00:00-04:00,2921,21,28.0,"{""<5"":0,""5-20"":9,""21-60"":10,""61-240"":2,"">240"":0}",818.5,41.752111,-71.51569599999999,813110.0,RI,44.0,44007.0,Providence County,440070146002.0
99553,sg:15b26603ad7d4e05bc23fbd82b83c536,Central Turf & Irrigation Supply,RI,2019-03-01T00:00:00-05:00,2019-04-01T00:00:00-04:00,2888,46,178.5,"{""<5"":0,""5-20"":5,""21-60"":9,""61-240"":14,"">240"":18}",6854.0,41.751744,-71.437457,444130.0,RI,44.0,44003.0,Kent County,440030211002.0
100035,sg:41d5a752669b4d188b3d4fcfc0799d38,Blake Equipment,RI,2019-03-01T00:00:00-05:00,2019-04-01T00:00:00-04:00,2859,88,19.5,"{""<5"":1,""5-20"":44,""21-60"":18,""61-240"":21,"">240"":4}",5402.0,41.93705,-71.683545,444130.0,RI,44.0,44007.0,Providence County,440070130023.0
100508,sg:6e324d59a01a4987aa778ef415f32d2d,Burrs Hill Park,RI,2019-03-01T00:00:00-05:00,2019-04-01T00:00:00-04:00,2885,149,24.0,"{""<5"":2,""5-20"":66,""21-60"":26,""61-240"":53,"">240"":2}",10339.5,41.722256,-71.28338000000001,712190.0,RI,44.0,44001.0,Bristol County,440010306024.0
100552,sg:722846b9713c4872b488810d1601b3ae,Stride Rite,RI,2019-03-01T00:00:00-05:00,2019-04-01T00:00:00-04:00,2871,1,8.0,"{""<5"":0,""5-20"":1,""21-60"":0,""61-240"":0,"">240"":0}",12.5,41.609627,-71.245793,448210.0,RI,44.0,44005.0,Newport County,440050401023.0
100876,sg:91c41c67646044a3a2854d30676274e1,Elj,RI,2019-03-01T00:00:00-05:00,2019-04-01T00:00:00-04:00,2809,144,33.0,"{""<5"":8,""5-20"":48,""21-60"":36,""61-240"":23,"">240"":29}",12499.5,41.705025,-71.266278,442299.0,RI,44.0,44001.0,Bristol County,440010309021.0
101177,sg:acff80875c12476e8ec1621bd61b6ee6,Eye Health Vision Centers,RI,2019-03-01T00:00:00-05:00,2019-04-01T00:00:00-04:00,2842,20,13.5,"{""<5"":0,""5-20"":12,""21-60"":6,""61-240"":2,"">240"":0}",694.0,41.517006,-71.292674,621111.0,RI,44.0,44005.0,Newport County,440050403021.0
101187,sg:adee39a6188d41f9bf55b143b8c36ce0,Cumberland Farms,RI,2019-03-01T00:00:00-05:00,2019-04-01T00:00:00-04:00,2813,121,8.0,"{""<5"":10,""5-20"":100,""21-60"":6,""61-240"":4,"">240"":1}",2360.0,41.383878,-71.6318,447110.0,RI,44.0,44009.0,Washington County,440090511021.0
101602,sg:d80101d9238345c6aaf21b59e3f23745,Walgreens,RI,2019-03-01T00:00:00-05:00,2019-04-01T00:00:00-04:00,2914,194,9.5,"{""<5"":16,""5-20"":129,""21-60"":31,""61-240"":11,"">240"":7}",6243.5,41.810575,-71.35852,446110.0,RI,44.0,44007.0,Providence County,440070105011.0
101843,sg:f1bf15bd0cd342e0afb5dd2ed37513c9,Lieutenant Governors Office,RI,2019-03-01T00:00:00-05:00,2019-04-01T00:00:00-04:00,2903,13,40.0,"{""<5"":1,""5-20"":2,""21-60"":5,""61-240"":5,"">240"":0}",982.5,41.830865,-71.415077,,RI,44.0,44007.0,Providence County,440070008001.0
101924,sg:f92f6f3d6c46478dbebb9bb9e54f8e52,Msgr Gadoury Primary School,RI,2019-03-01T00:00:00-05:00,2019-04-01T00:00:00-04:00,2895,56,71.5,"{""<5"":0,""5-20"":7,""21-60"":18,""61-240"":27,"">240"":4}",5840.0,41.985214,-71.516475,611110.0,RI,44.0,44007.0,Providence County,440070175003.0
102659,sg:3bc1867b1552409eb74805330bc50e71,Rotary Park,RI,2019-03-01T00:00:00-05:00,2019-04-01T00:00:00-04:00,2891,45,22.0,"{""<5"":2,""5-20"":18,""21-60"":17,""61-240"":6,"">240"":2}",2301.5,41.345616,-71.815198,712190.0,RI,44.0,44009.0,Washington County,440090508022.0
102800,sg:47675b94676941788f0f8504ac41bde0,The Break,RI,2019-03-01T00:00:00-05:00,2019-04-01T00:00:00-04:00,2882,109,68.0,"{""<5"":2,""5-20"":11,""21-60"":35,""61-240"":47,"">240"":14}",11993.5,41.374379,-71.48491700000001,721110.0,RI,44.0,44009.0,Washington County,440090515042.0
103075,sg:601d83b1b8a44d24823e87b3ed6062ae,New England Fashions,RI,2019-03-01T00:00:00-05:00,2019-04-01T00:00:00-04:00,2920,151,64.0,"{""<5"":1,""5-20"":28,""21-60"":34,""61-240"":79,"">240"":9}",15779.0,41.753401000000004,-71.44711099999999,448120.0,RI,44.0,44007.0,Providence County,440070139003.0
103099,sg:62ad66bf7e2248a4aacfc2f54879afca,Riverview Healthcare Community,RI,2019-03-01T00:00:00-05:00,2019-04-01T00:00:00-04:00,2816,498,135.0,"{""<5"":2,""5-20"":116,""21-60"":74,""61-240"":134,"">240"":172}",65899.0,41.727489,-71.53965600000001,623312.0,RI,44.0,44003.0,Kent County,440030206011.0
103149,sg:67eff25a0163489dac3466befa77a874,The Home Depot,RI,2019-03-01T00:00:00-05:00,2019-04-01T00:00:00-04:00,2917,974,19.0,"{""<5"":28,""5-20"":501,""21-60"":291,""61-240"":79,"">240"":75}",48007.5,41.874990999999994,-71.52081,444130.0,RI,44.0,44007.0,Providence County,440070126012.0
103543,sg:8e247645761f463183284bd6c32c11ec,The Juice Box,RI,2019-03-01T00:00:00-05:00,2019-04-01T00:00:00-04:00,2896,276,8.0,"{""<5"":17,""5-20"":223,""21-60"":21,""61-240"":7,"">240"":8}",6654.0,42.005373,-71.584542,444120.0,RI,44.0,44007.0,Providence County,440070128011.0
104055,sg:bea2ceea43d649c496dae937708d1dcd,Nacho Mamis Taco Shop,RI,2019-03-01T00:00:00-05:00,2019-04-01T00:00:00-04:00,2893,177,71.0,"{""<5"":5,""5-20"":40,""21-60"":38,""61-240"":48,"">240"":46}",20315.5,41.700917,-71.528494,722511.0,RI,44.0,44003.0,Kent County,440030203004.0
104216,sg:cfc1bda9e6204dc89c581679b823c88a,Lao Thai Cafe,RI,2019-03-01T00:00:00-05:00,2019-04-01T00:00:00-04:00,2895,58,1101.0,"{""<5"":0,""5-20"":7,""21-60"":0,""61-240"":4,"">240"":47}",11969.5,42.018253,-71.49805500000001,722511.0,MA,25.0,25021.0,Norfolk County,250214431025.0
104229,sg:d103c91fadd84a88bcd69c75bbe33603,Tilly's Cheesesteaks,RI,2019-03-01T00:00:00-05:00,2019-04-01T00:00:00-04:00,2892,233,25.0,"{""<5"":7,""5-20"":83,""21-60"":126,""61-240"":14,"">240"":3}",8985.0,41.485975,-71.563664,722511.0,RI,44.0,44009.0,Washington County,440090513061.0
104497,sg:ec34a7154ef843dba57d0f35abf5ab48,Cayala Bakery,RI,2019-03-01T00:00:00-05:00,2019-04-01T00:00:00-04:00,2920,150,11.5,"{""<5"":12,""5-20"":84,""21-60"":24,""61-240"":15,"">240"":15}",7909.5,41.803359,-71.457987,311811.0,RI,44.0,44007.0,Providence County,440070147001.0
104563,sg:f44df8df0bff452280e05fe28cb10c0a,Cowesett Pizza,RI,2019-03-01T00:00:00-05:00,2019-04-01T00:00:00-04:00,2893,34,25.5,"{""<5"":2,""5-20"":12,""21-60"":12,""61-240"":7,"">240"":1}",1934.5,41.685251,-71.504202,722511.0,RI,44.0,44003.0,Kent County,440030201021.0
104928,sg:14826b506e4740e497c3630b4cbc5151,Family Pet Center,RI,2019-03-01T00:00:00-05:00,2019-04-01T00:00:00-04:00,2911,131,11.0,"{""<5"":9,""5-20"":70,""21-60"":21,""61-240"":28,"">240"":3}",6682.0,41.851009000000005,-71.460974,453910.0,RI,44.0,44007.0,Providence County,440070120001.0
105041,sg:1e126cee14c64447a00d6ab58c24eb8a,Admiral Plaza,RI,2019-03-01T00:00:00-05:00,2019-04-01T00:00:00-04:00,2904,1718,17.0,"{""<5"":53,""5-20"":937,""21-60"":474,""61-240"":176,"">240"":78}",76250.0,41.855722,-71.44660400000001,531120.0,RI,44.0,44007.0,Providence County,440070119012.0
105212,sg:2ce0a0a04ccd4ee2976fcc56d5b24f2e,Junk & Java,RI,2019-03-01T00:00:00-05:00,2019-04-01T00:00:00-04:00,2891,373,21.0,"{""<5"":13,""5-20"":173,""21-60"":123,""61-240"":51,"">240"":13}",17972.0,41.366195000000005,-71.830444,722515.0,RI,44.0,44009.0,Washington County,440090508021.0
105626,sg:525e9f0af99648eaa4eeb5e0b245ac77,St Paul's Ccd,RI,2019-03-01T00:00:00-05:00,2019-04-01T00:00:00-04:00,2905,35,54.0,"{""<5"":3,""5-20"":6,""21-60"":10,""61-240"":14,"">240"":2}",3074.5,41.777128000000005,-71.40055799999999,624410.0,RI,44.0,44007.0,Providence County,440070134001.0
105963,sg:73489f47add641279db9d94ad66067af,Foden Glen,RI,2019-03-01T00:00:00-05:00,2019-04-01T00:00:00-04:00,2891,57,61.0,"{""<5"":1,""5-20"":17,""21-60"":10,""61-240"":10,"">240"":19}",6685.0,41.378249,-71.82654000000001,621210.0,RI,44.0,44009.0,Washington County,440090508014.0
106109,sg:8285ea5577a7457495f88570e3351804,Le'myres Collision Center,RI,2019-03-01T00:00:00-05:00,2019-04-01T00:00:00-04:00,2863,3,23.0,"{""<5"":1,""5-20"":0,""21-60"":2,""61-240"":0,"">240"":0}",83.5,41.89236,-71.387364,811121.0,RI,44.0,44007.0,Providence County,440070109001.0
106501,sg:ac1f4a2ab4ae419ca0aaf330b3e2ac6b,Memorial Park,RI,2019-03-01T00:00:00-05:00,2019-04-01T00:00:00-04:00,2903,642,61.0,"{""<5"":7,""5-20"":129,""21-60"":177,""61-240"":285,"">240"":44}",62251.0,41.82485,-71.40756800000001,712190.0,RI,44.0,44007.0,Providence County,440070008003.0
107210,sg:f2f717814d7f49709eb72ff12558099e,Popeyes Louisiana Kitchen,RI,2019-03-01T00:00:00-05:00,2019-04-01T00:00:00-04:00,2895,106,9.5,"{""<5"":3,""5-20"":81,""21-60"":16,""61-240"":4,"">240"":2}",2750.0,42.015307,-71.4785,722513.0,RI,44.0,44007.0,Providence County,440070184001.0
108222,sg:51e3f69efd0446f2a4ed0c7c08aeaf4d,Doolittle Sharon DVM,RI,2019-03-01T00:00:00-05:00,2019-04-01T00:00:00-04:00,2917,2,114.5,"{""<5"":1,""5-20"":0,""21-60"":0,""61-240"":1,"">240"":0}",153.0,41.86918,-71.509749,541940.0,RI,44.0,44007.0,Providence County,440070126023.0
108261,sg:5567644fd0a740cabc2f2b1763ec7cd6,Greenwood Inn,RI,2019-03-01T00:00:00-05:00,2019-04-01T00:00:00-04:00,2886,473,49.0,"{""<5"":17,""5-20"":111,""21-60"":144,""61-240"":186,"">240"":15}",38855.0,41.711797999999995,-71.448298,722511.0,RI,44.0,44003.0,Kent County,440030221001.0
108793,sg:878a33e584fd471f8a6d2c3fd44ae5f9,Sakonnet River Outfitters,RI,2019-03-01T00:00:00-05:00,2019-04-01T00:00:00-04:00,2878,107,46.0,"{""<5"":2,""5-20"":34,""21-60"":21,""61-240"":30,"">240"":20}",10595.5,41.653938000000004,-71.197939,451110.0,RI,44.0,44005.0,Newport County,440050416022.0
108860,sg:8f16de60442e42da92df41cf64957996,Time For You Studio,RI,2019-03-01T00:00:00-05:00,2019-04-01T00:00:00-04:00,2889,39,125.0,"{""<5"":2,""5-20"":7,""21-60"":6,""61-240"":9,"">240"":15}",5290.0,41.723893,-71.407143,812199.0,RI,44.0,44003.0,Kent County,440030214012.0
108904,sg:93f868861c1d4b76bb5ed5d7422ebd84,Amerigo Sailboat Charters,RI,2019-03-01T00:00:00-05:00,2019-04-01T00:00:00-04:00,2840,1,4.0,"{""<5"":1,""5-20"":0,""21-60"":0,""61-240"":0,"">240"":0}",2.5,41.483636,-71.315506,441222.0,RI,44.0,44005.0,Newport County,440050410001.0
109732,sg:e881a7e6dbe642f68d0ba4c9a857319a,Pizza Hut,RI,2019-03-01T00:00:00-05:00,2019-04-01T00:00:00-04:00,2809,80,12.0,"{""<5"":2,""5-20"":55,""21-60"":16,""61-240"":4,"">240"":3}",2662.5,41.677494,-71.260355,722513.0,RI,44.0,44001.0,Bristol County,440010308001.0
109869,sg:f5e9bf066f8c49e8a027a83bcc6594dc,Envisions Eye Care,RI,2019-03-01T00:00:00-05:00,2019-04-01T00:00:00-04:00,2893,119,40.0,"{""<5"":3,""5-20"":29,""21-60"":54,""61-240"":14,"">240"":19}",9224.0,41.685198,-71.50308299999999,446130.0,RI,44.0,44003.0,Kent County,440030201021.0
110014,sg:033a1a5376c04e40965bf2c288f91325,Cranston Parkade,RI,2019-03-01T00:00:00-05:00,2019-04-01T00:00:00-04:00,2920,2657,20.0,"{""<5"":62,""5-20"":1282,""21-60"":899,""61-240"":347,"">240"":67}",120893.0,41.794488,-71.444725,531120.0,RI,44.0,44007.0,Providence County,440070141004.0
110025,sg:03d9bcb00d9f4ff894f6835ea7590fcf,KFC,RI,2019-03-01T00:00:00-05:00,2019-04-01T00:00:00-04:00,2904,224,8.0,"{""<5"":12,""5-20"":148,""21-60"":40,""61-240"":7,"">240"":17}",8633.5,41.841876,-71.40751,722513.0,RI,44.0,44007.0,Providence County,440070031002.0
110511,sg:33e85336f591482b98715ad151ccfc34,The Dog House,RI,2019-03-01T00:00:00-05:00,2019-04-01T00:00:00-04:00,2914,152,44.0,"{""<5"":6,""5-20"":47,""21-60"":34,""61-240"":36,"">240"":29}",14357.5,41.813432,-71.368029,453910.0,RI,44.0,44007.0,Providence County,440070104001.0
110981,sg:5f9dd9da2f0040ffaca74d520aaa5e25,Aquidneck Shopping Center,RI,2019-03-01T00:00:00-05:00,2019-04-01T00:00:00-04:00,2842,2865,17.0,"{""<5"":98,""5-20"":1604,""21-60"":826,""61-240"":223,"">240"":114}",114669.5,41.516646,-71.297513,531120.0,RI,44.0,44005.0,Newport County,440050403021.0
111033,sg:65eaeecb837b4ae0abd3edd1da57c901,Livi's Pockets,RI,2019-03-01T00:00:00-05:00,2019-04-01T00:00:00-04:00,2903,114,32.0,"{""<5"":6,""5-20"":38,""21-60"":31,""61-240"":27,"">240"":12}",8689.0,41.823980999999996,-71.410527,722511.0,RI,44.0,44007.0,Providence County,440070008003.0
