,safegraph_place_id,location_name,region,date_range_start,date_range_end,postal_code,raw_visit_counts,median_dwell,bucketed_dwell_times,est_total_dwell,latitude,longitude,naics_code,state,stateFIPS,countyFIPS,countyName,CBGFIPS
54,sg:05b211a6e34c47d5a71ee4cc79a0fc05,Paws & Go,CT,2019-02-01T00:00:00-05:00,2019-03-01T00:00:00-05:00,6010,175,19.0,"{""<5"":7,""5-20"":86,""21-60"":41,""61-240"":15,"">240"":26}",11250.5,41.701188,-72.910388,453910.0,CT,9.0,9003.0,Hartford County,90034060022.0
61,sg:063d16261ccb4e65b31badd130f14545,Red Lotus,CT,2019-02-01T00:00:00-05:00,2019-03-01T00:00:00-05:00,6484,185,38.0,"{""<5"":3,""5-20"":56,""21-60"":75,""61-240"":42,"">240"":9}",12226.0,41.264295000000004,-73.130824,722511.0,CT,9.0,9001.0,Fairfield County,90011103022.0
81,sg:087218f792cf4adfb18fd274b60b03e0,Oyster Bend Yacht Club & Marina,CT,2019-02-01T00:00:00-05:00,2019-03-01T00:00:00-05:00,6855,85,57.0,"{""<5"":3,""5-20"":25,""21-60"":15,""61-240"":38,"">240"":4}",7606.5,41.104898999999996,-73.410996,441222.0,CT,9.0,9001.0,Fairfield County,90010442002.0
109,sg:0b92a449011243d59a4c182bad5a1f5b,Joint Effort Exercise,CT,2019-02-01T00:00:00-05:00,2019-03-01T00:00:00-05:00,6410,54,27.5,"{""<5"":2,""5-20"":19,""21-60"":21,""61-240"":12,"">240"":0}",2899.0,41.47617,-72.905746,713940.0,CT,9.0,9009.0,New Haven County,90093433002.0
256,sg:180b60ff9b524257b452f7a7e5dcd631,Harborside Bar & Grille,CT,2019-02-01T00:00:00-05:00,2019-03-01T00:00:00-05:00,6614,45,29.0,"{""<5"":0,""5-20"":20,""21-60"":11,""61-240"":13,"">240"":1}",2892.0,41.200301,-73.113748,722511.0,CT,9.0,9001.0,Fairfield County,90010807001.0
285,sg:1aa570b2ae2b4241981d8c3036246305,Mobil,CT,2019-02-01T00:00:00-05:00,2019-03-01T00:00:00-05:00,6120,224,9.0,"{""<5"":15,""5-20"":159,""21-60"":35,""61-240"":11,"">240"":4}",6058.0,41.789729,-72.66238299999999,447110.0,CT,9.0,9003.0,Hartford County,90035007001.0
288,sg:1b48c9aae9cb43e090dee9674cfaeb8f,J C Auto Body,CT,2019-02-01T00:00:00-05:00,2019-03-01T00:00:00-05:00,6483,41,300.0,"{""<5"":1,""5-20"":10,""21-60"":5,""61-240"":4,"">240"":21}",5972.0,41.367796999999996,-73.083086,811121.0,CT,9.0,9009.0,New Haven County,90091301022.0
391,sg:23c34948d7d2424dbdb3bef678b6406d,Great Beginnings Preschool Llc,CT,2019-02-01T00:00:00-05:00,2019-03-01T00:00:00-05:00,6460,55,186.0,"{""<5"":1,""5-20"":11,""21-60"":8,""61-240"":9,"">240"":26}",8058.5,41.217088000000004,-73.073364,624410.0,CT,9.0,9009.0,New Haven County,90091501003.0
400,sg:24fb960c650645b28d8629ec25307478,Gerosa Records,CT,2019-02-01T00:00:00-05:00,2019-03-01T00:00:00-05:00,6804,93,207.0,"{""<5"":1,""5-20"":19,""21-60"":24,""61-240"":8,"">240"":41}",12256.0,41.446104999999996,-73.404656,448140.0,CT,9.0,9001.0,Fairfield County,90012053003.0
750,sg:4786ffc26a77463ba51301a99771d49b,Stratford Square,CT,2019-02-01T00:00:00-05:00,2019-03-01T00:00:00-05:00,6614,62,11.0,"{""<5"":2,""5-20"":40,""21-60"":10,""61-240"":5,"">240"":5}",2862.5,41.197347,-73.123775,531120.0,CT,9.0,9001.0,Fairfield County,90010807001.0
837,sg:4ee82f400aa349a4907a7fdcbb1d5d57,The Next Street,CT,2019-02-01T00:00:00-05:00,2019-03-01T00:00:00-05:00,6810,55,12.0,"{""<5"":5,""5-20"":31,""21-60"":15,""61-240"":4,"">240"":0}",1609.5,41.388883,-73.43321800000001,611692.0,CT,9.0,9001.0,Fairfield County,90012104002.0
911,sg:55ab4f1fbb6347d195dc34daa82823dc,Elite Gymnastics Center,CT,2019-02-01T00:00:00-05:00,2019-03-01T00:00:00-05:00,6776,234,41.0,"{""<5"":3,""5-20"":81,""21-60"":50,""61-240"":68,"">240"":32}",20959.0,41.5236,-73.426218,713940.0,CT,9.0,9005.0,Litchfield County,90052534003.0
932,sg:572cd56a37634e679723eb5260a843d7,All In One Nursery School Llc,CT,2019-02-01T00:00:00-05:00,2019-03-01T00:00:00-05:00,6611,116,161.0,"{""<5"":0,""5-20"":11,""21-60"":5,""61-240"":75,"">240"":25}",17627.5,41.238715,-73.145,624410.0,CT,9.0,9001.0,Fairfield County,90010905001.0
1035,sg:6203eda622264536a063f473b7816adb,Connecticut State Police Canine Memorial,CT,2019-02-01T00:00:00-05:00,2019-03-01T00:00:00-05:00,6457,625,58.0,"{""<5"":8,""5-20"":179,""21-60"":132,""61-240"":144,"">240"":162}",68155.5,41.5692,-72.727563,712120.0,CT,9.0,9007.0,Middlesex County,90075414011.0
1143,sg:6c6ac1d3a2774c6292bb318bfab4071d,Taco Bell,CT,2019-02-01T00:00:00-05:00,2019-03-01T00:00:00-05:00,6106,194,13.0,"{""<5"":4,""5-20"":143,""21-60"":33,""61-240"":10,"">240"":4}",5599.0,41.742284999999995,-72.711478,722513.0,CT,9.0,9003.0,Hartford County,90035247003.0
1148,sg:6c9b7e61c6ef4426bf89232e4df8aabc,Norwich Family & Cosmetic Dentistry,CT,2019-02-01T00:00:00-05:00,2019-03-01T00:00:00-05:00,6360,34,93.0,"{""<5"":0,""5-20"":6,""21-60"":8,""61-240"":9,"">240"":11}",4393.5,41.541299,-72.086985,621210.0,CT,9.0,9011.0,New London County,90116965003.0
1149,sg:6c9f21c0919d4226961239beb2eb7267,Metro Square Shopping Center,CT,2019-02-01T00:00:00-05:00,2019-03-01T00:00:00-05:00,6457,1810,42.0,"{""<5"":48,""5-20"":492,""21-60"":598,""61-240"":621,"">240"":51}",136189.5,41.559185,-72.647343,531120.0,CT,9.0,9007.0,Middlesex County,90075416001.0
1267,sg:774c7574ccc94a28b99a640490992942,Liberty Bank,CT,2019-02-01T00:00:00-05:00,2019-03-01T00:00:00-05:00,6457,3,6.0,"{""<5"":0,""5-20"":3,""21-60"":0,""61-240"":0,"">240"":0}",37.5,41.560503000000004,-72.650249,522110.0,CT,9.0,9007.0,Middlesex County,90075416001.0
1613,sg:9aa32264166f4b8ea9feff5d9f0f1bc3,Jeannette Chinchilla MD FAAP,CT,2019-02-01T00:00:00-05:00,2019-03-01T00:00:00-05:00,6410,73,48.0,"{""<5"":0,""5-20"":12,""21-60"":32,""61-240"":17,"">240"":12}",6884.5,41.485662,-72.906178,621111.0,CT,9.0,9009.0,New Haven County,90093433001.0
1636,sg:9ce5c834153446c496691061c623dc85,Creative Child Care Center,CT,2019-02-01T00:00:00-05:00,2019-03-01T00:00:00-05:00,6457,17,12.0,"{""<5"":1,""5-20"":9,""21-60"":4,""61-240"":3,"">240"":0}",728.5,41.564608,-72.702574,624410.0,CT,9.0,9007.0,Middlesex County,90075414013.0
1717,sg:a4714dc4f39a4e86ac916cb1cc22b584,PriceRite,CT,2019-02-01T00:00:00-05:00,2019-03-01T00:00:00-05:00,6110,709,22.0,"{""<5"":15,""5-20"":308,""21-60"":265,""61-240"":100,"">240"":21}",34710.0,41.728766,-72.718719,445110.0,CT,9.0,9003.0,Hartford County,90034961001.0
1771,sg:ab0da6fe695748f789bffa591fc5963c,Home Alliance,CT,2019-02-01T00:00:00-05:00,2019-03-01T00:00:00-05:00,6905,355,24.0,"{""<5"":10,""5-20"":151,""21-60"":97,""61-240"":68,"">240"":29}",23035.0,41.061113,-73.54164499999999,444130.0,CT,9.0,9001.0,Fairfield County,90010216002.0
1782,sg:ac3378b717284c019279f14a71136a56,Kowal Samuel R Ins,CT,2019-02-01T00:00:00-05:00,2019-03-01T00:00:00-05:00,6483,32,60.0,"{""<5"":1,""5-20"":11,""21-60"":4,""61-240"":11,"">240"":5}",3157.5,41.399986,-73.082933,524210.0,CT,9.0,9009.0,New Haven County,90091302001.0
1795,sg:add41fd321a048baa989db6e8f0f0e7f,Public Storage,CT,2019-02-01T00:00:00-05:00,2019-03-01T00:00:00-05:00,6811,10,22.0,"{""<5"":0,""5-20"":3,""21-60"":5,""61-240"":2,"">240"":0}",541.0,41.393018,-73.507599,531130.0,CT,9.0,9001.0,Fairfield County,90012108001.0
1864,sg:b4e347db8d3e499ba28d92db9fdbe5cd,Studiogolf Inc,CT,2019-02-01T00:00:00-05:00,2019-03-01T00:00:00-05:00,6897,1041,14.0,"{""<5"":50,""5-20"":551,""21-60"":228,""61-240"":170,"">240"":42}",51911.5,41.209302,-73.43093499999999,713910.0,CT,9.0,9001.0,Fairfield County,90010451022.0
1941,sg:babb883636f04be8ae8608b219e9d064,Morena Hair Salon,CT,2019-02-01T00:00:00-05:00,2019-03-01T00:00:00-05:00,6511,1,35.0,"{""<5"":0,""5-20"":0,""21-60"":1,""61-240"":0,"">240"":0}",40.5,41.333358000000004,-72.930699,812112.0,CT,9.0,9009.0,New Haven County,90091415003.0
1970,sg:bee414bdff6a4c70ad8e5946c97e14fa,Ace Tire and Auto Center,CT,2019-02-01T00:00:00-05:00,2019-03-01T00:00:00-05:00,6877,26,19.0,"{""<5"":2,""5-20"":12,""21-60"":7,""61-240"":2,"">240"":3}",1459.5,41.313644000000004,-73.472727,811111.0,CT,9.0,9001.0,Fairfield County,90012452003.0
2012,sg:c2edeec05a084894810e61e47d7e9538,Bethel Chiropractic,CT,2019-02-01T00:00:00-05:00,2019-03-01T00:00:00-05:00,6801,22,12.5,"{""<5"":1,""5-20"":13,""21-60"":6,""61-240"":2,"">240"":0}",709.0,41.416577000000004,-73.402629,621310.0,CT,9.0,9001.0,Fairfield County,90012003013.0
2063,sg:c79c149daf6c4811a92e0e6c8d3880fc,Dunkin',CT,2019-02-01T00:00:00-05:00,2019-03-01T00:00:00-05:00,6790,212,8.0,"{""<5"":16,""5-20"":151,""21-60"":16,""61-240"":17,"">240"":12}",8014.0,41.796448,-73.120397,722515.0,CT,9.0,9005.0,Litchfield County,90053103002.0
2140,sg:ce498650f3db4c12a981198e56330ea2,University Of Connecticut Fire Department,CT,2019-02-01T00:00:00-05:00,2019-03-01T00:00:00-05:00,6269,165,410.0,"{""<5"":1,""5-20"":11,""21-60"":12,""61-240"":40,"">240"":101}",30886.0,41.809775,-72.260549,922160.0,CT,9.0,9013.0,Tolland County,90138813002.0
2188,sg:d3916646585d426bbb1e3c37185b0382,Cavalieri Dental LLC,CT,2019-02-01T00:00:00-05:00,2019-03-01T00:00:00-05:00,6067,2,528.5,"{""<5"":0,""5-20"":0,""21-60"":0,""61-240"":0,"">240"":2}",480.0,41.669975,-72.643664,621210.0,CT,9.0,9003.0,Hartford County,90034901003.0
2268,sg:dda035e292a44b299708f8aa0eecdf67,Trinity Lutheran Church,CT,2019-02-01T00:00:00-05:00,2019-03-01T00:00:00-05:00,6066,43,51.0,"{""<5"":1,""5-20"":12,""21-60"":10,""61-240"":17,"">240"":3}",3836.0,41.844978999999995,-72.457801,813110.0,CT,9.0,9013.0,Tolland County,90135304001.0
2510,sg:f31eddff91b44cc39844c78303dbcd0a,Ami's Crispy Bagels & Deli,CT,2019-02-01T00:00:00-05:00,2019-03-01T00:00:00-05:00,6705,227,11.0,"{""<5"":10,""5-20"":140,""21-60"":31,""61-240"":20,"">240"":26}",12280.5,41.5424,-72.999769,722515.0,CT,9.0,9009.0,New Haven County,90093527022.0
2557,sg:f7a91404cc1b46d7a3d8b284834a5aaf,Stratton Brook State Park,CT,2019-02-01T00:00:00-05:00,2019-03-01T00:00:00-05:00,6070,1,5.0,"{""<5"":0,""5-20"":1,""21-60"":0,""61-240"":0,"">240"":0}",12.5,41.868553000000006,-72.83783000000001,712190.0,CT,9.0,9003.0,Hartford County,90034662021.0
2648,sg:00a8b1ed64b24241bfbdb9056a6705d5,Sound School,CT,2019-02-01T00:00:00-05:00,2019-03-01T00:00:00-05:00,6519,374,130.5,"{""<5"":0,""5-20"":47,""21-60"":60,""61-240"":158,"">240"":109}",52956.5,41.2818,-72.92855,611110.0,CT,9.0,9009.0,New Haven County,90091404002.0
2684,sg:03d048e596ad47398a39ebde7fb1f716,A 1 Pizza,CT,2019-02-01T00:00:00-05:00,2019-03-01T00:00:00-05:00,6105,221,25.0,"{""<5"":10,""5-20"":87,""21-60"":45,""61-240"":41,"">240"":38}",18225.5,41.767952,-72.697746,722511.0,CT,9.0,9003.0,Hartford County,90035031001.0
2827,sg:1237a19565214efbaf43a6f3e3c4f10e,Pizzeria Napoletana,CT,2019-02-01T00:00:00-05:00,2019-03-01T00:00:00-05:00,6712,20,41.0,"{""<5"":0,""5-20"":8,""21-60"":6,""61-240"":4,"">240"":2}",1425.0,41.504373,-72.98325899999999,722511.0,CT,9.0,9009.0,New Haven County,90093472001.0
3027,sg:2432b2de316b4cb3b6d4616de200f3a3,Women's Health Associates PC,CT,2019-02-01T00:00:00-05:00,2019-03-01T00:00:00-05:00,6810,64,43.5,"{""<5"":1,""5-20"":12,""21-60"":25,""61-240"":17,"">240"":9}",5883.5,41.406388,-73.446517,621111.0,CT,9.0,9001.0,Fairfield County,90012103001.0
3446,sg:4870ef5c40e9404398730550137254b1,SiteOne Landscape Supply,CT,2019-02-01T00:00:00-05:00,2019-03-01T00:00:00-05:00,6512,95,54.0,"{""<5"":0,""5-20"":27,""21-60"":24,""61-240"":25,"">240"":19}",9632.0,41.320003,-72.85178,444130.0,CT,9.0,9009.0,New Haven County,90091805002.0
3579,sg:566eea5b746c400fb19e6418c2fe49a3,CNH Finance,CT,2019-02-01T00:00:00-05:00,2019-03-01T00:00:00-05:00,6830,33,41.0,"{""<5"":1,""5-20"":10,""21-60"":7,""61-240"":5,"">240"":10}",3563.5,41.020821999999995,-73.625084,522291.0,CT,9.0,9001.0,Fairfield County,90010112001.0
3596,sg:57a03f49da7d46c8908b577c65e126dc,Electric Crown Guitar School,CT,2019-02-01T00:00:00-05:00,2019-03-01T00:00:00-05:00,6249,12,23.0,"{""<5"":0,""5-20"":4,""21-60"":6,""61-240"":0,"">240"":2}",773.0,41.627056,-72.281741,451140.0,CT,9.0,9011.0,New London County,90118701004.0
3602,sg:581043237107453489539cf5e894bea5,International Traveler's Clinic,CT,2019-02-01T00:00:00-05:00,2019-03-01T00:00:00-05:00,6069,19,98.0,"{""<5"":0,""5-20"":5,""21-60"":2,""61-240"":4,"">240"":8}",2665.5,41.880526,-73.481712,621111.0,CT,9.0,9005.0,Litchfield County,90052621002.0
3659,sg:5dc440883fa94e889021e9de16d4775c,Jennifer Botwick ND,CT,2019-02-01T00:00:00-05:00,2019-03-01T00:00:00-05:00,6525,99,159.0,"{""<5"":0,""5-20"":4,""21-60"":20,""61-240"":45,"">240"":30}",14832.5,41.3447,-72.984359,621111.0,CT,9.0,9009.0,New Haven County,90091602001.0
3710,sg:62ffc5229a8b4790856417d50fe2d5d2,Carriage House Day Care Center Inc,CT,2019-02-01T00:00:00-05:00,2019-03-01T00:00:00-05:00,6451,13,16.0,"{""<5"":0,""5-20"":9,""21-60"":1,""61-240"":1,"">240"":2}",783.5,41.546134,-72.79696,624410.0,CT,9.0,9009.0,New Haven County,90091716003.0
3977,sg:7bf2a1d5dd814235af717ac18b6467d2,Wilton High School,CT,2019-02-01T00:00:00-05:00,2019-03-01T00:00:00-05:00,6897,855,238.0,"{""<5"":5,""5-20"":67,""21-60"":82,""61-240"":287,"">240"":414}",146724.5,41.210819,-73.433498,611110.0,CT,9.0,9001.0,Fairfield County,90010452001.0
4032,sg:81cc1c9a0b8046e38208c85999a89695,Personal Training Professionals,CT,2019-02-01T00:00:00-05:00,2019-03-01T00:00:00-05:00,6897,202,43.5,"{""<5"":1,""5-20"":47,""21-60"":89,""61-240"":64,"">240"":1}",14066.5,41.191526,-73.431371,713940.0,CT,9.0,9001.0,Fairfield County,90010452002.0
4109,sg:8a238f753d0945e68cb26568febe5d8c,Putnam Furniture Leasing Co,CT,2019-02-01T00:00:00-05:00,2019-03-01T00:00:00-05:00,6110,143,22.0,"{""<5"":2,""5-20"":61,""21-60"":48,""61-240"":25,"">240"":7}",8154.0,41.722309,-72.72984,442110.0,CT,9.0,9003.0,Hartford County,90034961002.0
4136,sg:8cbde813507d4d4e8f5f7eb51c0e13f0,Wendy's,CT,2019-02-01T00:00:00-05:00,2019-03-01T00:00:00-05:00,6082,317,10.0,"{""<5"":16,""5-20"":226,""21-60"":57,""61-240"":13,"">240"":5}",8330.0,41.996906,-72.58443299999999,722513.0,CT,9.0,9003.0,Hartford County,90034808004.0
4178,sg:91232e8a84134b3cbe51fae978293bbf,NAPA Auto Parts,CT,2019-02-01T00:00:00-05:00,2019-03-01T00:00:00-05:00,6066,48,7.5,"{""<5"":3,""5-20"":34,""21-60"":11,""61-240"":0,"">240"":0}",878.0,41.86533,-72.471544,441310.0,CT,9.0,9013.0,Tolland County,90135303012.0
4186,sg:91950e177aa64be0ae8bfa4926a48c3c,Simsbury Therapeutic Massage and Wellness Center,CT,2019-02-01T00:00:00-05:00,2019-03-01T00:00:00-05:00,6070,4,31.0,"{""<5"":0,""5-20"":2,""21-60"":1,""61-240"":0,"">240"":1}",305.5,41.861034000000004,-72.809315,812199.0,CT,9.0,9003.0,Hartford County,90034661012.0
4286,sg:9ab550737b1c47e996229ec6decac098,McDonald's,CT,2019-02-01T00:00:00-05:00,2019-03-01T00:00:00-05:00,6825,530,16.0,"{""<5"":21,""5-20"":268,""21-60"":137,""61-240"":72,"">240"":32}",27467.0,41.179795,-73.247129,722513.0,CT,9.0,9001.0,Fairfield County,90010610003.0
4302,sg:9c445fe3ffb449879b4058828cc55963,Three Four Open The Door,CT,2019-02-01T00:00:00-05:00,2019-03-01T00:00:00-05:00,6880,12,11.0,"{""<5"":0,""5-20"":11,""21-60"":1,""61-240"":0,"">240"":0}",178.0,41.166053999999995,-73.381872,624410.0,CT,9.0,9001.0,Fairfield County,90010501001.0
4372,sg:a30b1d0f223d49da899e0566531bed51,The Brush & Pallet,CT,2019-02-01T00:00:00-05:00,2019-03-01T00:00:00-05:00,6791,1,101.0,"{""<5"":0,""5-20"":0,""21-60"":0,""61-240"":1,"">240"":0}",150.5,41.771746,-73.058472,312130.0,CT,9.0,9005.0,Litchfield County,90052984002.0
4397,sg:a601abff907344bd965a64a325bf468c,Wheeler Middle School,CT,2019-02-01T00:00:00-05:00,2019-03-01T00:00:00-05:00,6359,78,20.5,"{""<5"":0,""5-20"":39,""21-60"":15,""61-240"":22,"">240"":2}",4886.0,41.438722999999996,-71.88837,611110.0,CT,9.0,9011.0,New London County,90117071001.0
4525,sg:b26553d5537f45a5a93e5a656f3da3a9,Elm Plaza,CT,2019-02-01T00:00:00-05:00,2019-03-01T00:00:00-05:00,6082,1759,21.0,"{""<5"":40,""5-20"":826,""21-60"":565,""61-240"":264,"">240"":64}",88399.5,41.999282,-72.58318299999999,531120.0,CT,9.0,9003.0,Hartford County,90034804002.0
4545,sg:b448803c30af4ec9a0be6e99a31ba780,Holistic Counseling Services,CT,2019-02-01T00:00:00-05:00,2019-03-01T00:00:00-05:00,6460,15,61.0,"{""<5"":0,""5-20"":4,""21-60"":3,""61-240"":7,"">240"":1}",1465.0,41.226338,-73.054965,621330.0,CT,9.0,9009.0,New Haven County,90091501001.0
4556,sg:b505f7cf13944925bdb9db005c150e3c,Boys & Girls Clubs of America,CT,2019-02-01T00:00:00-05:00,2019-03-01T00:00:00-05:00,6320,188,47.0,"{""<5"":1,""5-20"":59,""21-60"":46,""61-240"":55,"">240"":27}",17360.5,41.356621999999994,-72.096683,624110.0,CT,9.0,9011.0,New London County,90116905002.0
4585,sg:b92d0cf6c68645b5af32ff60fcc66df1,Subway,CT,2019-02-01T00:00:00-05:00,2019-03-01T00:00:00-05:00,6088,94,15.0,"{""<5"":10,""5-20"":40,""21-60"":22,""61-240"":20,"">240"":2}",4906.0,41.930496999999995,-72.604313,722513.0,CT,9.0,9003.0,Hartford County,90034841002.0
4602,sg:baa7dcaedbba401b8b56a7eccab935fd,Taftville Tennis Courts & Playground,CT,2019-02-01T00:00:00-05:00,2019-03-01T00:00:00-05:00,6380,311,54.0,"{""<5"":6,""5-20"":67,""21-60"":91,""61-240"":105,"">240"":42}",30420.5,41.568463,-72.05390799999999,713990.0,CT,9.0,9011.0,New London County,90116961002.0
4746,sg:c7a5d3b5903348d893dccd40c80ba01d,Riverview Park,CT,2019-02-01T00:00:00-05:00,2019-03-01T00:00:00-05:00,6484,169,29.0,"{""<5"":4,""5-20"":62,""21-60"":45,""61-240"":44,"">240"":14}",12589.5,41.323084,-73.10143199999999,713110.0,CT,9.0,9001.0,Fairfield County,90011106002.0
4761,sg:c97c3ab210f64f8f92f03dc4b53c4005,Welden Hardware,CT,2019-02-01T00:00:00-05:00,2019-03-01T00:00:00-05:00,6070,9,20.0,"{""<5"":0,""5-20"":5,""21-60"":1,""61-240"":2,"">240"":1}",644.0,41.874974,-72.800718,444130.0,CT,9.0,9003.0,Hartford County,90034663002.0
4920,sg:db2637b8da294db0a9207062fac8a850,Estate Buys Of West Hartford,CT,2019-02-01T00:00:00-05:00,2019-03-01T00:00:00-05:00,6110,20,46.5,"{""<5"":1,""5-20"":5,""21-60"":7,""61-240"":3,"">240"":4}",1760.0,41.73021,-72.726238,453310.0,CT,9.0,9003.0,Hartford County,90034961002.0
4991,sg:e1eaae92b1d34498a3e53c3295669eb3,400 Post Plaza,CT,2019-02-01T00:00:00-05:00,2019-03-01T00:00:00-05:00,6477,938,46.5,"{""<5"":18,""5-20"":212,""21-60"":347,""61-240"":318,"">240"":43}",74927.5,41.259749,-73.008772,531120.0,CT,9.0,9009.0,New Haven County,90091571001.0
5188,sg:f69f72574a62463db98a4fb02f90a370,CITGO,CT,2019-02-01T00:00:00-05:00,2019-03-01T00:00:00-05:00,6340,86,6.0,"{""<5"":12,""5-20"":57,""21-60"":8,""61-240"":3,"">240"":6}",2958.0,41.347421999999995,-72.021774,447110.0,CT,9.0,9011.0,New London County,90117028001.0
5200,sg:f8969377af4f43609de513a267d5b1e8,Five Guys,CT,2019-02-01T00:00:00-05:00,2019-03-01T00:00:00-05:00,6340,337,22.0,"{""<5"":7,""5-20"":147,""21-60"":105,""61-240"":47,"">240"":31}",20621.0,41.367777000000004,-72.064048,722513.0,CT,9.0,9011.0,New London County,90118702002.0
5356,sg:0885ebffc135418aa67eee59ad9211e1,New Colony Diner Bridgeport,CT,2019-02-01T00:00:00-05:00,2019-03-01T00:00:00-05:00,6606,112,181.5,"{""<5"":1,""5-20"":13,""21-60"":19,""61-240"":29,"">240"":50}",17299.0,41.206463,-73.179177,722511.0,CT,9.0,9001.0,Fairfield County,90010730001.0
5471,sg:1338dc88a14a4a7daea3e423447995eb,St Joseph School,CT,2019-02-01T00:00:00-05:00,2019-03-01T00:00:00-05:00,6255,110,33.0,"{""<5"":5,""5-20"":34,""21-60"":39,""61-240"":20,"">240"":12}",7907.0,41.979290999999996,-71.90258100000001,611110.0,CT,9.0,9015.0,Windham County,90159002004.0
5536,sg:18dd78886e8b45bfa41c576b8f9f7619,CARQUEST Auto Parts,CT,2019-02-01T00:00:00-05:00,2019-03-01T00:00:00-05:00,6035,32,20.0,"{""<5"":2,""5-20"":14,""21-60"":9,""61-240"":6,"">240"":1}",1687.5,41.951298,-72.787725,441310.0,CT,9.0,9003.0,Hartford County,90034681022.0
5546,sg:19d13aece64041ad95215d3c44549273,Connecticut Multispecialty Group,CT,2019-02-01T00:00:00-05:00,2019-03-01T00:00:00-05:00,6002,5,42.0,"{""<5"":0,""5-20"":1,""21-60"":2,""61-240"":1,"">240"":1}",484.0,41.816769,-72.724705,621111.0,CT,9.0,9003.0,Hartford County,90034713002.0
5654,sg:23ba517ae3624cef8e7c0a80eef813b8,Clinton Antique Center,CT,2019-02-01T00:00:00-05:00,2019-03-01T00:00:00-05:00,6413,229,19.0,"{""<5"":8,""5-20"":112,""21-60"":57,""61-240"":37,"">240"":15}",12897.0,41.277122999999996,-72.521103,453310.0,CT,9.0,9007.0,Middlesex County,90076102001.0
5745,sg:2c3783bfad734915acd6555f3f5fd1f6,Step,CT,2019-02-01T00:00:00-05:00,2019-03-01T00:00:00-05:00,6098,89,82.0,"{""<5"":0,""5-20"":14,""21-60"":10,""61-240"":65,"">240"":0}",10362.5,41.9134,-73.047156,611110.0,CT,9.0,9005.0,Litchfield County,90053201002.0
5754,sg:2cc5bf35216c403d8ac49a2adfd691fe,Choice Builder of Connecticut,CT,2019-02-01T00:00:00-05:00,2019-03-01T00:00:00-05:00,6801,64,33.0,"{""<5"":2,""5-20"":26,""21-60"":10,""61-240"":18,"">240"":8}",5364.0,41.364251,-73.41833000000001,811121.0,CT,9.0,9001.0,Fairfield County,90012001002.0
5919,sg:3e3127f8b25745f893e151c65e750608,Corbin's Crusaders Summer Day Camp,CT,2019-02-01T00:00:00-05:00,2019-03-01T00:00:00-05:00,6830,37,20.0,"{""<5"":0,""5-20"":19,""21-60"":11,""61-240"":2,"">240"":5}",2184.0,41.069893,-73.625132,713940.0,CT,9.0,9001.0,Fairfield County,90010102013.0
6022,sg:4832632fd0ed458c8373c3e38771fc66,Kennedy Fried Chicken,CT,2019-02-01T00:00:00-05:00,2019-03-01T00:00:00-05:00,6051,37,51.0,"{""<5"":1,""5-20"":10,""21-60"":10,""61-240"":14,"">240"":2}",3119.5,41.674101,-72.77369499999999,722511.0,CT,9.0,9003.0,Hartford County,90034162002.0
6078,sg:4cafb1de0dfd43868c1095172cc75341,Old Dutch Liquor Store,CT,2019-02-01T00:00:00-05:00,2019-03-01T00:00:00-05:00,6451,87,59.0,"{""<5"":4,""5-20"":24,""21-60"":17,""61-240"":23,"">240"":19}",9020.0,41.534724,-72.811584,445310.0,CT,9.0,9009.0,New Haven County,90091707001.0
6178,sg:57065489741144ecaaf6250a0c0aef56,Brooklyn Cafe,CT,2019-02-01T00:00:00-05:00,2019-03-01T00:00:00-05:00,6708,80,17.0,"{""<5"":2,""5-20"":41,""21-60"":16,""61-240"":17,"">240"":4}",4684.0,41.544836,-73.046136,722511.0,CT,9.0,9009.0,New Haven County,90093517002.0
6380,sg:6a31b9f860274475afa0ccb226162950,Glen Leroux Antiques,CT,2019-02-01T00:00:00-05:00,2019-03-01T00:00:00-05:00,6880,114,89.5,"{""<5"":1,""5-20"":14,""21-60"":32,""61-240"":43,"">240"":24}",13705.0,41.138443,-73.36393299999999,453310.0,CT,9.0,9001.0,Fairfield County,90010504001.0
6454,sg:7021ebabce6f49918a5ed210d5840de7,Expert Auto Service,CT,2019-02-01T00:00:00-05:00,2019-03-01T00:00:00-05:00,6450,19,21.0,"{""<5"":1,""5-20"":7,""21-60"":3,""61-240"":6,"">240"":2}",1594.5,41.530215000000005,-72.781467,811111.0,CT,9.0,9009.0,New Haven County,90091711001.0
6460,sg:71228703691f43f29eb997e23bb8f4f0,Stop & Shop,CT,2019-02-01T00:00:00-05:00,2019-03-01T00:00:00-05:00,6704,1217,16.0,"{""<5"":43,""5-20"":708,""21-60"":351,""61-240"":70,"">240"":45}",44508.0,41.582968,-73.031762,445110.0,CT,9.0,9009.0,New Haven County,90093525002.0
6928,sg:9f777c6eddfa4469a053b4ddde8188bd,Red Lobster,CT,2019-02-01T00:00:00-05:00,2019-03-01T00:00:00-05:00,6109,692,61.0,"{""<5"":14,""5-20"":145,""21-60"":186,""61-240"":327,"">240"":20}",63394.0,41.684579,-72.654062,722511.0,CT,9.0,9003.0,Hartford County,90034926001.0
6937,sg:a04974b7a125485c8e3d18a2fcfd763f,Sacred Heart Rectory,CT,2019-02-01T00:00:00-05:00,2019-03-01T00:00:00-05:00,6702,5,10.0,"{""<5"":0,""5-20"":4,""21-60"":1,""61-240"":0,"">240"":0}",90.5,41.5538,-73.026891,813110.0,CT,9.0,9009.0,New Haven County,90093512002.0
6972,sg:a4589a0327cf4af49bd089f754024a35,Cosi,CT,2019-02-01T00:00:00-05:00,2019-03-01T00:00:00-05:00,6905,405,15.0,"{""<5"":13,""5-20"":214,""21-60"":96,""61-240"":40,"">240"":42}",22695.5,41.110383,-73.54551500000001,722511.0,CT,9.0,9001.0,Fairfield County,90010207003.0
6983,sg:a521e0748a1246ba8759d4f1d71981e7,West Hartland Volunteer Fire Department,CT,2019-02-01T00:00:00-05:00,2019-03-01T00:00:00-05:00,6091,3,14.0,"{""<5"":0,""5-20"":2,""21-60"":1,""61-240"":0,"">240"":0}",65.5,41.945619,-72.790596,922160.0,CT,9.0,9003.0,Hartford County,90034681022.0
7045,sg:aa81c9eeb32448c3b7e0ad1d6b7cbc76,Xcelerate Moving,CT,2019-02-01T00:00:00-05:00,2019-03-01T00:00:00-05:00,6901,2,27.0,"{""<5"":0,""5-20"":1,""21-60"":1,""61-240"":0,"">240"":0}",53.0,41.051811,-73.53421,484210.0,CT,9.0,9001.0,Fairfield County,90010217002.0
7110,sg:b288420a9b8d4dd88a553612e5574146,Bruegger's,CT,2019-02-01T00:00:00-05:00,2019-03-01T00:00:00-05:00,6510,305,28.0,"{""<5"":18,""5-20"":110,""21-60"":70,""61-240"":82,"">240"":25}",22596.0,41.310534999999994,-72.922397,722513.0,CT,9.0,9009.0,New Haven County,90091420003.0
7120,sg:b3613bd98e9144018dc26c05ab3c8a90,Between Rounds Bakery Sandwich Cafe',CT,2019-02-01T00:00:00-05:00,2019-03-01T00:00:00-05:00,6074,225,20.0,"{""<5"":9,""5-20"":107,""21-60"":64,""61-240"":22,"">240"":23}",12783.0,41.80701,-72.556392,721110.0,CT,9.0,9003.0,Hartford County,90035141021.0
7342,sg:ca0b08fe13e840b89d8ce407fbe9b892,Steffano's Restaurant & Pizzeria,CT,2019-02-01T00:00:00-05:00,2019-03-01T00:00:00-05:00,6825,188,20.0,"{""<5"":4,""5-20"":95,""21-60"":50,""61-240"":34,"">240"":5}",9539.5,41.177452,-73.241327,722511.0,CT,9.0,9001.0,Fairfield County,90010610002.0
7430,sg:d41f1bd9b79047108f50fd33d4aa4c56,Mama Rosa Latin & American Grill,CT,2019-02-01T00:00:00-05:00,2019-03-01T00:00:00-05:00,6902,158,63.0,"{""<5"":2,""5-20"":49,""21-60"":27,""61-240"":26,"">240"":54}",18584.0,41.063392,-73.521608,722511.0,CT,9.0,9001.0,Fairfield County,90010218013.0
7895,sg:0569a144923e4fd38913f73b1984d219,Seymour Oxford Child Care Assoc,CT,2019-02-01T00:00:00-05:00,2019-03-01T00:00:00-05:00,6483,15,21.0,"{""<5"":0,""5-20"":7,""21-60"":3,""61-240"":2,"">240"":3}",1230.0,41.402274,-73.05555799999999,624410.0,CT,9.0,9009.0,New Haven County,90091301011.0
8014,sg:100f3f7c160f44a2bcb5c49422d54086,Brian J Henninger ND,CT,2019-02-01T00:00:00-05:00,2019-03-01T00:00:00-05:00,6824,1,11.0,"{""<5"":0,""5-20"":1,""21-60"":0,""61-240"":0,"">240"":0}",12.5,41.142277,-73.254933,621111.0,CT,9.0,9001.0,Fairfield County,90010615003.0
8145,sg:1a4d0ae9e0964f3d8fda1878d8fe532d,Montage Jewelers,CT,2019-02-01T00:00:00-05:00,2019-03-01T00:00:00-05:00,6010,22,21.0,"{""<5"":0,""5-20"":11,""21-60"":5,""61-240"":4,"">240"":2}",1422.0,41.680048,-72.903922,448310.0,CT,9.0,9003.0,Hartford County,90034053004.0
8355,sg:2e39ae65f1dc45878588e6264387bfe1,The Hop Yard,CT,2019-02-01T00:00:00-05:00,2019-03-01T00:00:00-05:00,6340,115,24.0,"{""<5"":3,""5-20"":52,""21-60"":20,""61-240"":35,"">240"":5}",7935.0,41.386661,-72.078156,722511.0,CT,9.0,9011.0,New London County,90118702001.0
8363,sg:2eb7f4765b244d5cb8b19674dd1ffbe1,Jellen Veronica N RN CPE,CT,2019-02-01T00:00:00-05:00,2019-03-01T00:00:00-05:00,6451,43,67.0,"{""<5"":0,""5-20"":10,""21-60"":9,""61-240"":9,"">240"":15}",5444.0,41.520973,-72.835463,446120.0,CT,9.0,9009.0,New Haven County,90091705004.0
8418,sg:32e58a09e07c42dfb40fb6b70718a637,Webster Bank,CT,2019-02-01T00:00:00-05:00,2019-03-01T00:00:00-05:00,6037,33,5.0,"{""<5"":1,""5-20"":28,""21-60"":1,""61-240"":1,"">240"":2}",1023.5,41.626746000000004,-72.747916,522110.0,CT,9.0,9003.0,Hartford County,90034001001.0
8577,sg:405d2677c33f4141b2b4fca9d9364c6d,MAGIC at the DELAMAR Southport,CT,2019-02-01T00:00:00-05:00,2019-03-01T00:00:00-05:00,6824,23,11.0,"{""<5"":4,""5-20"":8,""21-60"":4,""61-240"":5,"">240"":2}",1504.5,41.146253,-73.245798,446130.0,CT,9.0,9001.0,Fairfield County,90010615002.0
8638,sg:46f14d82209b441b8cda0f7aaf9544bd,Christ And Holy Trinity Preschool,CT,2019-02-01T00:00:00-05:00,2019-03-01T00:00:00-05:00,6880,31,64.0,"{""<5"":0,""5-20"":10,""21-60"":4,""61-240"":8,"">240"":9}",3651.0,41.142625,-73.359863,624410.0,CT,9.0,9001.0,Fairfield County,90010502002.0
8692,sg:4b46baca766a45af943de06fa0985001,Taste of Brasil,CT,2019-02-01T00:00:00-05:00,2019-03-01T00:00:00-05:00,6851,142,22.0,"{""<5"":3,""5-20"":60,""21-60"":56,""61-240"":17,"">240"":6}",7024.0,41.125575,-73.4196,722511.0,CT,9.0,9001.0,Fairfield County,90010434002.0
8948,sg:612d59c0402d4312af540eca5d04cb03,Doral Dental,CT,2019-02-01T00:00:00-05:00,2019-03-01T00:00:00-05:00,6479,12,27.5,"{""<5"":1,""5-20"":5,""21-60"":1,""61-240"":3,"">240"":2}",1037.0,41.578068,-72.890748,621210.0,CT,9.0,9003.0,Hartford County,90034304001.0
8955,sg:6297a12a14494600a142d84c3bd31c45,Zenplex Incorporated,CT,2019-02-01T00:00:00-05:00,2019-03-01T00:00:00-05:00,6460,5,249.0,"{""<5"":0,""5-20"":2,""21-60"":0,""61-240"":0,"">240"":3}",745.0,41.231019,-73.02050899999999,443142.0,CT,9.0,9009.0,New Haven County,90091511004.0
9048,sg:6b119b341aeb4ddf84849bf6ddfff2b3,Valley Package Store,CT,2019-02-01T00:00:00-05:00,2019-03-01T00:00:00-05:00,6776,12,7.5,"{""<5"":0,""5-20"":10,""21-60"":2,""61-240"":0,"">240"":0}",206.0,41.525263,-73.423011,445310.0,CT,9.0,9005.0,Litchfield County,90052534004.0
9230,sg:7ff12b94da4f4fafb0a6294acc37631e,Jenny Le Nail Salon,CT,2019-02-01T00:00:00-05:00,2019-03-01T00:00:00-05:00,6037,11,49.0,"{""<5"":0,""5-20"":4,""21-60"":3,""61-240"":4,"">240"":0}",773.5,41.633889,-72.78944,812113.0,CT,9.0,9003.0,Hartford County,90034003006.0
9236,sg:80386f8f5336482d83da377615a5121d,Cassio Pet Resort & Training Center,CT,2019-02-01T00:00:00-05:00,2019-03-01T00:00:00-05:00,6470,8,5.0,"{""<5"":0,""5-20"":7,""21-60"":1,""61-240"":0,"">240"":0}",128.0,41.413905,-73.371042,812910.0,CT,9.0,9001.0,Fairfield County,90012303001.0
9275,sg:831d43694536477d92c7b325e8fd8705,Tilden's Seafood,CT,2019-02-01T00:00:00-05:00,2019-03-01T00:00:00-05:00,6759,6,138.5,"{""<5"":0,""5-20"":3,""21-60"":0,""61-240"":0,"">240"":3}",757.5,41.74666,-73.197501,722511.0,CT,9.0,9005.0,Litchfield County,90053004001.0
9283,sg:844e5f0cdf1b4772bb4e5f8f6a5be783,Storage Pros,CT,2019-02-01T00:00:00-05:00,2019-03-01T00:00:00-05:00,6095,17,16.0,"{""<5"":3,""5-20"":7,""21-60"":4,""61-240"":1,"">240"":2}",887.5,41.867402,-72.681926,531130.0,CT,9.0,9003.0,Hartford County,90034735013.0
9366,sg:8c1f043edb7b419eac48a915450300d5,Hybrid Athletics Bridgeport,CT,2019-02-01T00:00:00-05:00,2019-03-01T00:00:00-05:00,6605,126,80.5,"{""<5"":0,""5-20"":20,""21-60"":28,""61-240"":27,"">240"":51}",17687.5,41.170219,-73.210626,713940.0,CT,9.0,9001.0,Fairfield County,90010710001.0
9370,sg:8c5d7e043d5f4d0eae36c1cf0e78f469,Colonial Point Christian Church,CT,2019-02-01T00:00:00-05:00,2019-03-01T00:00:00-05:00,6074,538,47.0,"{""<5"":7,""5-20"":182,""21-60"":94,""61-240"":176,"">240"":79}",51547.5,41.826502000000005,-72.525094,813110.0,CT,9.0,9003.0,Hartford County,90034872013.0
9415,sg:916378f5462d4da7a6bc317c31cc1c7d,Mr Crab Seafood &amp Bar,CT,2019-02-01T00:00:00-05:00,2019-03-01T00:00:00-05:00,6510,98,17.0,"{""<5"":3,""5-20"":50,""21-60"":20,""61-240"":23,"">240"":2}",5384.0,41.304797,-72.92811,722511.0,CT,9.0,9009.0,New Haven County,90091401001.0
9476,sg:972fc657c46a452c985fb9eac7a8018f,LTD Driving School,CT,2019-02-01T00:00:00-05:00,2019-03-01T00:00:00-05:00,6606,185,29.0,"{""<5"":3,""5-20"":66,""21-60"":67,""61-240"":32,"">240"":17}",12442.0,41.19185,-73.204391,453310.0,CT,9.0,9001.0,Fairfield County,90010720001.0
9488,sg:98f5ca2c1eca4b8baef8b41aba7b7592,Paul Leckowicz DMD,CT,2019-02-01T00:00:00-05:00,2019-03-01T00:00:00-05:00,6111,2,53.0,"{""<5"":0,""5-20"":0,""21-60"":2,""61-240"":0,"">240"":0}",81.0,41.696351,-72.720845,621210.0,CT,9.0,9003.0,Hartford County,90034944002.0
9558,sg:9f2dc480f29b4dd893a623d600e46c36,Connecticut Commons,CT,2019-02-01T00:00:00-05:00,2019-03-01T00:00:00-05:00,6062,7812,23.0,"{""<5"":127,""5-20"":3300,""21-60"":2585,""61-240"":1649,"">240"":151}",430674.5,41.674994,-72.842726,531120.0,CT,9.0,9003.0,Hartford County,90034206004.0
9563,sg:9ff2aee38e5d4e1f8306299cb1c3d0d9,Sherwin-Williams,CT,2019-02-01T00:00:00-05:00,2019-03-01T00:00:00-05:00,6108,259,48.0,"{""<5"":3,""5-20"":78,""21-60"":64,""61-240"":78,"">240"":36}",23953.5,41.780372,-72.62300400000001,444120.0,CT,9.0,9003.0,Hartford County,90035103002.0
9570,sg:a0ce2bd9c9d849fe892e152a7212d1d8,Spring Janis Abrahms Psychlgst,CT,2019-02-01T00:00:00-05:00,2019-03-01T00:00:00-05:00,6880,5,16.0,"{""<5"":0,""5-20"":3,""21-60"":2,""61-240"":0,"">240"":0}",118.5,41.153893,-73.35080699999999,621330.0,CT,9.0,9001.0,Fairfield County,90010502001.0
9667,sg:aa8964b6f7b84d808d9a21c0879ff251,Mary Ann Bunting Ameriprise Financial Services,CT,2019-02-01T00:00:00-05:00,2019-03-01T00:00:00-05:00,6890,44,132.5,"{""<5"":0,""5-20"":3,""21-60"":10,""61-240"":16,"">240"":15}",6450.5,41.13947,-73.274909,523930.0,CT,9.0,9001.0,Fairfield County,90010606001.0
9711,sg:b079494bbfc64877a134d16d17ee6839,Bagels Plus & Deli,CT,2019-02-01T00:00:00-05:00,2019-03-01T00:00:00-05:00,6010,180,13.5,"{""<5"":10,""5-20"":104,""21-60"":46,""61-240"":18,"">240"":2}",6377.0,41.691249,-72.922102,722511.0,CT,9.0,9003.0,Hartford County,90034060011.0
9831,sg:bb8a6cf06ec148f79c35ee043ac42007,Darien Toy Box,CT,2019-02-01T00:00:00-05:00,2019-03-01T00:00:00-05:00,6820,219,35.0,"{""<5"":9,""5-20"":72,""21-60"":58,""61-240"":46,"">240"":34}",18354.5,41.074689,-73.472353,451120.0,CT,9.0,9001.0,Fairfield County,90010304001.0
10139,sg:dafcccd2179e48729595541f01479ff2,Modern Lumber True Value,CT,2019-02-01T00:00:00-05:00,2019-03-01T00:00:00-05:00,6260,21,11.0,"{""<5"":0,""5-20"":16,""21-60"":4,""61-240"":0,"">240"":1}",602.0,41.913571999999995,-71.9092,444130.0,CT,9.0,9015.0,Windham County,90159031007.0
10165,sg:de288d096f534af487fd30a5c46eb67f,Petco,CT,2019-02-01T00:00:00-05:00,2019-03-01T00:00:00-05:00,6776,233,19.0,"{""<5"":6,""5-20"":118,""21-60"":55,""61-240"":22,"">240"":32}",14708.5,41.549879,-73.415143,453910.0,CT,9.0,9005.0,Litchfield County,90052536001.0
10215,sg:e2daaf8489564c2ba5ad6389535156a3,Dunkin',CT,2019-02-01T00:00:00-05:00,2019-03-01T00:00:00-05:00,6787,503,7.0,"{""<5"":40,""5-20"":387,""21-60"":41,""61-240"":29,"">240"":6}",12402.5,41.661628,-73.079531,722515.0,CT,9.0,9005.0,Litchfield County,90053492002.0
10237,sg:e565819bbc0b4f60ac7cba2e39c44d4c,Crostini,CT,2019-02-01T00:00:00-05:00,2019-03-01T00:00:00-05:00,6405,31,32.0,"{""<5"":0,""5-20"":10,""21-60"":11,""61-240"":6,"">240"":4}",2433.5,41.277116,-72.809587,722511.0,CT,9.0,9009.0,New Haven County,90091841002.0
10263,sg:e8f4cb99c9a1419e90e1a8d94237366d,Second Chance Decor by Laura,CT,2019-02-01T00:00:00-05:00,2019-03-01T00:00:00-05:00,6057,7,8.0,"{""<5"":0,""5-20"":6,""21-60"":1,""61-240"":0,"">240"":0}",115.5,41.874212,-72.966649,442110.0,CT,9.0,9005.0,Litchfield County,90053061001.0
10348,sg:f1aaee4524f04577bc4d7485264e6374,Wayback Burgers,CT,2019-02-01T00:00:00-05:00,2019-03-01T00:00:00-05:00,6614,182,11.0,"{""<5"":14,""5-20"":105,""21-60"":49,""61-240"":10,"">240"":4}",5797.0,41.199382,-73.131165,722513.0,CT,9.0,9001.0,Fairfield County,90010808002.0
10380,sg:f5a6004a20b04ccc9fd7c2cf0be2ed32,The Owl's Nest Day School,CT,2019-02-01T00:00:00-05:00,2019-03-01T00:00:00-05:00,6259,5,12.0,"{""<5"":1,""5-20"":2,""21-60"":0,""61-240"":1,"">240"":1}",418.0,41.870193,-71.962425,624410.0,CT,9.0,9015.0,Windham County,90159025002.0
10585,sg:09462ca4c8a04a2ba7d3f10a72d21fca,Montessori School Of Madison,CT,2019-02-01T00:00:00-05:00,2019-03-01T00:00:00-05:00,6443,17,12.0,"{""<5"":1,""5-20"":9,""21-60"":1,""61-240"":5,"">240"":1}",1148.0,41.294621,-72.62701700000001,611110.0,CT,9.0,9009.0,New Haven County,90091942014.0
10638,sg:0e83bebe77df4030a701985c447257cc,Great Wraps Grill,CT,2019-02-01T00:00:00-05:00,2019-03-01T00:00:00-05:00,6901,135,27.0,"{""<5"":4,""5-20"":47,""21-60"":52,""61-240"":22,"">240"":10}",8414.5,41.053785,-73.53698399999999,722513.0,CT,9.0,9001.0,Fairfield County,90010201002.0
10792,sg:1bdaf3dffa8848fa8bbe28e2a6ed601a,All Fur Paws,CT,2019-02-01T00:00:00-05:00,2019-03-01T00:00:00-05:00,6830,41,8.0,"{""<5"":3,""5-20"":21,""21-60"":1,""61-240"":1,"">240"":15}",4061.0,41.022574,-73.619499,453910.0,CT,9.0,9001.0,Fairfield County,90010107003.0
10822,sg:1f2df28abfbe41d3b277327cdb410ce5,Dick's Sporting Goods,CT,2019-02-01T00:00:00-05:00,2019-03-01T00:00:00-05:00,6111,421,20.0,"{""<5"":16,""5-20"":222,""21-60"":142,""61-240"":35,"">240"":6}",15273.5,41.668358000000005,-72.721822,451110.0,CT,9.0,9003.0,Hartford County,90034941002.0
10999,sg:30dfaebe4c9a428d9bca993016bfa73f,KinderCare,CT,2019-02-01T00:00:00-05:00,2019-03-01T00:00:00-05:00,6426,67,13.0,"{""<5"":1,""5-20"":36,""21-60"":5,""61-240"":5,"">240"":20}",6207.5,41.337688,-72.417739,624410.0,CT,9.0,9007.0,Middlesex County,90076301006.0
11018,sg:334d061ee4ba4a36a7ce8f6a896ff82b,Newtown Pizza Palace,CT,2019-02-01T00:00:00-05:00,2019-03-01T00:00:00-05:00,6470,210,21.0,"{""<5"":12,""5-20"":90,""21-60"":55,""61-240"":39,"">240"":14}",12612.0,41.417777,-73.29471099999999,722511.0,CT,9.0,9001.0,Fairfield County,90012301003.0
11232,sg:4a30fcd86192493f88751d1e354bbe82,Black Rock Preschool & Childcare Center,CT,2019-02-01T00:00:00-05:00,2019-03-01T00:00:00-05:00,6605,49,67.0,"{""<5"":2,""5-20"":14,""21-60"":6,""61-240"":23,"">240"":4}",4844.5,41.158815000000004,-73.23082600000001,624410.0,CT,9.0,9001.0,Fairfield County,90010701004.0
11404,sg:5a0e0fab31464e1ba9123f578d2f6684,Gluten Free Oasis,CT,2019-02-01T00:00:00-05:00,2019-03-01T00:00:00-05:00,6804,167,22.0,"{""<5"":5,""5-20"":67,""21-60"":47,""61-240"":21,"">240"":27}",12394.0,41.467178000000004,-73.410332,722515.0,CT,9.0,9001.0,Fairfield County,90012051002.0
11528,sg:66119e2313fd46beb85d10a9be1ee27c,Farmers Insurance Group,CT,2019-02-01T00:00:00-05:00,2019-03-01T00:00:00-05:00,6804,2,7.0,"{""<5"":1,""5-20"":1,""21-60"":0,""61-240"":0,"">240"":0}",15.0,41.437698,-73.40863900000001,524210.0,CT,9.0,9001.0,Fairfield County,90012053003.0
11666,sg:73026b5927b644b0b9cef3392ecbb758,Roma Florist & Greenhouse,CT,2019-02-01T00:00:00-05:00,2019-03-01T00:00:00-05:00,6787,94,38.0,"{""<5"":2,""5-20"":29,""21-60"":22,""61-240"":19,"">240"":22}",9398.0,41.671426000000004,-73.077013,453110.0,CT,9.0,9005.0,Litchfield County,90053492002.0
11730,sg:787b578f21bd43fa8b2b04b977090da1,American Home Care,CT,2019-02-01T00:00:00-05:00,2019-03-01T00:00:00-05:00,6082,59,238.0,"{""<5"":0,""5-20"":7,""21-60"":5,""61-240"":18,"">240"":29}",9959.0,42.000609000000004,-72.550597,621610.0,CT,9.0,9003.0,Hartford County,90035243002.0
11757,sg:7b54f838f85348ad8777150643ed27f6,Baystate Radiology & Imaging,CT,2019-02-01T00:00:00-05:00,2019-03-01T00:00:00-05:00,6082,28,79.0,"{""<5"":0,""5-20"":5,""21-60"":7,""61-240"":9,"">240"":7}",3380.5,42.000372,-72.581013,621111.0,CT,9.0,9003.0,Hartford County,90034804002.0
11864,sg:860754e96ecd4f22a378e725f51af8d8,Customized Care and Companionship for Seniors,CT,2019-02-01T00:00:00-05:00,2019-03-01T00:00:00-05:00,6053,90,101.5,"{""<5"":1,""5-20"":24,""21-60"":12,""61-240"":22,"">240"":31}",11539.5,41.695753,-72.78572,621610.0,CT,9.0,9003.0,Hartford County,90034175003.0
12033,sg:94f43fb9718f4ca7b221aae5aa6ab5fc,Anacara,CT,2019-02-01T00:00:00-05:00,2019-03-01T00:00:00-05:00,6902,130,132.5,"{""<5"":2,""5-20"":30,""21-60"":14,""61-240"":42,"">240"":42}",17348.0,41.04222,-73.52395200000001,442110.0,CT,9.0,9001.0,Fairfield County,90010221002.0
12158,sg:a23ad2e29f734e3cbf6a9f8b2dfbd778,Mexico Chapin Restaurant & Bakery,CT,2019-02-01T00:00:00-05:00,2019-03-01T00:00:00-05:00,6610,36,195.5,"{""<5"":1,""5-20"":2,""21-60"":7,""61-240"":9,"">240"":17}",5745.5,41.207848,-73.17865400000001,722511.0,CT,9.0,9001.0,Fairfield County,90010731002.0
12451,sg:c13799aaddef47f4aa4db39d6331cfd9,The Good Feet Store,CT,2019-02-01T00:00:00-05:00,2019-03-01T00:00:00-05:00,6473,1,5.0,"{""<5"":0,""5-20"":1,""21-60"":0,""61-240"":0,"">240"":0}",12.5,41.356183,-72.87005,446199.0,CT,9.0,9009.0,New Haven County,90091672012.0
12473,sg:c3e60cee4c1f46b99c558546834d7eeb,Everson Soccer Complex,CT,2019-02-01T00:00:00-05:00,2019-03-01T00:00:00-05:00,6525,475,64.0,"{""<5"":1,""5-20"":72,""21-60"":148,""61-240"":248,"">240"":6}",45660.5,41.344021000000005,-72.97366,713940.0,CT,9.0,9009.0,New Haven County,90091602001.0
12635,sg:d28f29166f0b42af8d11285c113efa58,Omega Seventh Day Adventist Church,CT,2019-02-01T00:00:00-05:00,2019-03-01T00:00:00-05:00,6511,247,51.0,"{""<5"":2,""5-20"":73,""21-60"":54,""61-240"":50,"">240"":68}",26949.5,41.311611,-72.94758,813110.0,CT,9.0,9009.0,New Haven County,90091408002.0
12716,sg:d9e8cf5adca94142b8d691195f86ff61,CITGO,CT,2019-02-01T00:00:00-05:00,2019-03-01T00:00:00-05:00,6492,93,40.0,"{""<5"":3,""5-20"":33,""21-60"":22,""61-240"":26,"">240"":9}",7384.0,41.46667,-72.818777,447110.0,CT,9.0,9009.0,New Haven County,90091754001.0
13044,sg:f9779ffb0a9048e086b3ccbf17ab74de,Webster Bank,CT,2019-02-01T00:00:00-05:00,2019-03-01T00:00:00-05:00,6468,8,6.0,"{""<5"":0,""5-20"":8,""21-60"":0,""61-240"":0,"">240"":0}",100.0,41.316656,-73.21692,522110.0,CT,9.0,9001.0,Fairfield County,90011002002.0
13079,sg:fc86a62ceeb643efb37aa809d1dcefdd,Brookside Pawn,CT,2019-02-01T00:00:00-05:00,2019-03-01T00:00:00-05:00,6489,106,71.5,"{""<5"":6,""5-20"":28,""21-60"":18,""61-240"":28,"">240"":26}",11548.0,41.642975,-72.873334,453310.0,CT,9.0,9003.0,Hartford County,90034302011.0
13199,sg:07cba24eea2145828f500579c755126c,Neuro Spinal Center,CT,2019-02-01T00:00:00-05:00,2019-03-01T00:00:00-05:00,6516,6,29.5,"{""<5"":0,""5-20"":3,""21-60"":1,""61-240"":1,"">240"":1}",468.5,41.306540000000005,-72.970708,621310.0,CT,9.0,9009.0,New Haven County,90091541004.0
13216,sg:09c7d55f6f7a435baddb47c15d47277e,O'Reilly Auto Parts,CT,2019-02-01T00:00:00-05:00,2019-03-01T00:00:00-05:00,6457,49,20.0,"{""<5"":2,""5-20"":23,""21-60"":11,""61-240"":13,"">240"":0}",2694.5,41.554819,-72.679408,441310.0,CT,9.0,9007.0,Middlesex County,90075414023.0
13233,sg:0b54d617b4734160ab4cecad4ca5dbe4,Advanced Psychological Services,CT,2019-02-01T00:00:00-05:00,2019-03-01T00:00:00-05:00,6084,1,7.0,"{""<5"":0,""5-20"":1,""21-60"":0,""61-240"":0,"">240"":0}",12.5,41.853502,-72.338894,621111.0,CT,9.0,9013.0,Tolland County,90135331022.0
13422,sg:1af825e200fd484ea3ffa51d72743bc4,St Francis of Assisi Church,CT,2019-02-01T00:00:00-05:00,2019-03-01T00:00:00-05:00,6074,50,22.0,"{""<5"":2,""5-20"":22,""21-60"":12,""61-240"":13,"">240"":1}",2962.5,41.812652,-72.59331999999999,813110.0,CT,9.0,9003.0,Hartford County,90034875001.0
13561,sg:27c5fc950eb844c1bd6a3c3ea547d58f,Scotts' Jamaican Bakery,CT,2019-02-01T00:00:00-05:00,2019-03-01T00:00:00-05:00,6120,127,44.0,"{""<5"":3,""5-20"":42,""21-60"":26,""61-240"":39,"">240"":17}",11535.0,41.78967,-72.669495,311811.0,CT,9.0,9003.0,Hartford County,90035244002.0
13568,sg:28f723a0cb6048e1a758f47284909662,Figlar Insurance,CT,2019-02-01T00:00:00-05:00,2019-03-01T00:00:00-05:00,6516,19,28.0,"{""<5"":1,""5-20"":5,""21-60"":8,""61-240"":5,"">240"":0}",1141.5,41.258934,-72.956688,524210.0,CT,9.0,9009.0,New Haven County,90091549003.0
13628,sg:2eabb428c930443ea15053f904122ba7,Elise Besse Park,CT,2019-02-01T00:00:00-05:00,2019-03-01T00:00:00-05:00,6790,141,11.0,"{""<5"":5,""5-20"":90,""21-60"":14,""61-240"":16,"">240"":16}",7952.5,41.813648,-73.112341,712190.0,CT,9.0,9005.0,Litchfield County,90053101001.0
13838,sg:4350cde8f66f461eab7878152a6a055b,Mana Bakery,CT,2019-02-01T00:00:00-05:00,2019-03-01T00:00:00-05:00,6450,45,8.0,"{""<5"":5,""5-20"":33,""21-60"":2,""61-240"":4,"">240"":1}",1348.0,41.548045,-72.793329,311811.0,CT,9.0,9009.0,New Haven County,90091715003.0
13871,sg:47190bec27d246a7a349e4f3239b6252,Denison Pequotsepos Nature Center Preschool,CT,2019-02-01T00:00:00-05:00,2019-03-01T00:00:00-05:00,6355,14,10.5,"{""<5"":0,""5-20"":9,""21-60"":4,""61-240"":0,"">240"":1}",514.5,41.362435,-71.94678499999999,624410.0,CT,9.0,9011.0,New London County,90117053003.0
13928,sg:4ba7f5bed2174af9b1f4f0f81ee0402f,Beach Party Balloons,CT,2019-02-01T00:00:00-05:00,2019-03-01T00:00:00-05:00,6460,17,94.0,"{""<5"":0,""5-20"":4,""21-60"":2,""61-240"":5,"">240"":6}",2323.5,41.202366,-73.10189100000001,531130.0,CT,9.0,9009.0,New Haven County,90091503003.0
13978,sg:503aa058e2474199a1ab2168128112e0,Crystal Auto,CT,2019-02-01T00:00:00-05:00,2019-03-01T00:00:00-05:00,6330,3,24.0,"{""<5"":0,""5-20"":0,""21-60"":2,""61-240"":1,"">240"":0}",231.5,41.615584999999996,-72.085965,488410.0,CT,9.0,9011.0,New London County,90117111002.0
13992,sg:52c34fef86484d96bf5328fa823e0b17,Doughlicious Edible Cookie Dough,CT,2019-02-01T00:00:00-05:00,2019-03-01T00:00:00-05:00,6511,11,11.0,"{""<5"":0,""5-20"":8,""21-60"":1,""61-240"":0,"">240"":2}",620.5,41.315604,-72.91028299999999,722515.0,CT,9.0,9009.0,New Haven County,90091420001.0
14197,sg:683916088d3f4b88918832751ebc1787,Desktop Publishing Supplies,CT,2019-02-01T00:00:00-05:00,2019-03-01T00:00:00-05:00,6514,39,16.0,"{""<5"":0,""5-20"":23,""21-60"":6,""61-240"":6,"">240"":4}",2393.5,41.393361999999996,-72.9173,453210.0,CT,9.0,9009.0,New Haven County,90091659004.0
14241,sg:6c5cbfc18a054d50b3834d1093e68922,Macri Service,CT,2019-02-01T00:00:00-05:00,2019-03-01T00:00:00-05:00,6001,273,25.0,"{""<5"":6,""5-20"":115,""21-60"":67,""61-240"":63,"">240"":22}",18927.5,41.796049,-72.837688,238220.0,CT,9.0,9003.0,Hartford County,90034622013.0
14409,sg:7d8ce6085516490abeec4b741e4c5311,Hartford Springfield Auction,CT,2019-02-01T00:00:00-05:00,2019-03-01T00:00:00-05:00,6026,150,75.5,"{""<5"":2,""5-20"":33,""21-60"":26,""61-240"":73,"">240"":16}",16297.0,41.944021,-72.70093299999999,522298.0,CT,9.0,9003.0,Hartford County,90034701004.0
14502,sg:8635efdbf2844a1f9047a25a3d2efb4d,Berean Baptist Church,CT,2019-02-01T00:00:00-05:00,2019-03-01T00:00:00-05:00,6795,1,87.0,"{""<5"":0,""5-20"":0,""21-60"":0,""61-240"":1,"">240"":0}",150.5,41.631599,-73.139268,813110.0,CT,9.0,9005.0,Litchfield County,90053602001.0
14550,sg:8bf28360052b4083b0abb580e905be4e,99 Restaurants,CT,2019-02-01T00:00:00-05:00,2019-03-01T00:00:00-05:00,6614,387,44.0,"{""<5"":7,""5-20"":91,""21-60"":159,""61-240"":120,"">240"":10}",28054.5,41.197976000000004,-73.124726,722511.0,CT,9.0,9001.0,Fairfield County,90010807001.0
14642,sg:94baf9835fdf48c49f1bf65ede742cc5,Rehabilitation Associates,CT,2019-02-01T00:00:00-05:00,2019-03-01T00:00:00-05:00,6484,22,47.5,"{""<5"":0,""5-20"":5,""21-60"":8,""61-240"":5,"">240"":4}",2099.0,41.286092,-73.115356,621399.0,CT,9.0,9001.0,Fairfield County,90011103014.0
14739,sg:9c9599c1fa6a41839d9b84ad2407be05,Top Nail,CT,2019-02-01T00:00:00-05:00,2019-03-01T00:00:00-05:00,6416,46,78.0,"{""<5"":1,""5-20"":8,""21-60"":11,""61-240"":12,"">240"":14}",5714.0,41.602872,-72.67932900000001,812113.0,CT,9.0,9007.0,Middlesex County,90075701003.0
14882,sg:ab997451b1094addb86057f8d8ec655c,Batteries Plus Bulbs,CT,2019-02-01T00:00:00-05:00,2019-03-01T00:00:00-05:00,6111,139,18.0,"{""<5"":5,""5-20"":74,""21-60"":41,""61-240"":11,"">240"":8}",6173.5,41.655151000000004,-72.725117,441310.0,CT,9.0,9003.0,Hartford County,90034942022.0
14948,sg:b27959fb3d094bd3a16ede0dcd7bd0fb,Body By Bliss Pilates,CT,2019-02-01T00:00:00-05:00,2019-03-01T00:00:00-05:00,6378,61,54.0,"{""<5"":0,""5-20"":8,""21-60"":25,""61-240"":19,"">240"":9}",6132.0,41.338179,-71.897216,713940.0,CT,9.0,9011.0,New London County,90117052002.0
14967,sg:b3f8c99dae984697848d78962b517d71,Litchfield War Monuments,CT,2019-02-01T00:00:00-05:00,2019-03-01T00:00:00-05:00,6759,184,47.0,"{""<5"":3,""5-20"":35,""21-60"":79,""61-240"":55,"">240"":12}",14802.0,41.747019,-73.190816,712120.0,CT,9.0,9005.0,Litchfield County,90053004001.0
14992,sg:b627ba83ec3d4470b206f170da5e6fc7,Escape To the Arts,CT,2019-02-01T00:00:00-05:00,2019-03-01T00:00:00-05:00,6810,54,9.0,"{""<5"":5,""5-20"":32,""21-60"":3,""61-240"":8,"">240"":6}",3178.0,41.396136,-73.45389899999999,451140.0,CT,9.0,9001.0,Fairfield County,90012101002.0
15011,sg:b848a952d1a94a05949e9cd1199fd381,Bravo Supermarkets,CT,2019-02-01T00:00:00-05:00,2019-03-01T00:00:00-05:00,6112,158,22.5,"{""<5"":2,""5-20"":75,""21-60"":41,""61-240"":18,"">240"":22}",10592.0,41.781258,-72.69833299999999,445110.0,CT,9.0,9003.0,Hartford County,90035037002.0
15025,sg:b9d8f6d6a84c4e1d8df2547009d0cc7c,The Rolling Bar,CT,2019-02-01T00:00:00-05:00,2019-03-01T00:00:00-05:00,6854,2,204.0,"{""<5"":0,""5-20"":0,""21-60"":0,""61-240"":1,"">240"":1}",390.5,41.086776,-73.440579,722515.0,CT,9.0,9001.0,Fairfield County,90010439004.0
15103,sg:c2643eb7e23b49dba96082d45f9268ea,Fox Run Elementary School,CT,2019-02-01T00:00:00-05:00,2019-03-01T00:00:00-05:00,6850,147,28.0,"{""<5"":4,""5-20"":60,""21-60"":33,""61-240"":20,"">240"":30}",12306.5,41.116053,-73.454346,624410.0,,,,,
15115,sg:c38727ca00484c649e82800694e3f569,Granite City Electric,CT,2019-02-01T00:00:00-05:00,2019-03-01T00:00:00-05:00,6114,2,417.0,"{""<5"":0,""5-20"":1,""21-60"":0,""61-240"":0,"">240"":1}",252.5,41.735304,-72.657433,423610.0,CT,9.0,9003.0,Hartford County,90035025001.0
15117,sg:c3acaddc2efe46218fab3da6ffe1771d,CRC Services,CT,2019-02-01T00:00:00-05:00,2019-03-01T00:00:00-05:00,6095,10,200.0,"{""<5"":0,""5-20"":0,""21-60"":2,""61-240"":5,"">240"":3}",1553.5,41.848919,-72.64611,541213.0,CT,9.0,9003.0,Hartford County,90034734002.0
15179,sg:c8bc3141426b4e3c809f4a917fbe6a08,Special Occasions Bridal House,CT,2019-02-01T00:00:00-05:00,2019-03-01T00:00:00-05:00,6473,14,50.0,"{""<5"":0,""5-20"":4,""21-60"":4,""61-240"":6,"">240"":0}",1115.0,41.372446000000004,-72.85167,448120.0,CT,9.0,9009.0,New Haven County,90091672012.0
15391,sg:dd025c61860d4066a329bbcc39cd5cda,United States Postal Service (USPS),CT,2019-02-01T00:00:00-05:00,2019-03-01T00:00:00-05:00,6037,68,9.0,"{""<5"":2,""5-20"":47,""21-60"":10,""61-240"":9,"">240"":0}",2352.0,41.632419,-72.768862,491110.0,CT,9.0,9003.0,Hartford County,90034003003.0
15434,sg:e1a8b0a699494f9882a2f74553465d66,Velo CT Pilates,CT,2019-02-01T00:00:00-05:00,2019-03-01T00:00:00-05:00,6851,60,21.0,"{""<5"":0,""5-20"":28,""21-60"":23,""61-240"":8,"">240"":1}",2725.5,41.12815,-73.388205,713940.0,CT,9.0,9001.0,Fairfield County,90010426004.0
15454,sg:e3a2ca0021e24dec9ce14633db7f3a99,Stamford Dental Spa,CT,2019-02-01T00:00:00-05:00,2019-03-01T00:00:00-05:00,6901,1,556.0,"{""<5"":0,""5-20"":0,""21-60"":0,""61-240"":0,"">240"":1}",240.0,41.055423,-73.538313,621210.0,CT,9.0,9001.0,Fairfield County,90010201001.0
15502,sg:e6c2099a8cc4469a8182cd6917b1278b,Runabout Farm,CT,2019-02-01T00:00:00-05:00,2019-03-01T00:00:00-05:00,6902,10,18.5,"{""<5"":1,""5-20"":6,""21-60"":3,""61-240"":0,"">240"":0}",199.0,41.087839,-73.559783,453220.0,CT,9.0,9001.0,Fairfield County,90010205001.0
15632,sg:f41925bc481248a3a095c5c6262d5ea9,Holland's Garage,CT,2019-02-01T00:00:00-05:00,2019-03-01T00:00:00-05:00,6437,10,55.5,"{""<5"":0,""5-20"":3,""21-60"":3,""61-240"":3,"">240"":1}",850.5,41.278563,-72.66549300000001,441120.0,CT,9.0,9009.0,New Haven County,90091901003.0
15877,sg:0bf5c3f624bb4efd9f632b31fe79e8d7,First Baptist Church In New Haven,CT,2019-02-01T00:00:00-05:00,2019-03-01T00:00:00-05:00,6511,133,151.0,"{""<5"":3,""5-20"":23,""21-60"":13,""61-240"":53,"">240"":41}",18638.0,41.319039000000004,-72.916347,813110.0,CT,9.0,9009.0,New Haven County,90091419004.0
15918,sg:0f941e6c68fb41b3bbae2e6571c2c060,Deerfield Package Store,CT,2019-02-01T00:00:00-05:00,2019-03-01T00:00:00-05:00,6095,92,256.5,"{""<5"":3,""5-20"":27,""21-60"":7,""61-240"":9,"">240"":46}",13023.0,41.82498,-72.65364,445310.0,CT,9.0,9003.0,Hartford County,90034737006.0
15940,sg:1181bd98a64942de84f091a1944b641e,Cromwell Concrete Products,CT,2019-02-01T00:00:00-05:00,2019-03-01T00:00:00-05:00,6416,101,119.0,"{""<5"":0,""5-20"":11,""21-60"":18,""61-240"":44,"">240"":28}",14208.5,41.632065000000004,-72.65085699999999,444130.0,CT,9.0,9007.0,Middlesex County,90075702001.0
15973,sg:14032913008b497b9da4d9a205340623,Fjord Fish Market,CT,2019-02-01T00:00:00-05:00,2019-03-01T00:00:00-05:00,6840,43,8.0,"{""<5"":6,""5-20"":31,""21-60"":4,""61-240"":2,"">240"":0}",865.5,41.147956,-73.4914,445220.0,CT,9.0,9001.0,Fairfield County,90010351001.0
15978,sg:14e5e631b421413cb4123fd25439477f,Maurati Auto Body,CT,2019-02-01T00:00:00-05:00,2019-03-01T00:00:00-05:00,6460,5,100.0,"{""<5"":0,""5-20"":1,""21-60"":0,""61-240"":4,"">240"":0}",614.5,41.215973999999996,-73.07203100000001,811121.0,CT,9.0,9009.0,New Haven County,90091502001.0
16018,sg:18669af3b8f943c09485284811b18638,Links Academy,CT,2019-02-01T00:00:00-05:00,2019-03-01T00:00:00-05:00,6033,278,127.0,"{""<5"":2,""5-20"":53,""21-60"":48,""61-240"":80,"">240"":95}",37451.5,41.713202,-72.58731,611110.0,CT,9.0,9003.0,Hartford County,90035203011.0
16116,sg:2146743f210c4360bd6e55dc3783a69d,Bridgeport Rifle Club,CT,2019-02-01T00:00:00-05:00,2019-03-01T00:00:00-05:00,6615,127,96.0,"{""<5"":1,""5-20"":25,""21-60"":23,""61-240"":44,"">240"":34}",16028.5,41.169773,-73.139558,452319.0,CT,9.0,9001.0,Fairfield County,90010804003.0
16198,sg:28af5e6b1a0a483096d097d0a49fc87b,McDonald's,CT,2019-02-01T00:00:00-05:00,2019-03-01T00:00:00-05:00,6437,628,10.0,"{""<5"":34,""5-20"":389,""21-60"":134,""61-240"":43,"">240"":28}",23566.0,41.289153999999996,-72.669004,722513.0,CT,9.0,9009.0,New Haven County,90091901002.0
16359,sg:3725dfbc7e6a43809391e7747606e442,D & K Sound Services,CT,2019-02-01T00:00:00-05:00,2019-03-01T00:00:00-05:00,6109,331,64.0,"{""<5"":6,""5-20"":99,""21-60"":53,""61-240"":94,"">240"":79}",36506.0,41.698606,-72.65791999999999,453998.0,CT,9.0,9003.0,Hartford County,90034922002.0
16383,sg:392473caa3dc4f1aa51b387b82e06ac5,Friendly Auto Body & Towing,CT,2019-02-01T00:00:00-05:00,2019-03-01T00:00:00-05:00,6114,10,35.5,"{""<5"":0,""5-20"":4,""21-60"":2,""61-240"":2,"">240"":2}",912.0,41.743798999999996,-72.66829399999999,488410.0,CT,9.0,9003.0,Hartford County,90035025002.0
16399,sg:3a061cb048674cf3bdc5910ba8fb7adb,Csontos Auto Repair Shop,CT,2019-02-01T00:00:00-05:00,2019-03-01T00:00:00-05:00,6605,22,120.0,"{""<5"":0,""5-20"":6,""21-60"":0,""61-240"":9,"">240"":7}",3109.5,41.164813,-73.220529,811111.0,CT,9.0,9001.0,Fairfield County,90010702002.0
16597,sg:4c3ec77e7b864109942e6bd1d3d011fb,Bauer James DMD,CT,2019-02-01T00:00:00-05:00,2019-03-01T00:00:00-05:00,6798,35,42.0,"{""<5"":0,""5-20"":11,""21-60"":8,""61-240"":8,"">240"":8}",3585.5,41.55177,-73.203858,621210.0,CT,9.0,9005.0,Litchfield County,90053621022.0
16785,sg:5c22af1f381e4f1a95ea8b0a5a76ee83,Advantage Automotive,CT,2019-02-01T00:00:00-05:00,2019-03-01T00:00:00-05:00,6110,10,12.5,"{""<5"":0,""5-20"":8,""21-60"":0,""61-240"":2,"">240"":0}",401.0,41.735942,-72.721325,811111.0,CT,9.0,9003.0,Hartford County,90034961001.0
16868,sg:6534167804bd4912a3259cf0c28c3fd5,Center For Advanced Hypnosis,CT,2019-02-01T00:00:00-05:00,2019-03-01T00:00:00-05:00,6905,3,604.0,"{""<5"":0,""5-20"":1,""21-60"":0,""61-240"":0,"">240"":2}",492.5,41.064114000000004,-73.540222,621330.0,CT,9.0,9001.0,Fairfield County,90010216001.0
16999,sg:737e9344f7c440f4aca715b28bb780cb,Wallingford Gas N Food,CT,2019-02-01T00:00:00-05:00,2019-03-01T00:00:00-05:00,6492,53,9.0,"{""<5"":0,""5-20"":42,""21-60"":7,""61-240"":3,"">240"":1}",1500.0,41.467746999999996,-72.833039,445120.0,CT,9.0,9009.0,New Haven County,90091755001.0
17008,sg:74233045d9f048f58ab25260f70ec675,Mt Saint John,CT,2019-02-01T00:00:00-05:00,2019-03-01T00:00:00-05:00,6417,17,332.0,"{""<5"":0,""5-20"":1,""21-60"":0,""61-240"":3,"">240"":13}",3584.0,41.397636999999996,-72.43252199999999,611110.0,CT,9.0,9007.0,Middlesex County,90076201001.0
17332,sg:953320600cf44acb8d3c28a702f9065b,Robert Gregory Field Phd,CT,2019-02-01T00:00:00-05:00,2019-03-01T00:00:00-05:00,6880,1,49.0,"{""<5"":0,""5-20"":0,""21-60"":1,""61-240"":0,"">240"":0}",40.5,41.139338,-73.328547,621111.0,CT,9.0,9001.0,Fairfield County,90010503004.0
17359,sg:978c9cadab624dd599ae5e4a5d8a9ae3,Family & Friends Realty Group,CT,2019-02-01T00:00:00-05:00,2019-03-01T00:00:00-05:00,6413,38,119.5,"{""<5"":0,""5-20"":7,""21-60"":9,""61-240"":9,"">240"":13}",4926.5,41.277553000000005,-72.531607,522110.0,CT,9.0,9007.0,Middlesex County,90076101002.0
17417,sg:9db8d92aa38948268df030476546bbb5,Breakthrough Magnet School,CT,2019-02-01T00:00:00-05:00,2019-03-01T00:00:00-05:00,6112,114,107.5,"{""<5"":2,""5-20"":30,""21-60"":13,""61-240"":28,"">240"":41}",14960.5,41.791631,-72.702112,611110.0,CT,9.0,9003.0,Hartford County,90035039001.0
17434,sg:9f2fcb93197c4f409d7ed526977e2f57,Benson Quinlan Insurance Agency,CT,2019-02-01T00:00:00-05:00,2019-03-01T00:00:00-05:00,6880,1,461.0,"{""<5"":0,""5-20"":0,""21-60"":0,""61-240"":0,"">240"":1}",240.0,41.14117,-73.358595,524210.0,CT,9.0,9001.0,Fairfield County,90010505004.0
17489,sg:a4350969cf7c4f4a8498afe5caddc205,Abcd Cesar Batalla Child Care Center,CT,2019-02-01T00:00:00-05:00,2019-03-01T00:00:00-05:00,6604,28,19.5,"{""<5"":0,""5-20"":15,""21-60"":4,""61-240"":1,"">240"":8}",2420.0,41.183335,-73.20193,624410.0,CT,9.0,9001.0,Fairfield County,90010714004.0
17550,sg:a8e436be720244919213231ebe729846,Chase,CT,2019-02-01T00:00:00-05:00,2019-03-01T00:00:00-05:00,6515,66,9.0,"{""<5"":5,""5-20"":45,""21-60"":8,""61-240"":8,"">240"":0}",2103.0,41.338466,-72.97993199999999,522110.0,CT,9.0,9009.0,New Haven County,90091412002.0
17556,sg:a91e042aecf34b828c0bba7d64d4f4f9,City Fruit & Produce,CT,2019-02-01T00:00:00-05:00,2019-03-01T00:00:00-05:00,6790,38,289.5,"{""<5"":1,""5-20"":9,""21-60"":3,""61-240"":5,"">240"":20}",5789.0,41.813289000000005,-73.13403000000001,445110.0,CT,9.0,9005.0,Litchfield County,90053102002.0
17590,sg:aceff185b725410598bf6ca01249ccb0,Burlington Golf Center,CT,2019-02-01T00:00:00-05:00,2019-03-01T00:00:00-05:00,6013,6,17.0,"{""<5"":0,""5-20"":3,""21-60"":3,""61-240"":0,"">240"":0}",159.0,41.776978,-73.009197,713910.0,CT,9.0,9003.0,Hartford County,90034101021.0
17594,sg:ad92c69a1650474bbf831247e3c41530,Jabbersphere,CT,2019-02-01T00:00:00-05:00,2019-03-01T00:00:00-05:00,6489,150,29.0,"{""<5"":6,""5-20"":53,""21-60"":32,""61-240"":15,"">240"":44}",14791.0,41.617571000000005,-72.863501,722511.0,CT,9.0,9003.0,Hartford County,90034306011.0
17632,sg:b2077b3b6e8f4c98b92bc18f3ff28c63,Beachwood Florist,CT,2019-02-01T00:00:00-05:00,2019-03-01T00:00:00-05:00,6460,49,40.0,"{""<5"":1,""5-20"":16,""21-60"":13,""61-240"":13,"">240"":6}",4125.5,41.222909,-73.042692,453110.0,CT,9.0,9009.0,New Haven County,90091509002.0
17674,sg:b6d66b3030234cecbd83e9eb035376e8,New Haven Fire Department Engine Company 10,CT,2019-02-01T00:00:00-05:00,2019-03-01T00:00:00-05:00,6513,96,125.5,"{""<5"":2,""5-20"":16,""21-60"":13,""61-240"":31,"">240"":34}",13557.0,41.314703,-72.898125,922160.0,CT,9.0,9009.0,New Haven County,90091424002.0
17885,sg:cad6c1b28aeb456aaaf67f6be8037e65,Bright Horizons Children's Center Inc,CT,2019-02-01T00:00:00-05:00,2019-03-01T00:00:00-05:00,6801,51,62.0,"{""<5"":2,""5-20"":5,""21-60"":17,""61-240"":13,"">240"":14}",6072.5,41.424812,-73.395993,624410.0,CT,9.0,9001.0,Fairfield County,90012003013.0
17892,sg:cb66559f342a42ca960e614d1650c92f,Advanced Investigations,CT,2019-02-01T00:00:00-05:00,2019-03-01T00:00:00-05:00,6614,24,8.5,"{""<5"":3,""5-20"":14,""21-60"":2,""61-240"":2,"">240"":3}",1284.5,41.210342,-73.130052,312120.0,CT,9.0,9001.0,Fairfield County,90010812002.0
17893,sg:cb6ba325ad3c4a7aabf6993824370acf,Precisely Pilates,CT,2019-02-01T00:00:00-05:00,2019-03-01T00:00:00-05:00,6905,193,104.0,"{""<5"":1,""5-20"":18,""21-60"":47,""61-240"":70,"">240"":57}",26346.0,41.071952,-73.54884200000001,713940.0,CT,9.0,9001.0,Fairfield County,90010212002.0
17977,sg:d4ccf728774c481bbf9813ab18e8fd0b,St Mark Lutheran Church Elca,CT,2019-02-01T00:00:00-05:00,2019-03-01T00:00:00-05:00,6360,53,48.0,"{""<5"":1,""5-20"":18,""21-60"":10,""61-240"":12,"">240"":12}",5318.5,41.533068,-72.08049799999999,813110.0,CT,9.0,9011.0,New London County,90116965002.0
18078,sg:ddfadc479cb445c4a5d649ad027519f7,La Flor De Mexico Bakery,CT,2019-02-01T00:00:00-05:00,2019-03-01T00:00:00-05:00,6606,15,29.0,"{""<5"":1,""5-20"":3,""21-60"":6,""61-240"":3,"">240"":2}",1214.5,41.192461,-73.20432,722511.0,CT,9.0,9001.0,Fairfield County,90010719002.0
18100,sg:e0b4fd7cc3b4403988a0bba70e479197,ABIS Japanese Restaurant,CT,2019-02-01T00:00:00-05:00,2019-03-01T00:00:00-05:00,6830,115,43.0,"{""<5"":1,""5-20"":17,""21-60"":62,""61-240"":30,"">240"":5}",8441.0,41.022632,-73.624437,722511.0,CT,9.0,9001.0,Fairfield County,90010106002.0
18160,sg:e7e603f68f6d413aa3b688e2ebd89b0f,Smiley Discount Store and Party Supplies,CT,2019-02-01T00:00:00-05:00,2019-03-01T00:00:00-05:00,6705,187,14.0,"{""<5"":4,""5-20"":109,""21-60"":59,""61-240"":13,"">240"":2}",6198.5,41.538304,-72.996123,452319.0,CT,9.0,9009.0,New Haven County,90093528001.0
18179,sg:e9235f81c0864806b9c79b59cb02f00d,Butterfly Restaurant,CT,2019-02-01T00:00:00-05:00,2019-03-01T00:00:00-05:00,6119,239,44.0,"{""<5"":3,""5-20"":69,""21-60"":76,""61-240"":80,"">240"":11}",18628.0,41.763971000000005,-72.73107900000001,722511.0,CT,9.0,9003.0,Hartford County,90034969007.0
18254,sg:f0d1a99aeeb3416eb708a52b7e0b8a4f,A & T Enterprises,CT,2019-02-01T00:00:00-05:00,2019-03-01T00:00:00-05:00,6790,2,743.5,"{""<5"":0,""5-20"":0,""21-60"":0,""61-240"":0,"">240"":2}",480.0,41.813924,-73.133955,532111.0,CT,9.0,9005.0,Litchfield County,90053107002.0
18450,sg:03ff39d1b1f24c36ab6a7c4149934e68,Popeyes Louisiana Kitchen,CT,2019-02-01T00:00:00-05:00,2019-03-01T00:00:00-05:00,6902,353,11.0,"{""<5"":16,""5-20"":226,""21-60"":72,""61-240"":30,"">240"":9}",12456.0,41.047994,-73.556528,722513.0,CT,9.0,9001.0,Fairfield County,90010214003.0
18711,sg:1c3cbfe5abf1457b9dfa5858d88d5088,Read School,CT,2019-02-01T00:00:00-05:00,2019-03-01T00:00:00-05:00,6606,87,120.0,"{""<5"":5,""5-20"":25,""21-60"":9,""61-240"":17,"">240"":31}",10688.0,41.202791999999995,-73.198208,611110.0,CT,9.0,9001.0,Fairfield County,90010729003.0
18787,sg:23c08c6c17d141a89d75d0aa8cbe91ad,Flanagan Dennis DDS,CT,2019-02-01T00:00:00-05:00,2019-03-01T00:00:00-05:00,6340,45,46.0,"{""<5"":1,""5-20"":11,""21-60"":14,""61-240"":8,"">240"":11}",4551.0,41.347451,-72.04468100000001,621210.0,CT,9.0,9011.0,New London County,90117027001.0
18885,sg:2d6f7cf59ac64b55a3dc21a386ef4222,Subway,CT,2019-02-01T00:00:00-05:00,2019-03-01T00:00:00-05:00,6468,165,28.0,"{""<5"":3,""5-20"":61,""21-60"":51,""61-240"":34,"">240"":16}",11792.5,41.335143,-73.263181,722513.0,CT,9.0,9001.0,Fairfield County,90011001002.0
18898,sg:2e9456d675dc4f0da1a00bacbde570a3,Talcott Mountain State Park,CT,2019-02-01T00:00:00-05:00,2019-03-01T00:00:00-05:00,6070,112,16.0,"{""<5"":5,""5-20"":60,""21-60"":21,""61-240"":22,"">240"":4}",5884.0,41.825779,-72.796852,712190.0,CT,9.0,9003.0,Hartford County,90034664001.0
18953,sg:3326ddb143884ac8befda3f76e26aacb,Elle Nails & Spa,CT,2019-02-01T00:00:00-05:00,2019-03-01T00:00:00-05:00,6248,4,513.0,"{""<5"":0,""5-20"":0,""21-60"":0,""61-240"":0,"">240"":4}",960.0,41.658467,-72.363013,812113.0,CT,9.0,9013.0,Tolland County,90135261012.0
19122,sg:414b0ab53c844d98973b39cca7702af8,Steven John Sheridan Ameriprise Financial Services,CT,2019-02-01T00:00:00-05:00,2019-03-01T00:00:00-05:00,6078,1,148.0,"{""<5"":0,""5-20"":0,""21-60"":0,""61-240"":1,"">240"":0}",150.5,41.983022999999996,-72.65178399999999,523930.0,CT,9.0,9003.0,Hartford County,90034771011.0
19147,sg:43a1dc23efb1458392808897dd4a14ab,Steven C Landin DMD FAGD,CT,2019-02-01T00:00:00-05:00,2019-03-01T00:00:00-05:00,6470,22,10.0,"{""<5"":1,""5-20"":15,""21-60"":3,""61-240"":2,"">240"":1}",852.5,41.412575,-73.307733,621210.0,CT,9.0,9001.0,Fairfield County,90012302001.0
19165,sg:45932b814d8843efb07d1d4d917278eb,Dollar Tree,CT,2019-02-01T00:00:00-05:00,2019-03-01T00:00:00-05:00,6492,584,16.0,"{""<5"":16,""5-20"":353,""21-60"":186,""61-240"":23,"">240"":6}",16887.0,41.501478000000006,-72.811714,452319.0,CT,9.0,9009.0,New Haven County,90091754004.0
19196,sg:47e33226b78d43c8b093021eccca28a2,Hair Artists,CT,2019-02-01T00:00:00-05:00,2019-03-01T00:00:00-05:00,6360,14,12.5,"{""<5"":0,""5-20"":9,""21-60"":3,""61-240"":2,"">240"":0}",535.0,41.547675,-72.092295,812112.0,CT,9.0,9011.0,New London County,90116963001.0
19277,sg:4e9628a727914a0196fd6e52c33933bc,Southington Catholic School,CT,2019-02-01T00:00:00-05:00,2019-03-01T00:00:00-05:00,6489,232,28.5,"{""<5"":5,""5-20"":97,""21-60"":47,""61-240"":36,"">240"":47}",19826.5,41.596263,-72.88246,611110.0,CT,9.0,9003.0,Hartford County,90034301002.0
19322,sg:5332a18b74d0494ca937f4049478b136,Berman Jeffrey MD Facc,CT,2019-02-01T00:00:00-05:00,2019-03-01T00:00:00-05:00,6824,83,40.0,"{""<5"":5,""5-20"":29,""21-60"":14,""61-240"":19,"">240"":16}",7641.5,41.146954,-73.25323,621111.0,CT,9.0,9001.0,Fairfield County,90010607002.0
19323,sg:53474a4eefb14d78bd18da02c2415d86,Concentra,CT,2019-02-01T00:00:00-05:00,2019-03-01T00:00:00-05:00,6615,184,57.0,"{""<5"":4,""5-20"":48,""21-60"":42,""61-240"":59,"">240"":31}",18630.5,41.171017,-73.155331,621493.0,CT,9.0,9001.0,Fairfield County,90010805001.0
19337,sg:54d531b956e34222aad84c47c0171718,Berry's Ice Cream and Candy Bar,CT,2019-02-01T00:00:00-05:00,2019-03-01T00:00:00-05:00,6320,94,44.0,"{""<5"":1,""5-20"":26,""21-60"":28,""61-240"":36,"">240"":3}",7599.5,41.352821,-72.094493,722515.0,CT,9.0,9011.0,New London County,90116905002.0
19352,sg:558d39cc9f35435c814b603e1bee1e0d,Pinaack Solutions,CT,2019-02-01T00:00:00-05:00,2019-03-01T00:00:00-05:00,6353,35,128.0,"{""<5"":0,""5-20"":5,""21-60"":8,""61-240"":5,"">240"":17}",5219.0,41.465456,-72.127738,443142.0,CT,9.0,9011.0,New London County,90116952014.0
19816,sg:82af9b26ce9b465eb2a014459b6e8aa4,Personal Training Professionals of Southport,CT,2019-02-01T00:00:00-05:00,2019-03-01T00:00:00-05:00,6890,103,106.0,"{""<5"":0,""5-20"":17,""21-60"":21,""61-240"":42,"">240"":23}",12904.0,41.137608,-73.29659699999999,713940.0,CT,9.0,9001.0,Fairfield County,90010606002.0
19921,sg:8c9aba36eae548e0b6d04746e66c43fe,Fisherman's Net,CT,2019-02-01T00:00:00-05:00,2019-03-01T00:00:00-05:00,6820,60,14.0,"{""<5"":4,""5-20"":35,""21-60"":7,""61-240"":11,"">240"":3}",3106.5,41.077957,-73.466738,445220.0,CT,9.0,9001.0,Fairfield County,90010302001.0
20054,sg:99fa182cb2e0429a90ef2f89076867c1,Tilley Pond Park,CT,2019-02-01T00:00:00-05:00,2019-03-01T00:00:00-05:00,6604,456,11.0,"{""<5"":19,""5-20"":281,""21-60"":84,""61-240"":56,"">240"":16}",19230.0,41.078732,-73.471427,712190.0,CT,9.0,9001.0,Fairfield County,90010302003.0
20207,sg:a8702d05cedf4b4baa8baaa18ff0eb88,Javahut,CT,2019-02-01T00:00:00-05:00,2019-03-01T00:00:00-05:00,6437,85,28.0,"{""<5"":1,""5-20"":34,""21-60"":32,""61-240"":16,"">240"":2}",4611.5,41.284862,-72.682861,722515.0,CT,9.0,9009.0,New Haven County,90091901001.0
20354,sg:b63ce39f3a1242c1a7efaa447335f4ca,Talbot's Petites,CT,2019-02-01T00:00:00-05:00,2019-03-01T00:00:00-05:00,6033,144,50.5,"{""<5"":1,""5-20"":34,""21-60"":47,""61-240"":57,"">240"":5}",12109.5,41.720918,-72.620711,448120.0,CT,9.0,9003.0,Hartford County,90035203022.0
20357,sg:b673d60ce31e4235b8b4991d5e5783cb,Millane Nurseries,CT,2019-02-01T00:00:00-05:00,2019-03-01T00:00:00-05:00,6416,27,8.0,"{""<5"":0,""5-20"":17,""21-60"":2,""61-240"":5,"">240"":3}",1766.0,41.624403,-72.652737,811411.0,CT,9.0,9007.0,Middlesex County,90075703004.0
20376,sg:b83de5f07b1b479488e40fedf68c0238,Newtown Savings Bank,CT,2019-02-01T00:00:00-05:00,2019-03-01T00:00:00-05:00,6488,3,39.0,"{""<5"":0,""5-20"":1,""21-60"":1,""61-240"":0,"">240"":1}",293.0,41.465099,-73.16350600000001,522110.0,CT,9.0,9009.0,New Haven County,90093481233.0
20468,sg:c017fbb5c4884100bb1d70de7eb223c4,Insurance Technology Solutions,CT,2019-02-01T00:00:00-05:00,2019-03-01T00:00:00-05:00,6443,7,98.0,"{""<5"":0,""5-20"":3,""21-60"":0,""61-240"":2,"">240"":2}",818.5,41.277204,-72.57731,524210.0,CT,9.0,9009.0,New Haven County,90091941002.0
20549,sg:c94ad71dae9b4e56ba588c84fcc9c23f,Post Road Auto and Tire,CT,2019-02-01T00:00:00-05:00,2019-03-01T00:00:00-05:00,6902,43,52.0,"{""<5"":0,""5-20"":14,""21-60"":9,""61-240"":10,"">240"":10}",4444.5,41.056599,-73.52274200000001,441310.0,CT,9.0,9001.0,Fairfield County,90010218023.0
20594,sg:ce18644be38c4f60b96c9d777cbf9815,Founders House Pub and Patio,CT,2019-02-01T00:00:00-05:00,2019-03-01T00:00:00-05:00,6460,312,35.5,"{""<5"":4,""5-20"":113,""21-60"":76,""61-240"":93,"">240"":26}",24737.0,41.221282,-73.059947,722511.0,,,,,
20666,sg:d4e8340ac32f42e4af15b0de0730ab1d,Haddam Killingworth High School,CT,2019-02-01T00:00:00-05:00,2019-03-01T00:00:00-05:00,6441,1420,69.5,"{""<5"":21,""5-20"":331,""21-60"":280,""61-240"":536,"">240"":252}",156678.0,41.463539000000004,-72.56382099999999,611110.0,CT,9.0,9007.0,Middlesex County,90075901005.0
20774,sg:e17184717f244f8d91066e1f5119f448,Yuan Asian Cuisine,CT,2019-02-01T00:00:00-05:00,2019-03-01T00:00:00-05:00,6877,178,18.5,"{""<5"":5,""5-20"":88,""21-60"":22,""61-240"":22,"">240"":41}",15154.5,41.283031,-73.498164,722511.0,CT,9.0,9001.0,Fairfield County,90012453003.0
20864,sg:eadff4cb0c5c4ab3ad6f1b13bfe571cf,Gordon E Fosdick DPM,CT,2019-02-01T00:00:00-05:00,2019-03-01T00:00:00-05:00,6455,8,29.0,"{""<5"":0,""5-20"":3,""21-60"":4,""61-240"":0,"">240"":1}",439.5,41.513194,-72.71189100000001,621111.0,CT,9.0,9007.0,Middlesex County,90075801003.0
20901,sg:eea60efc307f4e0291e95733201d5b96,Club Pilates,CT,2019-02-01T00:00:00-05:00,2019-03-01T00:00:00-05:00,6880,120,45.0,"{""<5"":0,""5-20"":18,""21-60"":61,""61-240"":35,"">240"":6}",9403.0,41.140372,-73.350531,713940.0,CT,9.0,9001.0,Fairfield County,90010502001.0
20929,sg:f3b5be7427b74b2b987f39dafb9c3804,East Haddam Historical Marker,CT,2019-02-01T00:00:00-05:00,2019-03-01T00:00:00-05:00,6423,15,26.0,"{""<5"":2,""5-20"":3,""21-60"":6,""61-240"":4,"">240"":0}",887.5,41.452589,-72.46221800000001,712120.0,CT,9.0,9007.0,Middlesex County,90075951013.0
21044,sg:fef8f4ed2c5144bdbe067b805f3484b3,Life's Precious Moments,CT,2019-02-01T00:00:00-05:00,2019-03-01T00:00:00-05:00,6705,19,98.0,"{""<5"":1,""5-20"":4,""21-60"":4,""61-240"":6,"">240"":4}",2077.5,41.555306,-73.014344,812199.0,CT,9.0,9009.0,New Haven County,90093513001.0
21057,sg:00234812d7704696a0161276092bcf2b,Save A Lot Plaza,CT,2019-02-01T00:00:00-05:00,2019-03-01T00:00:00-05:00,6040,836,20.0,"{""<5"":22,""5-20"":411,""21-60"":241,""61-240"":123,"">240"":39}",42824.5,41.773927,-72.532259,531120.0,CT,9.0,9003.0,Hartford County,90035144005.0
21183,sg:0cf62fb98d314e02945e649a28609181,First Assembly of God Church,CT,2019-02-01T00:00:00-05:00,2019-03-01T00:00:00-05:00,6704,6,12.5,"{""<5"":1,""5-20"":3,""21-60"":2,""61-240"":0,"">240"":0}",121.0,41.583377,-73.04973299999999,813110.0,CT,9.0,9009.0,New Haven County,90093523002.0
21329,sg:18c9acce209d4eedae952ded2c70aacc,Safelite,CT,2019-02-01T00:00:00-05:00,2019-03-01T00:00:00-05:00,6905,17,134.0,"{""<5"":2,""5-20"":3,""21-60"":2,""61-240"":5,"">240"":5}",2076.0,41.062863,-73.541943,811122.0,CT,9.0,9001.0,Fairfield County,90010216003.0
21407,sg:20beb2c88b28480591f6e5d63e707633,Connecticut Juvenile Training School,CT,2019-02-01T00:00:00-05:00,2019-03-01T00:00:00-05:00,6457,1,104.0,"{""<5"":0,""5-20"":0,""21-60"":0,""61-240"":1,"">240"":0}",150.5,41.55465,-72.623205,922140.0,CT,9.0,9007.0,Middlesex County,90076802004.0
21455,sg:255ff3f201db4ced916198b6962319c0,Ss Peter & Paul School,CT,2019-02-01T00:00:00-05:00,2019-03-01T00:00:00-05:00,6705,792,60.0,"{""<5"":10,""5-20"":204,""21-60"":187,""61-240"":225,"">240"":166}",83851.0,41.547069,-73.009637,611110.0,CT,9.0,9009.0,New Haven County,90093513003.0
21462,sg:2637e07dcdb2441ab690e9f7069dac48,Valiant Lady Sportfishing,CT,2019-02-01T00:00:00-05:00,2019-03-01T00:00:00-05:00,6320,144,44.0,"{""<5"":1,""5-20"":33,""21-60"":53,""61-240"":50,"">240"":7}",11766.5,41.334168,-72.097453,451110.0,CT,9.0,9011.0,New London County,90116909001.0
21480,sg:27a1d5351cad45de920e7ac0f17a267a,Fritz's Snack Bar,CT,2019-02-01T00:00:00-05:00,2019-03-01T00:00:00-05:00,6478,247,31.0,"{""<5"":4,""5-20"":68,""21-60"":143,""61-240"":30,"">240"":2}",11646.5,41.405241,-73.092264,722511.0,CT,9.0,9009.0,New Haven County,90093461011.0
21499,sg:28d7141a419e4d18a60ce8a0f2e67cbf,Golden House,CT,2019-02-01T00:00:00-05:00,2019-03-01T00:00:00-05:00,6073,7,16.0,"{""<5"":0,""5-20"":4,""21-60"":3,""61-240"":0,"">240"":0}",171.5,41.679419,-72.546081,722511.0,CT,9.0,9003.0,Hartford County,90035202021.0
21500,sg:28d80335d4cb4acf99d9497fc19b1d92,Coco Lily,CT,2019-02-01T00:00:00-05:00,2019-03-01T00:00:00-05:00,6001,7,30.0,"{""<5"":0,""5-20"":1,""21-60"":3,""61-240"":1,"">240"":2}",764.5,41.809901,-72.83203,448120.0,CT,9.0,9003.0,Hartford County,90034622013.0
21516,sg:29e634393e34490e886a90a3556f67d1,Forster Park,CT,2019-02-01T00:00:00-05:00,2019-03-01T00:00:00-05:00,6106,61,47.0,"{""<5"":0,""5-20"":20,""21-60"":13,""61-240"":13,"">240"":15}",6333.0,41.725995000000005,-72.700561,712190.0,CT,9.0,9003.0,Hartford County,90035048002.0
21536,sg:2c4ac9d254eb40999a581a533dc8012a,Beauty By Leah Rose,CT,2019-02-01T00:00:00-05:00,2019-03-01T00:00:00-05:00,6512,14,27.0,"{""<5"":1,""5-20"":3,""21-60"":7,""61-240"":2,"">240"":1}",864.5,41.280291,-72.866361,812112.0,CT,9.0,9009.0,New Haven County,90091803001.0
21559,sg:2deb0b3760ce4428be07cad78f0463a0,TD Bank,CT,2019-02-01T00:00:00-05:00,2019-03-01T00:00:00-05:00,6492,4,6.5,"{""<5"":0,""5-20"":3,""21-60"":0,""61-240"":0,"">240"":1}",277.5,41.454676,-72.818623,522110.0,CT,9.0,9009.0,New Haven County,90091751001.0
21566,sg:2e7e79f14d9f44b38d910a2ce6350654,All About Kids Pediatric Dentistry and Orthodontics,CT,2019-02-01T00:00:00-05:00,2019-03-01T00:00:00-05:00,6418,32,21.5,"{""<5"":0,""5-20"":16,""21-60"":13,""61-240"":3,"">240"":0}",1178.0,41.331811,-73.08243900000001,621210.0,CT,9.0,9009.0,New Haven County,90091202001.0
21719,sg:3a950eff89da4c1192bb34bda880cb16,Burns Insurance & Financial Nationwide Insurance,CT,2019-02-01T00:00:00-05:00,2019-03-01T00:00:00-05:00,6770,17,121.0,"{""<5"":1,""5-20"":1,""21-60"":4,""61-240"":10,"">240"":1}",1922.0,41.468203,-73.021025,524210.0,CT,9.0,9009.0,New Haven County,90093452021.0
21912,sg:4f71995e79044e03a5565b358933b019,Center Liquors,CT,2019-02-01T00:00:00-05:00,2019-03-01T00:00:00-05:00,6040,115,105.0,"{""<5"":1,""5-20"":16,""21-60"":22,""61-240"":46,"">240"":30}",15216.5,41.77395,-72.54207,445310.0,CT,9.0,9003.0,Hartford County,90035145004.0
21916,sg:4fb9f7f1f43b41cfb4dd70b0c934b010,McDonald's,CT,2019-02-01T00:00:00-05:00,2019-03-01T00:00:00-05:00,6516,565,10.0,"{""<5"":27,""5-20"":359,""21-60"":82,""61-240"":59,"">240"":38}",25875.5,41.270755,-72.975251,722513.0,CT,9.0,9009.0,New Haven County,90091542005.0
21990,sg:573116fd3b5642f6b6d1929504564832,Church of Jesus Christ Stake Office,CT,2019-02-01T00:00:00-05:00,2019-03-01T00:00:00-05:00,6840,11,14.0,"{""<5"":0,""5-20"":7,""21-60"":2,""61-240"":1,"">240"":1}",559.0,41.124446,-73.483713,813110.0,CT,9.0,9001.0,Fairfield County,90010353001.0
21991,sg:57397c9a5f5e455b9bbfa3cb1b11b789,Apple Music,CT,2019-02-01T00:00:00-05:00,2019-03-01T00:00:00-05:00,6489,16,11.0,"{""<5"":1,""5-20"":11,""21-60"":2,""61-240"":2,"">240"":0}",522.0,41.564388,-72.906603,451140.0,CT,9.0,9003.0,Hartford County,90034304002.0
22043,sg:5c30c7d8ac08466399efa396d0b10cf6,Defy Nature,CT,2019-02-01T00:00:00-05:00,2019-03-01T00:00:00-05:00,6320,31,52.0,"{""<5"":0,""5-20"":4,""21-60"":13,""61-240"":5,"">240"":9}",3489.0,41.335570000000004,-72.105807,812199.0,CT,9.0,9011.0,New London County,90116908003.0
22085,sg:60888a6b632c4ec9b3a9ba46947c7efc,Sherwin-Williams,CT,2019-02-01T00:00:00-05:00,2019-03-01T00:00:00-05:00,6511,308,14.0,"{""<5"":12,""5-20"":167,""21-60"":44,""61-240"":38,"">240"":47}",20898.5,41.318447,-72.94883100000001,444120.0,CT,9.0,9009.0,New Haven County,90091409004.0
22097,sg:61676c07aa004cbd9c46e0878497dde2,Shooting Concepts,CT,2019-02-01T00:00:00-05:00,2019-03-01T00:00:00-05:00,6010,36,63.0,"{""<5"":0,""5-20"":15,""21-60"":3,""61-240"":15,"">240"":3}",3286.5,41.655274,-72.91294599999999,452319.0,CT,9.0,9003.0,Hartford County,90034054023.0
22113,sg:6312cb8a92e54eaabce8b868e1c2106c,Double A arabians,CT,2019-02-01T00:00:00-05:00,2019-03-01T00:00:00-05:00,6071,5,73.0,"{""<5"":0,""5-20"":0,""21-60"":1,""61-240"":4,"">240"":0}",642.5,42.024759,-72.467212,453220.0,CT,9.0,9013.0,Tolland County,90135382011.0
22117,sg:63a544287e654e62bcc0066d93c7a460,A American Muffler & Brake Shop,CT,2019-02-01T00:00:00-05:00,2019-03-01T00:00:00-05:00,6604,31,41.0,"{""<5"":0,""5-20"":9,""21-60"":11,""61-240"":7,"">240"":4}",2571.5,41.179639,-73.202735,811111.0,CT,9.0,9001.0,Fairfield County,90010713001.0
22135,sg:654180445441401a883d1edc4c47d27a,YMCA,CT,2019-02-01T00:00:00-05:00,2019-03-01T00:00:00-05:00,6035,1,521.0,"{""<5"":0,""5-20"":0,""21-60"":0,""61-240"":0,"">240"":1}",240.0,41.932684,-72.792579,624190.0,CT,9.0,9003.0,Hartford County,90034681023.0
22256,sg:71253281e2984d85a5982e33888e3981,Panda Pavilion,CT,2019-02-01T00:00:00-05:00,2019-03-01T00:00:00-05:00,6830,172,39.0,"{""<5"":6,""5-20"":61,""21-60"":38,""61-240"":29,"">240"":38}",15801.0,41.020853,-73.640823,722511.0,CT,9.0,9001.0,Fairfield County,90010105004.0
22279,sg:7383481465ed4c35ba3f6d9a7c45595e,Santander Bank,CT,2019-02-01T00:00:00-05:00,2019-03-01T00:00:00-05:00,6111,6,6.5,"{""<5"":0,""5-20"":5,""21-60"":0,""61-240"":1,"">240"":0}",213.0,41.660328,-72.723638,522110.0,CT,9.0,9003.0,Hartford County,90034942013.0
22372,sg:7d5f97814916492180652e2d91d22aa3,Coddington's On Meadow,CT,2019-02-01T00:00:00-05:00,2019-03-01T00:00:00-05:00,6770,150,24.0,"{""<5"":6,""5-20"":54,""21-60"":64,""61-240"":21,"">240"":5}",7642.5,41.494417999999996,-73.055684,722511.0,CT,9.0,9009.0,New Haven County,90093453001.0
22375,sg:7da5f9e6e68a427683db6142db397eae,Daniels Farm School,CT,2019-02-01T00:00:00-05:00,2019-03-01T00:00:00-05:00,6611,569,46.0,"{""<5"":9,""5-20"":158,""21-60"":159,""61-240"":130,"">240"":113}",55122.0,41.269474,-73.198392,611110.0,CT,9.0,9001.0,Fairfield County,90010907001.0
22415,sg:81a680fa632f4102b4a63491f779157b,Langan & Frank,CT,2019-02-01T00:00:00-05:00,2019-03-01T00:00:00-05:00,6450,6,25.5,"{""<5"":0,""5-20"":2,""21-60"":3,""61-240"":0,"">240"":1}",386.5,41.535513,-72.799159,621210.0,CT,9.0,9009.0,New Haven County,90091710001.0
22454,sg:85a53baa3f434563bcfa7030a7d5e02a,Sgt Pepperoni,CT,2019-02-01T00:00:00-05:00,2019-03-01T00:00:00-05:00,6268,93,13.0,"{""<5"":3,""5-20"":53,""21-60"":19,""61-240"":10,"">240"":8}",4864.5,41.809529,-72.261728,722511.0,CT,9.0,9013.0,Tolland County,90138813002.0
22549,sg:8f928020fb9f49af9917a29ae2401044,Danbury Animal Welfare Society,CT,2019-02-01T00:00:00-05:00,2019-03-01T00:00:00-05:00,6801,135,51.0,"{""<5"":0,""5-20"":38,""21-60"":30,""61-240"":33,"">240"":34}",14816.5,41.36342,-73.42140400000001,541940.0,CT,9.0,9001.0,Fairfield County,90012001002.0
22567,sg:915be5f27dd54c889b6727f155c1c417,Fellowship,CT,2019-02-01T00:00:00-05:00,2019-03-01T00:00:00-05:00,6511,196,72.0,"{""<5"":3,""5-20"":50,""21-60"":34,""61-240"":63,"">240"":46}",22531.0,41.312927,-72.93559599999999,813110.0,CT,9.0,9009.0,New Haven County,90091407005.0
22609,sg:952e9fb8bea74020952e6b463603f89f,Meet Me Here,CT,2019-02-01T00:00:00-05:00,2019-03-01T00:00:00-05:00,6762,66,26.5,"{""<5"":2,""5-20"":30,""21-60"":9,""61-240"":25,"">240"":0}",4507.0,41.538028000000004,-73.10693,312130.0,CT,9.0,9009.0,New Haven County,90093441002.0
22643,sg:992e6cc6e66a4544ac01ae94c60f885c,The Galley Restaurant,CT,2019-02-01T00:00:00-05:00,2019-03-01T00:00:00-05:00,6355,17,44.0,"{""<5"":1,""5-20"":6,""21-60"":2,""61-240"":3,"">240"":5}",1810.0,41.360683,-71.964242,722515.0,CT,9.0,9011.0,New London County,90117053002.0
22695,sg:9e66ddd6634e4fe497225038d9511ed3,Pipeling David Lmt,CT,2019-02-01T00:00:00-05:00,2019-03-01T00:00:00-05:00,6062,17,66.0,"{""<5"":1,""5-20"":0,""21-60"":7,""61-240"":7,"">240"":2}",1819.5,41.66578,-72.876028,812199.0,CT,9.0,9003.0,Hartford County,90034205001.0
22816,sg:a9ab30bf293e422b922d9da30b9995fc,West Haven Pharmacy,CT,2019-02-01T00:00:00-05:00,2019-03-01T00:00:00-05:00,6516,75,32.0,"{""<5"":0,""5-20"":28,""21-60"":18,""61-240"":17,"">240"":12}",6517.5,41.279204,-72.955437,446110.0,CT,9.0,9009.0,New Haven County,90091546001.0
22830,sg:ab9bdb60652849b8ab61f0e3d66297b8,All Around Cleaning,CT,2019-02-01T00:00:00-05:00,2019-03-01T00:00:00-05:00,6118,33,72.0,"{""<5"":1,""5-20"":11,""21-60"":2,""61-240"":9,"">240"":10}",3975.5,41.734009,-72.582769,561740.0,CT,9.0,9003.0,Hartford County,90035109002.0
22905,sg:b2713e43c2cd4661af3338b64a1ca4f3,Cantin Mark Dr,CT,2019-02-01T00:00:00-05:00,2019-03-01T00:00:00-05:00,6787,2,38.0,"{""<5"":0,""5-20"":1,""21-60"":1,""61-240"":0,"">240"":0}",53.0,41.67324,-73.072909,621210.0,CT,9.0,9005.0,Litchfield County,90053492002.0
23043,sg:c16b1484010f44abb0fd4914b319d1f7,Heavy Hitting Boxing and Fitness,CT,2019-02-01T00:00:00-05:00,2019-03-01T00:00:00-05:00,6907,100,110.5,"{""<5"":1,""5-20"":25,""21-60"":10,""61-240"":31,"">240"":33}",13305.5,41.093436,-73.516764,713940.0,CT,9.0,9001.0,Fairfield County,90010209001.0
23082,sg:c682530cbd09401888965c8cd3261ff3,Genaros Pizza Restaurant,CT,2019-02-01T00:00:00-05:00,2019-03-01T00:00:00-05:00,6405,62,24.0,"{""<5"":2,""5-20"":24,""21-60"":19,""61-240"":9,"">240"":8}",4349.0,41.258466,-72.847835,722511.0,CT,9.0,9009.0,New Haven County,90091843002.0
23085,sg:c69b228890d541099f0cdaef026cf942,Dollar General,CT,2019-02-01T00:00:00-05:00,2019-03-01T00:00:00-05:00,6114,412,26.5,"{""<5"":13,""5-20"":172,""21-60"":76,""61-240"":67,"">240"":84}",35504.0,41.738087,-72.671722,452319.0,CT,9.0,9003.0,Hartford County,90035024003.0
23094,sg:c7a10531e54f43159f850717c3bcccc4,Royal Kitchen & Bath,CT,2019-02-01T00:00:00-05:00,2019-03-01T00:00:00-05:00,6110,79,34.0,"{""<5"":1,""5-20"":26,""21-60"":31,""61-240"":17,"">240"":4}",5101.5,41.736397,-72.722052,442299.0,CT,9.0,9003.0,Hartford County,90034961003.0
23214,sg:d37fd895c3114f9dab8451bbc0d48e25,Signature Style,CT,2019-02-01T00:00:00-05:00,2019-03-01T00:00:00-05:00,6897,3,6.0,"{""<5"":0,""5-20"":3,""21-60"":0,""61-240"":0,"">240"":0}",37.5,41.194449,-73.431985,448120.0,CT,9.0,9001.0,Fairfield County,90010452002.0
23313,sg:dd4e83bdca2e448b9e296dcd98c71da0,Century 21 Real Estate,CT,2019-02-01T00:00:00-05:00,2019-03-01T00:00:00-05:00,6010,64,52.0,"{""<5"":1,""5-20"":19,""21-60"":18,""61-240"":20,"">240"":6}",5419.0,41.692453,-72.918201,531210.0,CT,9.0,9003.0,Hartford County,90034060011.0
23350,sg:e1e8f6627f2b463b9db3c51505658543,Frontier Connecticut,CT,2019-02-01T00:00:00-05:00,2019-03-01T00:00:00-05:00,6604,56,44.5,"{""<5"":1,""5-20"":19,""21-60"":13,""61-240"":9,"">240"":14}",5481.0,41.163503999999996,-73.198386,517312.0,CT,9.0,9001.0,Fairfield County,90010704001.0
23533,sg:f5533a39ff774338832443b28a18227c,Tabor Christian Community Preschool,CT,2019-02-01T00:00:00-05:00,2019-03-01T00:00:00-05:00,6405,67,25.0,"{""<5"":3,""5-20"":25,""21-60"":18,""61-240"":21,"">240"":0}",4209.5,41.273144,-72.80086700000001,624410.0,CT,9.0,9009.0,New Haven County,90091844001.0
23569,sg:f8588a3ba3cd42cd90c1d1bf228aded3,Dollar General,CT,2019-02-01T00:00:00-05:00,2019-03-01T00:00:00-05:00,6516,201,14.0,"{""<5"":14,""5-20"":106,""21-60"":54,""61-240"":10,"">240"":17}",9132.0,41.288506,-72.972515,452319.0,CT,9.0,9009.0,New Haven County,90091541005.0
23628,sg:fd8723812d9a48bda342ebbbbee27b87,Valentino Tailors,CT,2019-02-01T00:00:00-05:00,2019-03-01T00:00:00-05:00,6514,54,18.5,"{""<5"":1,""5-20"":29,""21-60"":13,""61-240"":8,"">240"":3}",2815.5,41.351771,-72.931394,448120.0,CT,9.0,9009.0,New Haven County,90091656003.0
23737,sg:065f7ed0bccc4035bfc7339a5937fc82,J & H Shell Food Mart,CT,2019-02-01T00:00:00-05:00,2019-03-01T00:00:00-05:00,6473,23,9.0,"{""<5"":1,""5-20"":16,""21-60"":1,""61-240"":4,"">240"":1}",1085.0,41.370886,-72.852499,445110.0,CT,9.0,9009.0,New Haven County,90091672012.0
23957,sg:1af3e8f533dc422fb3cec16c26d001c4,Smith's Acres,CT,2019-02-01T00:00:00-05:00,2019-03-01T00:00:00-05:00,6357,8,18.0,"{""<5"":0,""5-20"":4,""21-60"":1,""61-240"":3,"">240"":0}",542.0,41.321837,-72.203409,811411.0,CT,9.0,9011.0,New London County,90118707042.0
24005,sg:1ed263f0ea12487b877f92a4747f28c1,Knights Of Columbus Museum,CT,2019-02-01T00:00:00-05:00,2019-03-01T00:00:00-05:00,6511,262,32.0,"{""<5"":9,""5-20"":105,""21-60"":47,""61-240"":73,"">240"":28}",20945.0,41.302004,-72.924027,712110.0,CT,9.0,9009.0,New Haven County,90091401001.0
24048,sg:23144dc86167455c8a17b22a63d89593,Bridges Healthcare,CT,2019-02-01T00:00:00-05:00,2019-03-01T00:00:00-05:00,6460,163,63.0,"{""<5"":4,""5-20"":32,""21-60"":42,""61-240"":41,"">240"":44}",18841.5,41.214538,-73.073685,621330.0,CT,9.0,9009.0,New Haven County,90091502001.0
24264,sg:3661550d021641eabc02a36add55c23b,Saoco Restaurant,CT,2019-02-01T00:00:00-05:00,2019-03-01T00:00:00-05:00,6516,82,36.5,"{""<5"":1,""5-20"":25,""21-60"":36,""61-240"":20,"">240"":0}",4783.0,41.305059,-72.966392,722511.0,CT,9.0,9009.0,New Haven County,90091541006.0
24271,sg:370bcce84e524d3bb6e9ef5c68c3779c,Norwich Gi Associates PC,CT,2019-02-01T00:00:00-05:00,2019-03-01T00:00:00-05:00,6360,22,41.5,"{""<5"":1,""5-20"":5,""21-60"":7,""61-240"":7,"">240"":2}",1882.0,41.549093,-72.11293,621111.0,CT,9.0,9011.0,New London County,90116962001.0
24321,sg:3b4e3b6dae864659b21b7886c24ca150,Mobil,CT,2019-02-01T00:00:00-05:00,2019-03-01T00:00:00-05:00,6511,31,5.0,"{""<5"":5,""5-20"":22,""21-60"":2,""61-240"":2,"">240"":0}",669.5,41.316294,-72.94211,447110.0,CT,9.0,9009.0,New Haven County,90091407002.0
24443,sg:461b0211b90646ce91453116ba427089,Mobil,CT,2019-02-01T00:00:00-05:00,2019-03-01T00:00:00-05:00,6234,11,9.0,"{""<5"":1,""5-20"":7,""21-60"":3,""61-240"":0,"">240"":0}",211.5,41.796275,-71.915454,447110.0,CT,9.0,9015.0,Windham County,90159051004.0
24510,sg:4c004abf6fca4409b88f1ce4b71c9942,Colchester Pet Shop,CT,2019-02-01T00:00:00-05:00,2019-03-01T00:00:00-05:00,6415,1,10.0,"{""<5"":0,""5-20"":1,""21-60"":0,""61-240"":0,"">240"":0}",12.5,41.544736,-72.41422,453910.0,CT,9.0,9011.0,New London County,90117141032.0
24570,sg:5322b7bc2b4347b6852a3602213cdc26,Ponus Ridge Middle School,CT,2019-02-01T00:00:00-05:00,2019-03-01T00:00:00-05:00,6850,556,112.5,"{""<5"":5,""5-20"":110,""21-60"":87,""61-240"":162,"">240"":192}",75372.0,41.123498,-73.44051800000001,611110.0,CT,9.0,9001.0,Fairfield County,90010432001.0
24590,sg:54957ba84f774b6caee968c8f27438f9,Figs Wood Fired Bistro,CT,2019-02-01T00:00:00-05:00,2019-03-01T00:00:00-05:00,6482,156,51.0,"{""<5"":4,""5-20"":37,""21-60"":54,""61-240"":56,"">240"":5}",12287.5,41.420147,-73.284174,722511.0,CT,9.0,9001.0,Fairfield County,90012301001.0
24667,sg:5af2e33095ea4edf9150f23143206210,ViJon Studios Stained Glass Supply Center,CT,2019-02-01T00:00:00-05:00,2019-03-01T00:00:00-05:00,6475,19,27.0,"{""<5"":0,""5-20"":8,""21-60"":7,""61-240"":2,"">240"":2}",1164.5,41.292721,-72.421279,444120.0,CT,9.0,9007.0,Middlesex County,90076701002.0
24752,sg:6531667711654154ade00500d34f4e03,Countryside Veterinary Hospital,CT,2019-02-01T00:00:00-05:00,2019-03-01T00:00:00-05:00,6484,108,48.0,"{""<5"":6,""5-20"":23,""21-60"":33,""61-240"":13,"">240"":33}",11515.5,41.334103000000006,-73.16686700000001,541940.0,CT,9.0,9001.0,Fairfield County,90011106003.0
24834,sg:6c834e0a780a4d509e86b019c292c92e,Safety & Work Boat Services Services,CT,2019-02-01T00:00:00-05:00,2019-03-01T00:00:00-05:00,6057,3,5.0,"{""<5"":0,""5-20"":3,""21-60"":0,""61-240"":0,"">240"":0}",37.5,41.862536999999996,-72.958148,441222.0,CT,9.0,9005.0,Litchfield County,90053061002.0
24867,sg:6f9737177f4d4be4956d99ee1ea7ca52,Life Storage,CT,2019-02-01T00:00:00-05:00,2019-03-01T00:00:00-05:00,6902,63,20.0,"{""<5"":0,""5-20"":32,""21-60"":18,""61-240"":7,"">240"":6}",3622.5,41.042111,-73.551354,531130.0,CT,9.0,9001.0,Fairfield County,90010223001.0
24907,sg:72432c7419f94135b5c2510c9de571a8,Courthouse Cafe,CT,2019-02-01T00:00:00-05:00,2019-03-01T00:00:00-05:00,6905,233,39.0,"{""<5"":4,""5-20"":82,""21-60"":53,""61-240"":64,"">240"":30}",20013.5,41.059867,-73.535611,722511.0,CT,9.0,9001.0,Fairfield County,90010216004.0
25025,sg:7cbec9fec432425981b577f08f376cb5,Southbury Baptist Church,CT,2019-02-01T00:00:00-05:00,2019-03-01T00:00:00-05:00,6488,31,22.0,"{""<5"":1,""5-20"":13,""21-60"":6,""61-240"":11,"">240"":0}",2063.5,41.500052000000004,-73.216794,813110.0,CT,9.0,9009.0,New Haven County,90093481242.0
25062,sg:8080af1603324539ac9790d0c5c35083,Gugliotti's Salon,CT,2019-02-01T00:00:00-05:00,2019-03-01T00:00:00-05:00,6114,12,13.5,"{""<5"":0,""5-20"":8,""21-60"":2,""61-240"":1,"">240"":1}",571.5,41.735753,-72.675467,812112.0,CT,9.0,9003.0,Hartford County,90035023002.0
25080,sg:821ac75453c7420698eb19689bea0f2e,Lordship Learning Tree Preschool Daycare,CT,2019-02-01T00:00:00-05:00,2019-03-01T00:00:00-05:00,6615,33,28.0,"{""<5"":0,""5-20"":15,""21-60"":4,""61-240"":14,"">240"":0}",2456.5,41.155115,-73.12344399999999,624410.0,CT,9.0,9001.0,Fairfield County,90010805002.0
25170,sg:8a640201d3d647d2984bc980a3bcefc1,Agora Restaurant & Bar,CT,2019-02-01T00:00:00-05:00,2019-03-01T00:00:00-05:00,6804,204,22.5,"{""<5"":7,""5-20"":82,""21-60"":56,""61-240"":58,"">240"":1}",12279.5,41.483661,-73.410527,722511.0,CT,9.0,9001.0,Fairfield County,90012051001.0
25274,sg:94255745b0c84a48b8eaba627a5b4194,Bonani Indian Kitchen,CT,2019-02-01T00:00:00-05:00,2019-03-01T00:00:00-05:00,6825,127,10.0,"{""<5"":6,""5-20"":82,""21-60"":25,""61-240"":14,"">240"":0}",4159.5,41.18169,-73.250985,722511.0,CT,9.0,9001.0,Fairfield County,90010610003.0
25358,sg:9b81b7a9688f40deaf01a9839d44fa73,Farmington Ave Package Store,CT,2019-02-01T00:00:00-05:00,2019-03-01T00:00:00-05:00,6105,11,10.0,"{""<5"":0,""5-20"":10,""21-60"":0,""61-240"":1,"">240"":0}",275.5,41.766353,-72.70794699999999,445310.0,CT,9.0,9003.0,Hartford County,90035042003.0
25507,sg:ad0d739d9d2a45daad97a7540a98643f,St Michael's Byzantine Catholic Church,CT,2019-02-01T00:00:00-05:00,2019-03-01T00:00:00-05:00,6782,98,234.0,"{""<5"":0,""5-20"":10,""21-60"":10,""61-240"":29,"">240"":49}",16654.5,41.676407,-73.002151,813110.0,CT,9.0,9005.0,Litchfield County,90054255003.0
25543,sg:b10271f9e0c84e46a90ac5dec603bdcb,St Patrick St Anthony Church,CT,2019-02-01T00:00:00-05:00,2019-03-01T00:00:00-05:00,6103,28,73.0,"{""<5"":0,""5-20"":1,""21-60"":9,""61-240"":14,"">240"":4}",3444.0,41.769082,-72.678045,813110.0,CT,9.0,9003.0,Hartford County,90035021001.0
25589,sg:b4ff6250232b4bd7b118cf7ab5da8cb8,Hilltop Restaurant Bar & Banquet,CT,2019-02-01T00:00:00-05:00,2019-03-01T00:00:00-05:00,6279,175,49.0,"{""<5"":1,""5-20"":38,""21-60"":57,""61-240"":77,"">240"":2}",14854.5,41.874804,-72.301221,722511.0,CT,9.0,9013.0,Tolland County,90138401004.0
25938,sg:da6f757622924abdb9ef4b8d2bd9eea3,Polish Helping Hands,CT,2019-02-01T00:00:00-05:00,2019-03-01T00:00:00-05:00,6085,13,68.0,"{""<5"":0,""5-20"":2,""21-60"":4,""61-240"":2,"">240"":5}",1688.0,41.755201,-72.886112,621610.0,CT,9.0,9003.0,Hartford County,90034603011.0
25958,sg:dd38b1c4bda4474486bd5eefe143eced,3 Stones Healing Group,CT,2019-02-01T00:00:00-05:00,2019-03-01T00:00:00-05:00,6437,7,42.0,"{""<5"":0,""5-20"":1,""21-60"":5,""61-240"":1,"">240"":0}",365.5,41.288464000000005,-72.670582,621330.0,CT,9.0,9009.0,New Haven County,90091901002.0
25970,sg:de3b2725fea54e378ebd4994274ad3ce,New England Naturopathic Center,CT,2019-02-01T00:00:00-05:00,2019-03-01T00:00:00-05:00,6410,36,67.0,"{""<5"":2,""5-20"":6,""21-60"":7,""61-240"":10,"">240"":11}",4508.5,41.501553,-72.901719,621111.0,CT,9.0,9009.0,New Haven County,90093431021.0
26007,sg:e1fd5c3964b94f669ac1e755f2d00286,Rae's Driving School,CT,2019-02-01T00:00:00-05:00,2019-03-01T00:00:00-05:00,6443,18,5.0,"{""<5"":2,""5-20"":14,""21-60"":1,""61-240"":0,"">240"":1}",460.5,41.281000000000006,-72.631215,453310.0,CT,9.0,9009.0,New Haven County,90091941004.0
26029,sg:e49af4ea21984a758b5fafbed44f6041,Chubba's Bagelry,CT,2019-02-01T00:00:00-05:00,2019-03-01T00:00:00-05:00,6795,287,24.0,"{""<5"":8,""5-20"":113,""21-60"":102,""61-240"":49,"">240"":15}",16538.0,41.595391,-73.112376,722515.0,CT,9.0,9005.0,Litchfield County,90053602004.0
26071,sg:e8fde540986449c499279c8180c2f05d,South Norwalk Boat Club,CT,2019-02-01T00:00:00-05:00,2019-03-01T00:00:00-05:00,6854,179,60.0,"{""<5"":2,""5-20"":40,""21-60"":48,""61-240"":76,"">240"":13}",17007.0,41.092846,-73.412672,722513.0,CT,9.0,9001.0,Fairfield County,90010441002.0
26173,sg:f55555ed6c6345d689c762b3ae8548d0,ProSource Wholesale Flooring,CT,2019-02-01T00:00:00-05:00,2019-03-01T00:00:00-05:00,6114,6,9.0,"{""<5"":0,""5-20"":4,""21-60"":0,""61-240"":0,"">240"":2}",530.0,41.737216,-72.65337099999999,442210.0,CT,9.0,9003.0,Hartford County,90035025001.0
26356,sg:07fe31dea65d4fc9bf646f1781f68e6e,United Congregational Church of Westerly,CT,2019-02-01T00:00:00-05:00,2019-03-01T00:00:00-05:00,6379,35,35.0,"{""<5"":0,""5-20"":9,""21-60"":12,""61-240"":11,"">240"":3}",2974.0,41.377225,-71.849079,813110.0,CT,9.0,9011.0,New London County,90117051023.0
26409,sg:0c497897857241bba48dc298f895762b,Gumdrop Swap Kids Boutique,CT,2019-02-01T00:00:00-05:00,2019-03-01T00:00:00-05:00,6604,265,37.0,"{""<5"":2,""5-20"":82,""21-60"":78,""61-240"":51,"">240"":52}",24344.5,41.178058,-73.189251,453998.0,CT,9.0,9001.0,Fairfield County,90010706001.0
26544,sg:1a1641e91ba84ab4a6954dd4441024d5,CT Dance Theatre & The Arts,CT,2019-02-01T00:00:00-05:00,2019-03-01T00:00:00-05:00,6712,282,65.5,"{""<5"":4,""5-20"":60,""21-60"":68,""61-240"":126,"">240"":24}",28237.0,41.505431,-72.982479,713940.0,CT,9.0,9009.0,New Haven County,90093472001.0
26794,sg:32e93e6b46d043f9977eaf2c3ebae01b,Corner Music,CT,2019-02-01T00:00:00-05:00,2019-03-01T00:00:00-05:00,6475,223,57.0,"{""<5"":2,""5-20"":51,""21-60"":61,""61-240"":86,"">240"":23}",21576.0,41.289206,-72.376315,451140.0,CT,9.0,9007.0,Middlesex County,90076702004.0
26863,sg:39e484a959144e9d90f5ae106e18c348,Mobil,CT,2019-02-01T00:00:00-05:00,2019-03-01T00:00:00-05:00,6824,368,8.0,"{""<5"":20,""5-20"":260,""21-60"":55,""61-240"":20,"">240"":13}",11657.5,41.146769,-73.256328,447110.0,CT,9.0,9001.0,Fairfield County,90010607002.0
27095,sg:4d6fc008376646e49bb161904992adc9,Marvin PC Repair,CT,2019-02-01T00:00:00-05:00,2019-03-01T00:00:00-05:00,6103,16,290.5,"{""<5"":0,""5-20"":6,""21-60"":0,""61-240"":2,"">240"":8}",2296.0,41.766575,-72.674941,443142.0,CT,9.0,9003.0,Hartford County,90035021001.0
27148,sg:5373bc1f7af04d19a97933b5be89e9ee,New Park Fabrics,CT,2019-02-01T00:00:00-05:00,2019-03-01T00:00:00-05:00,6106,205,13.0,"{""<5"":4,""5-20"":118,""21-60"":38,""61-240"":25,"">240"":20}",11586.5,41.755871,-72.70667900000001,451130.0,CT,9.0,9003.0,Hartford County,90035043001.0
27195,sg:570f4870ca59493aa572ea964373f916,Tail Waggers,CT,2019-02-01T00:00:00-05:00,2019-03-01T00:00:00-05:00,6801,53,44.0,"{""<5"":1,""5-20"":18,""21-60"":9,""61-240"":9,"">240"":16}",5786.5,41.37258,-73.41630699999999,453910.0,CT,9.0,9001.0,Fairfield County,90012001001.0
27541,sg:79079072e56c4bf98238a437bda0a8e1,B F Clyde's Cider Mill,CT,2019-02-01T00:00:00-05:00,2019-03-01T00:00:00-05:00,6355,1,6.0,"{""<5"":0,""5-20"":1,""21-60"":0,""61-240"":0,"">240"":0}",12.5,41.399023,-71.953908,722511.0,CT,9.0,9011.0,New London County,90117054002.0
27735,sg:8a73ace837374e249486e400b4534d30,The River And Rail Cafe,CT,2019-02-01T00:00:00-05:00,2019-03-01T00:00:00-05:00,6279,131,41.0,"{""<5"":3,""5-20"":36,""21-60"":43,""61-240"":30,"">240"":19}",11274.0,41.88069,-72.304771,722410.0,CT,9.0,9013.0,Tolland County,90138401004.0
27912,sg:9aff0b1153024631a8764825183176d0,Church Of Jesus Christ Of Latter Day Saints,CT,2019-02-01T00:00:00-05:00,2019-03-01T00:00:00-05:00,6360,8,19.5,"{""<5"":0,""5-20"":5,""21-60"":2,""61-240"":1,"">240"":0}",294.0,41.587486,-72.075251,813110.0,CT,9.0,9011.0,New London County,90116962001.0
27973,sg:a1199248070b4a86ba2f8526f7e32e05,Dermatologic Laser Center Of Connecticut,CT,2019-02-01T00:00:00-05:00,2019-03-01T00:00:00-05:00,6851,2,319.5,"{""<5"":0,""5-20"":1,""21-60"":0,""61-240"":0,"">240"":1}",252.5,41.110675,-73.407096,621111.0,CT,9.0,9001.0,Fairfield County,90010436002.0
27991,sg:a303ac57cc334f7e80245f4871065ebd,Mattress Firm,CT,2019-02-01T00:00:00-05:00,2019-03-01T00:00:00-05:00,6488,41,7.0,"{""<5"":3,""5-20"":27,""21-60"":6,""61-240"":2,"">240"":3}",1609.0,41.474348,-73.21898399999999,442110.0,CT,9.0,9009.0,New Haven County,90093481242.0
28043,sg:a7c674b56b7a4e7eb4324ca2b0a48cf1,Toymakers Cafe,CT,2019-02-01T00:00:00-05:00,2019-03-01T00:00:00-05:00,6031,98,39.0,"{""<5"":2,""5-20"":37,""21-60"":23,""61-240"":18,"">240"":18}",8428.0,41.956122,-73.363161,722511.0,CT,9.0,9005.0,Litchfield County,90054256001.0
28268,sg:bd79d6ee52e547fb9f635558db78ff11,Sun Turtle Office Furniture,CT,2019-02-01T00:00:00-05:00,2019-03-01T00:00:00-05:00,6320,32,10.0,"{""<5"":0,""5-20"":22,""21-60"":4,""61-240"":6,"">240"":0}",1340.0,41.367183000000004,-72.103252,442110.0,CT,9.0,9011.0,New London County,90118703004.0
28313,sg:c1ac545d145f454fab2a94bda98079e9,Quest Diagnostics,CT,2019-02-01T00:00:00-05:00,2019-03-01T00:00:00-05:00,6418,204,21.0,"{""<5"":6,""5-20"":95,""21-60"":67,""61-240"":25,"">240"":11}",10318.5,41.336362,-73.089724,621511.0,CT,9.0,9009.0,New Haven County,90091202001.0
28543,sg:d954bc3f4d584bf69c7886492ecbc3be,Cheshire Cycle,CT,2019-02-01T00:00:00-05:00,2019-03-01T00:00:00-05:00,6518,11,8.0,"{""<5"":1,""5-20"":7,""21-60"":2,""61-240"":1,"">240"":0}",321.5,41.422538,-72.905618,451110.0,CT,9.0,9009.0,New Haven County,90091660021.0
28612,sg:e01aab8575c145b4b0eaf09289ea3b5c,Meme's Dance Boutique,CT,2019-02-01T00:00:00-05:00,2019-03-01T00:00:00-05:00,6795,97,30.0,"{""<5"":1,""5-20"":32,""21-60"":33,""61-240"":26,"">240"":5}",6852.0,41.601909,-73.114129,448140.0,CT,9.0,9005.0,Litchfield County,90053601003.0
28875,sg:fce8f25bf0b44a8baa99089fb77699a8,Hebron Center Dentistry,CT,2019-02-01T00:00:00-05:00,2019-03-01T00:00:00-05:00,6248,40,70.0,"{""<5"":0,""5-20"":6,""21-60"":11,""61-240"":8,"">240"":15}",5324.5,41.662527000000004,-72.35826800000001,621210.0,CT,9.0,9013.0,Tolland County,90135261023.0
28917,sg:0148f59218ee47d6a273d0d026ec9004,MacDonald Auto Parts,CT,2019-02-01T00:00:00-05:00,2019-03-01T00:00:00-05:00,6790,70,13.5,"{""<5"":3,""5-20"":44,""21-60"":9,""61-240"":13,"">240"":1}",3118.5,41.818143,-73.09021899999999,441310.0,CT,9.0,9005.0,Litchfield County,90053106021.0
29029,sg:0b236451aef24e0d884face2ac44906a,Flatland Alpacas,CT,2019-02-01T00:00:00-05:00,2019-03-01T00:00:00-05:00,6351,3,27.0,"{""<5"":0,""5-20"":1,""21-60"":1,""61-240"":1,"">240"":0}",203.5,41.55748,-71.941263,451130.0,CT,9.0,9011.0,New London County,90117091003.0
29137,sg:149d225935b04d90a358818c64bb6a83,Cheshire Wine & Spirits,CT,2019-02-01T00:00:00-05:00,2019-03-01T00:00:00-05:00,6410,443,9.0,"{""<5"":28,""5-20"":324,""21-60"":63,""61-240"":20,"">240"":8}",11601.5,41.513405999999996,-72.899262,445310.0,CT,9.0,9009.0,New Haven County,90093431021.0
29146,sg:1545bb06a0154d188b2bb7dc51b9f3e1,KinderCare,CT,2019-02-01T00:00:00-05:00,2019-03-01T00:00:00-05:00,6416,14,11.5,"{""<5"":1,""5-20"":8,""21-60"":3,""61-240"":2,"">240"":0}",525.0,41.607161,-72.711267,624410.0,CT,9.0,9007.0,Middlesex County,90075701001.0
29267,sg:2087001c190342d5a75dabb623e5d066,New England Urgent Care,CT,2019-02-01T00:00:00-05:00,2019-03-01T00:00:00-05:00,6040,2,569.5,"{""<5"":0,""5-20"":0,""21-60"":0,""61-240"":0,"">240"":2}",480.0,41.779069,-72.53978199999999,621493.0,CT,9.0,9003.0,Hartford County,90035145002.0
29387,sg:2abfd6951ebb4b208cbe71a0bad8824c,Aldrich Engine Rebuilding,CT,2019-02-01T00:00:00-05:00,2019-03-01T00:00:00-05:00,6279,13,22.0,"{""<5"":1,""5-20"":5,""21-60"":3,""61-240"":3,"">240"":1}",878.0,41.883583,-72.29925899999999,811111.0,CT,9.0,9013.0,Tolland County,90138401005.0
29390,sg:2ad8687210ab4edfa53a4ac448851361,Michael's Trattoria,CT,2019-02-01T00:00:00-05:00,2019-03-01T00:00:00-05:00,6492,170,43.5,"{""<5"":3,""5-20"":54,""21-60"":44,""61-240"":66,"">240"":3}",13117.5,41.454341,-72.817678,722511.0,CT,9.0,9009.0,New Haven County,90091751001.0
29471,sg:315c7b5bc35444e69ff855f1f10a01da,Mercier's Kustom Auto Body,CT,2019-02-01T00:00:00-05:00,2019-03-01T00:00:00-05:00,6071,87,52.0,"{""<5"":2,""5-20"":26,""21-60"":21,""61-240"":19,"">240"":19}",8600.0,41.967039,-72.455997,811121.0,CT,9.0,9013.0,Tolland County,90135382013.0
29553,sg:392a767507ff4b25a54e4496541eec6c,Glassman,CT,2019-02-01T00:00:00-05:00,2019-03-01T00:00:00-05:00,6907,28,141.0,"{""<5"":0,""5-20"":7,""21-60"":5,""61-240"":5,"">240"":11}",3682.5,41.098065000000005,-73.516512,423390.0,CT,9.0,9001.0,Fairfield County,90010209001.0
29626,sg:40138ad7225646b8a0580d257887f83e,St Joseph R C Church,CT,2019-02-01T00:00:00-05:00,2019-03-01T00:00:00-05:00,6255,1,56.0,"{""<5"":0,""5-20"":0,""21-60"":1,""61-240"":0,"">240"":0}",40.5,41.978739000000004,-71.901837,813110.0,CT,9.0,9015.0,Windham County,90159002004.0
29665,sg:4495a5edee1c414c9c7e39108b3d4842,Zaragoza Restaurant,CT,2019-02-01T00:00:00-05:00,2019-03-01T00:00:00-05:00,6776,64,38.0,"{""<5"":1,""5-20"":20,""21-60"":27,""61-240"":13,"">240"":3}",4022.5,41.577360999999996,-73.411807,722511.0,CT,9.0,9005.0,Litchfield County,90052536002.0
29706,sg:492d23c86a7d4bf091e65136f9ad087a,First Church Village,CT,2019-02-01T00:00:00-05:00,2019-03-01T00:00:00-05:00,6109,38,24.5,"{""<5"":4,""5-20"":15,""21-60"":3,""61-240"":11,"">240"":5}",3174.5,41.705878999999996,-72.665626,813110.0,CT,9.0,9003.0,Hartford County,90034922001.0
29746,sg:4b74b20252d5428796939acb240eb1f3,Shady Oaks Park,CT,2019-02-01T00:00:00-05:00,2019-03-01T00:00:00-05:00,6355,299,22.0,"{""<5"":16,""5-20"":129,""21-60"":75,""61-240"":55,"">240"":24}",18727.5,41.393801,-71.97415,712190.0,CT,9.0,9011.0,New London County,90117021002.0
29757,sg:4c72536100d744f988faca63ae8dd136,Shell Oil,CT,2019-02-01T00:00:00-05:00,2019-03-01T00:00:00-05:00,6611,285,6.0,"{""<5"":46,""5-20"":166,""21-60"":30,""61-240"":22,"">240"":21}",11756.0,41.257692,-73.219941,447110.0,CT,9.0,9001.0,Fairfield County,90010902002.0
