,safegraph_place_id,location_name,region,date_range_start,date_range_end,postal_code,raw_visit_counts,median_dwell,bucketed_dwell_times,est_total_dwell,latitude,longitude,naics_code,state,stateFIPS,countyFIPS,countyName,CBGFIPS
107,sg:0b05f5e2737c472ab906d1fc02d8d8de,Guiteras Park,RI,2019-06-01T00:00:00-04:00,2019-07-01T00:00:00-04:00,2809,442,42.0,"{""<5"":15,""5-20"":127,""21-60"":121,""61-240"":123,"">240"":56}",38477.0,41.678360999999995,-71.275589,712190.0,RI,44.0,44001.0,Bristol County,440010309024.0
487,sg:2f3900650b2b4ea081636da2c3a01a1c,Shipyard Pub & Restaurant Twin River,RI,2019-06-01T00:00:00-04:00,2019-07-01T00:00:00-04:00,2865,11,17.0,"{""<5"":1,""5-20"":6,""21-60"":0,""61-240"":3,"">240"":1}",769.0,41.888178,-71.448578,722511.0,RI,44.0,44007.0,Providence County,440070116002.0
616,sg:3c07bf79632d404e8552680073e24dfa,Tiverton Auto Parts,RI,2019-06-01T00:00:00-04:00,2019-07-01T00:00:00-04:00,2878,15,8.0,"{""<5"":2,""5-20"":11,""21-60"":1,""61-240"":1,"">240"":0}",333.5,41.623137,-71.180858,441310.0,RI,44.0,44005.0,Newport County,440050417021.0
924,sg:5750cbde81364b36a55a4b55a73a6a6f,Majestic Honda,RI,2019-06-01T00:00:00-04:00,2019-07-01T00:00:00-04:00,2865,154,19.0,"{""<5"":4,""5-20"":75,""21-60"":30,""61-240"":28,"">240"":17}",10456.5,41.954390999999994,-71.487216,441110.0,RI,44.0,44007.0,Providence County,440070115001.0
1422,sg:89cdcfbcd351484c918447dd5e99ab85,Cluny School,RI,2019-06-01T00:00:00-04:00,2019-07-01T00:00:00-04:00,2840,11,20.0,"{""<5"":0,""5-20"":6,""21-60"":2,""61-240"":1,"">240"":2}",786.5,41.463770000000004,-71.331322,611110.0,RI,44.0,44005.0,Newport County,440050409002.0
1596,sg:9965d30894084c9fa84314dfcc21504f,Salon de Moda,RI,2019-06-01T00:00:00-04:00,2019-07-01T00:00:00-04:00,2911,31,89.0,"{""<5"":0,""5-20"":3,""21-60"":9,""61-240"":16,"">240"":3}",3530.0,41.854945,-71.476396,812112.0,RI,44.0,44007.0,Providence County,440070121021.0
1946,sg:bd6091b43da04f6eab3a02da2d7d64ea,Our Lady Of Mt Carmel School,RI,2019-06-01T00:00:00-04:00,2019-07-01T00:00:00-04:00,2809,280,28.0,"{""<5"":8,""5-20"":99,""21-60"":97,""61-240"":65,"">240"":11}",17608.5,41.671671999999994,-71.273252,611110.0,RI,44.0,44001.0,Bristol County,440010307002.0
2123,sg:cf5f04f312334bedaee25d93affad501,Distinctive Motor Cars,RI,2019-06-01T00:00:00-04:00,2019-07-01T00:00:00-04:00,2919,2,7.0,"{""<5"":1,""5-20"":1,""21-60"":0,""61-240"":0,"">240"":0}",15.0,41.803309999999996,-71.46762700000001,441120.0,RI,44.0,44007.0,Providence County,440070125001.0
2163,sg:d2df1c00567443859d7acc7516b44211,Queen's River Nature Preserve,RI,2019-06-01T00:00:00-04:00,2019-07-01T00:00:00-04:00,2822,1,5.0,"{""<5"":0,""5-20"":1,""21-60"":0,""61-240"":0,"">240"":0}",12.5,41.54616,-71.553433,712190.0,RI,44.0,44009.0,Washington County,440090505003.0
2242,sg:da6e1921e6244b5291be92987d7b89ab,Town Dock,RI,2019-06-01T00:00:00-04:00,2019-07-01T00:00:00-04:00,2919,83,220.0,"{""<5"":1,""5-20"":16,""21-60"":11,""61-240"":14,"">240"":41}",12595.0,41.847611,-71.485523,445220.0,RI,44.0,44007.0,Providence County,440070123001.0
2737,sg:0bb5a483db5d4d47ab7b71800b43f668,Burger King,RI,2019-06-01T00:00:00-04:00,2019-07-01T00:00:00-04:00,2889,542,9.0,"{""<5"":35,""5-20"":363,""21-60"":65,""61-240"":34,"">240"":45}",23174.5,41.705845000000004,-71.41634599999999,722513.0,RI,44.0,44003.0,Kent County,440030218002.0
3378,sg:4ba01e21fbc44dbd8512abc347bf633d,Louttit Library,RI,2019-06-01T00:00:00-04:00,2019-07-01T00:00:00-04:00,2817,194,41.0,"{""<5"":4,""5-20"":55,""21-60"":59,""61-240"":63,"">240"":13}",15688.5,41.640503,-71.688257,519120.0,RI,44.0,44003.0,Kent County,440030208002.0
3984,sg:85d8612bc52146759d69dd04ec466492,The Cliffside Inn,RI,2019-06-01T00:00:00-04:00,2019-07-01T00:00:00-04:00,2840,292,101.0,"{""<5"":2,""5-20"":51,""21-60"":59,""61-240"":92,"">240"":88}",37998.0,41.482479999999995,-71.298937,721110.0,RI,44.0,44005.0,Newport County,440050408001.0
4177,sg:9a6051580b7d4f098510e2aa19957339,GameStop,RI,2019-06-01T00:00:00-04:00,2019-07-01T00:00:00-04:00,2882,257,18.0,"{""<5"":8,""5-20"":138,""21-60"":76,""61-240"":27,"">240"":8}",10806.5,41.428595,-71.484336,451120.0,RI,44.0,44009.0,Washington County,440090515044.0
4241,sg:9f8333e6006640b2a7166e381ee1786b,Thorp & Trainer Inc,RI,2019-06-01T00:00:00-04:00,2019-07-01T00:00:00-04:00,2891,51,51.0,"{""<5"":0,""5-20"":5,""21-60"":26,""61-240"":19,"">240"":1}",4215.0,41.34422,-71.81805,524210.0,RI,44.0,44009.0,Washington County,440090508022.0
5596,sg:1ca40d53201d49e399f3f450e11b52bf,Bixby Insurance Agency,RI,2019-06-01T00:00:00-04:00,2019-07-01T00:00:00-04:00,2828,19,38.0,"{""<5"":0,""5-20"":4,""21-60"":8,""61-240"":2,"">240"":5}",1875.0,41.873868,-71.557068,524210.0,RI,44.0,44007.0,Providence County,440070127013.0
5874,sg:341230f37992495b874d8a7a3902a5a4,Los Rosarios Auto Repair,RI,2019-06-01T00:00:00-04:00,2019-07-01T00:00:00-04:00,2861,17,22.0,"{""<5"":0,""5-20"":8,""21-60"":5,""61-240"":3,"">240"":1}",994.0,41.860353,-71.354844,811111.0,RI,44.0,44007.0,Providence County,440070170002.0
6226,sg:563f7f37c2f24c22b83c998d92ecbaaa,Bristol Total Fitness,RI,2019-06-01T00:00:00-04:00,2019-07-01T00:00:00-04:00,2809,259,43.0,"{""<5"":4,""5-20"":63,""21-60"":103,""61-240"":89,"">240"":0}",18363.5,41.702912,-71.26610699999999,713940.0,RI,44.0,44001.0,Bristol County,440010309021.0
6469,sg:6fc2f08738554fb99382ffad00af9b16,Mac's Bowlaway Lanes,RI,2019-06-01T00:00:00-04:00,2019-07-01T00:00:00-04:00,2893,176,66.0,"{""<5"":4,""5-20"":28,""21-60"":50,""61-240"":77,"">240"":17}",18053.5,41.719426,-71.52484,713950.0,RI,44.0,44003.0,Kent County,440030204002.0
6628,sg:80602ca8f51445bc87178cd3162cffb8,North Kingstown Crossing,RI,2019-06-01T00:00:00-04:00,2019-07-01T00:00:00-04:00,2852,1639,19.0,"{""<5"":40,""5-20"":857,""21-60"":556,""61-240"":116,"">240"":70}",67588.5,41.580608000000005,-71.500615,531120.0,RI,44.0,44009.0,Washington County,440090503011.0
6736,sg:8a1876523210442f9a0169d268604aeb,Beautystudio,RI,2019-06-01T00:00:00-04:00,2019-07-01T00:00:00-04:00,2920,98,53.5,"{""<5"":4,""5-20"":28,""21-60"":20,""61-240"":30,"">240"":16}",9525.0,41.75011,-71.477581,446120.0,RI,44.0,44007.0,Providence County,440070144003.0
7005,sg:a8fdc1b83a404d06b7c7d04ebf86cf7a,Tommy's Clam Shack,RI,2019-06-01T00:00:00-04:00,2019-07-01T00:00:00-04:00,2889,164,24.0,"{""<5"":2,""5-20"":60,""21-60"":87,""61-240"":13,"">240"":2}",6715.0,41.715731,-71.400262,722511.0,RI,44.0,44003.0,Kent County,440030214011.0
7057,sg:adc447c6cb4a42e68848e3021d3ad3c0,Ace Investigations & Security,RI,2019-06-01T00:00:00-04:00,2019-07-01T00:00:00-04:00,2903,64,35.5,"{""<5"":3,""5-20"":17,""21-60"":18,""61-240"":21,"">240"":5}",5309.5,41.821158000000004,-71.42475,443142.0,RI,44.0,44007.0,Providence County,440070011001.0
7102,sg:b3595054b54443a8a7548e9b68402c88,Roseanne Mississian Electrologist,RI,2019-06-01T00:00:00-04:00,2019-07-01T00:00:00-04:00,2907,249,54.0,"{""<5"":5,""5-20"":81,""21-60"":45,""61-240"":85,"">240"":33}",23560.0,41.786938,-71.432488,446120.0,RI,44.0,44007.0,Providence County,440070015001.0
7245,sg:c20ed01ccc104e87b7e6b9762a6e8497,Sustainable Seafood,RI,2019-06-01T00:00:00-04:00,2019-07-01T00:00:00-04:00,2914,27,50.0,"{""<5"":0,""5-20"":9,""21-60"":6,""61-240"":12,"">240"":0}",2161.5,41.813337,-71.35684499999999,445220.0,RI,44.0,44007.0,Providence County,440070103003.0
7766,sg:f57bb76bc4ca4b07b3db5ffb67af75f3,IGA,RI,2019-06-01T00:00:00-04:00,2019-07-01T00:00:00-04:00,2893,129,15.0,"{""<5"":2,""5-20"":86,""21-60"":16,""61-240"":17,"">240"":8}",6206.5,41.708357,-71.5203,445110.0,RI,44.0,44003.0,Kent County,440030202001.0
8237,sg:20a2f3daf0144edba05d44e9b5744a5d,Miracle-Ear,RI,2019-06-01T00:00:00-04:00,2019-07-01T00:00:00-04:00,2879,7,7.0,"{""<5"":0,""5-20"":6,""21-60"":1,""61-240"":0,"">240"":0}",115.5,41.455743,-71.470146,446199.0,RI,44.0,44009.0,Washington County,440090512024.0
8249,sg:213a8a2b0f1c4c5fa1396787947b7fb1,HairLines,RI,2019-06-01T00:00:00-04:00,2019-07-01T00:00:00-04:00,2920,39,21.0,"{""<5"":0,""5-20"":19,""21-60"":12,""61-240"":7,"">240"":1}",2017.0,41.750440999999995,-71.477562,446120.0,RI,44.0,44007.0,Providence County,440070144003.0
8818,sg:558ff6ca4ee14d2184c0d07c98264768,J & F Automotive Repair,RI,2019-06-01T00:00:00-04:00,2019-07-01T00:00:00-04:00,2816,48,96.0,"{""<5"":0,""5-20"":11,""21-60"":9,""61-240"":10,"">240"":18}",6327.0,41.693251000000004,-71.551103,811111.0,RI,44.0,44003.0,Kent County,440030206021.0
9243,sg:81833add8f24404297ecd0c01ec1b8d6,Sears Home Services,RI,2019-06-01T00:00:00-04:00,2019-07-01T00:00:00-04:00,2852,50,58.5,"{""<5"":1,""5-20"":6,""21-60"":19,""61-240"":21,"">240"":3}",4727.5,41.616157,-71.459491,452210.0,RI,44.0,44009.0,Washington County,440090501034.0
10321,sg:efba062a5274433583b4ddb3772cecc2,The Hungry Goat's Kitchen,RI,2019-06-01T00:00:00-04:00,2019-07-01T00:00:00-04:00,2861,82,52.5,"{""<5"":0,""5-20"":20,""21-60"":22,""61-240"":16,"">240"":24}",9309.0,41.888938,-71.349154,722511.0,RI,44.0,44007.0,Providence County,440070158005.0
10810,sg:1fb8f9b7cbda467aad60e01ceb936f4e,Carroll Coatings,RI,2019-06-01T00:00:00-04:00,2019-07-01T00:00:00-04:00,2905,10,98.5,"{""<5"":1,""5-20"":1,""21-60"":1,""61-240"":5,"">240"":2}",1288.0,41.792643,-71.401481,811111.0,RI,44.0,44007.0,Providence County,440070001014.0
11364,sg:5796493adb8547529acc4605b9b51a9e,Nathan's Famous,RI,2019-06-01T00:00:00-04:00,2019-07-01T00:00:00-04:00,2816,936,18.0,"{""<5"":37,""5-20"":510,""21-60"":316,""61-240"":47,"">240"":26}",32579.0,41.679484,-71.570049,722513.0,RI,44.0,44003.0,Kent County,440030206033.0
13027,sg:fed063d1b5534ee3bf355de5b57de05a,Sandley Field,RI,2019-06-01T00:00:00-04:00,2019-07-01T00:00:00-04:00,2720,680,55.5,"{""<5"":15,""5-20"":130,""21-60"":213,""61-240"":205,"">240"":117}",69221.5,41.714669,-71.13994699999999,713940.0,MA,25.0,25005.0,Bristol County,250056424001.0
13117,sg:0755c27b2bb1416b87470d2b60362915,Carter's,RI,2019-06-01T00:00:00-04:00,2019-07-01T00:00:00-04:00,2917,56,20.0,"{""<5"":0,""5-20"":29,""21-60"":18,""61-240"":9,"">240"":0}",2446.0,41.872820000000004,-71.518045,448130.0,RI,44.0,44007.0,Providence County,440070126012.0
13595,sg:34b004b6117d4b29a13b8f60886af1c8,Bellini Jewelers,RI,2019-06-01T00:00:00-04:00,2019-07-01T00:00:00-04:00,2919,3,32.0,"{""<5"":0,""5-20"":1,""21-60"":2,""61-240"":0,"">240"":0}",93.5,41.822653,-71.4991,448310.0,RI,44.0,44007.0,Providence County,440070124015.0
13799,sg:47134c44d1194107b737cf609cfb3dfd,Marshalls,RI,2019-06-01T00:00:00-04:00,2019-07-01T00:00:00-04:00,2842,285,14.0,"{""<5"":9,""5-20"":180,""21-60"":75,""61-240"":8,"">240"":13}",9634.0,41.520685,-71.292163,448140.0,RI,44.0,44005.0,Newport County,440050403042.0
13934,sg:53653f383f0c43f19fe516812c39d63d,Rapunzel,RI,2019-06-01T00:00:00-04:00,2019-07-01T00:00:00-04:00,2818,20,51.0,"{""<5"":0,""5-20"":3,""21-60"":8,""61-240"":5,"">240"":4}",2074.0,41.621068,-71.491086,812112.0,RI,44.0,44003.0,Kent County,440030209032.0
13955,sg:55668b1b3adb467aafec70ec146f9230,D'Angelo Sandwich Shops,RI,2019-06-01T00:00:00-04:00,2019-07-01T00:00:00-04:00,2886,60,15.0,"{""<5"":2,""5-20"":36,""21-60"":15,""61-240"":7,"">240"":0}",2116.0,41.730276,-71.476254,722513.0,RI,44.0,44003.0,Kent County,440030223003.0
14162,sg:68538f1c9fc84ec48c9b1d94cce82159,Gilligan's,RI,2019-06-01T00:00:00-04:00,2019-07-01T00:00:00-04:00,2908,347,43.0,"{""<5"":14,""5-20"":104,""21-60"":95,""61-240"":109,"">240"":25}",27587.0,41.832770000000004,-71.438413,713950.0,RI,44.0,44007.0,Providence County,440070023002.0
14175,sg:694e8a46f7ab4eb69f3f2e01d692b414,Corbett Photography,RI,2019-06-01T00:00:00-04:00,2019-07-01T00:00:00-04:00,2842,1,111.0,"{""<5"":0,""5-20"":0,""21-60"":0,""61-240"":1,"">240"":0}",150.5,41.527805,-71.296561,541921.0,RI,44.0,44005.0,Newport County,440050403032.0
14428,sg:807361db83de451d98ca028880bd6303,West Glocester Elementary,RI,2019-06-01T00:00:00-04:00,2019-07-01T00:00:00-04:00,2814,89,57.0,"{""<5"":2,""5-20"":28,""21-60"":16,""61-240"":19,"">240"":24}",9622.5,41.912019,-71.778153,611110.0,RI,44.0,44007.0,Providence County,440070131012.0
15050,sg:bde9f9fbe643447289993ca85758053e,Crestwood Wine & Spirits,RI,2019-06-01T00:00:00-04:00,2019-07-01T00:00:00-04:00,2816,450,8.0,"{""<5"":31,""5-20"":329,""21-60"":74,""61-240"":7,"">240"":9}",10400.5,41.683898,-71.559607,445310.0,RI,44.0,44003.0,Kent County,440030206021.0
15106,sg:c374dce12647482d859a88a5df34be7d,Walgreens,RI,2019-06-01T00:00:00-04:00,2019-07-01T00:00:00-04:00,2908,369,10.0,"{""<5"":14,""5-20"":254,""21-60"":62,""61-240"":26,"">240"":13}",12754.0,41.833071999999994,-71.44408100000001,446110.0,RI,44.0,44007.0,Providence County,440070023003.0
15733,sg:0728274050524f57b706524b14e7d21b,Herbert F Paine Memorial Field,RI,2019-06-01T00:00:00-04:00,2019-07-01T00:00:00-04:00,2816,463,40.0,"{""<5"":6,""5-20"":133,""21-60"":178,""61-240"":139,"">240"":7}",31486.0,41.691532,-71.57028299999999,713940.0,RI,44.0,44003.0,Kent County,440030206021.0
15818,sg:0f76fba73fd445df9e33206f7a96cd42,The Slocum Agency,RI,2019-06-01T00:00:00-04:00,2019-07-01T00:00:00-04:00,2886,46,136.5,"{""<5"":0,""5-20"":8,""21-60"":8,""61-240"":16,"">240"":14}",6192.0,41.698260999999995,-71.472806,524210.0,RI,44.0,44003.0,Kent County,440030222011.0
16025,sg:220369d728d941e58da476ba104228cc,Apex,RI,2019-06-01T00:00:00-04:00,2019-07-01T00:00:00-04:00,2860,1179,35.0,"{""<5"":35,""5-20"":436,""21-60"":238,""61-240"":246,"">240"":224}",105959.5,41.875076,-71.38309100000001,442110.0,RI,44.0,44007.0,Providence County,440070167002.0
16196,sg:3209ae97f0f546f0affe416ebe24061f,Tlc Coffee Roasters,RI,2019-06-01T00:00:00-04:00,2019-07-01T00:00:00-04:00,2882,31,244.0,"{""<5"":0,""5-20"":14,""21-60"":0,""61-240"":1,"">240"":16}",4165.5,41.475375,-71.43555699999999,722515.0,RI,44.0,44009.0,Washington County,440090515024.0
16329,sg:3e8c08a4dff94aaeac4134ce0d4bd260,La Forge Casino Restaurant,RI,2019-06-01T00:00:00-04:00,2019-07-01T00:00:00-04:00,2840,77,40.0,"{""<5"":3,""5-20"":28,""21-60"":20,""61-240"":22,"">240"":4}",5438.5,41.482972,-71.30828699999999,722511.0,RI,44.0,44005.0,Newport County,440050408001.0
16380,sg:42b96b9ea0ca45759fe9df432c8fb030,Honey Dew Donuts,RI,2019-06-01T00:00:00-04:00,2019-07-01T00:00:00-04:00,2914,153,7.0,"{""<5"":6,""5-20"":114,""21-60"":19,""61-240"":10,"">240"":4}",4674.5,41.80836,-71.34072900000001,311811.0,RI,44.0,44007.0,Providence County,440070103003.0
16538,sg:52379d5b7ff94c818030f1671e59ce5e,Aqua Living Factory Direct,RI,2019-06-01T00:00:00-04:00,2019-07-01T00:00:00-04:00,2920,12,69.0,"{""<5"":0,""5-20"":2,""21-60"":4,""61-240"":2,"">240"":4}",1448.0,41.794975,-71.450272,423910.0,RI,44.0,44007.0,Providence County,440070141002.0
16547,sg:52c0748d229a4f5bafdd9b63d9dcf125,Karezz Hair Salon,RI,2019-06-01T00:00:00-04:00,2019-07-01T00:00:00-04:00,2906,79,49.0,"{""<5"":2,""5-20"":25,""21-60"":16,""61-240"":27,"">240"":9}",7189.0,41.824453999999996,-71.38996999999999,812112.0,RI,44.0,44007.0,Providence County,440070035002.0
17227,sg:9226576dbc7f4773a5bd41bfd7bc34ca,Dr Michele Chiropractic Care,RI,2019-06-01T00:00:00-04:00,2019-07-01T00:00:00-04:00,2910,18,89.0,"{""<5"":0,""5-20"":3,""21-60"":3,""61-240"":7,"">240"":5}",2412.5,41.771281,-71.437368,621310.0,RI,44.0,44007.0,Providence County,440070138004.0
17240,sg:93c71bb89a864ff9bd17eebe96a46523,Raymond James Financial,RI,2019-06-01T00:00:00-04:00,2019-07-01T00:00:00-04:00,2891,16,219.0,"{""<5"":0,""5-20"":2,""21-60"":0,""61-240"":8,"">240"":6}",2669.0,41.376899,-71.82780799999999,523930.0,RI,44.0,44009.0,Washington County,440090508014.0
17368,sg:a224b4fd312e41b9b579585cac60bb80,Pawtucket Center,RI,2019-06-01T00:00:00-04:00,2019-07-01T00:00:00-04:00,2861,313,99.0,"{""<5"":4,""5-20"":55,""21-60"":52,""61-240"":106,"">240"":96}",41796.5,41.863171,-71.352184,621610.0,RI,44.0,44007.0,Providence County,440070170002.0
17680,sg:c015bf9839194ea192b77ee143b82570,The Abbey,RI,2019-06-01T00:00:00-04:00,2019-07-01T00:00:00-04:00,2908,211,61.0,"{""<5"":2,""5-20"":36,""21-60"":66,""61-240"":65,"">240"":42}",22990.5,41.849245,-71.439436,722511.0,RI,44.0,44007.0,Providence County,440070024002.0
17987,sg:dd0218669ed7414cb23535960f95d10f,Spalon,RI,2019-06-01T00:00:00-04:00,2019-07-01T00:00:00-04:00,2842,2,6.0,"{""<5"":0,""5-20"":2,""21-60"":0,""61-240"":0,"">240"":0}",25.0,41.508842,-71.283057,812112.0,RI,44.0,44005.0,Newport County,440050404002.0
17996,sg:de98c742717d45739423018499839f7f,Sessions Street Park,RI,2019-06-01T00:00:00-04:00,2019-07-01T00:00:00-04:00,2906,81,33.0,"{""<5"":1,""5-20"":31,""21-60"":28,""61-240"":12,"">240"":9}",5490.0,41.842117,-71.391278,712190.0,RI,44.0,44007.0,Providence County,440070034001.0
18126,sg:ec56d35fe4184fe6a7ee3e2001edb092,Venus Nightclub,RI,2019-06-01T00:00:00-04:00,2019-07-01T00:00:00-04:00,2905,110,26.0,"{""<5"":1,""5-20"":45,""21-60"":18,""61-240"":34,"">240"":12}",9291.0,41.793564,-71.40838199999999,722511.0,RI,44.0,44007.0,Providence County,440070001021.0
18625,sg:1f717acf8910423db8d5f9395e463445,Flowers By Bert & Peg,RI,2019-06-01T00:00:00-04:00,2019-07-01T00:00:00-04:00,2852,101,8.0,"{""<5"":6,""5-20"":71,""21-60"":19,""61-240"":5,"">240"":0}",2424.5,41.560356,-71.464713,453110.0,RI,44.0,44009.0,Washington County,440090503021.0
18803,sg:2f181785e02747e8a8704e0b6a95381d,Natco Products,RI,2019-06-01T00:00:00-04:00,2019-07-01T00:00:00-04:00,2893,214,159.0,"{""<5"":8,""5-20"":40,""21-60"":35,""61-240"":44,"">240"":87}",29439.5,41.698661,-71.525093,561740.0,RI,44.0,44003.0,Kent County,440030202003.0
18901,sg:37420473654f4c5096093cf44397dea5,SCOTT VOLKSWAGEN,RI,2019-06-01T00:00:00-04:00,2019-07-01T00:00:00-04:00,2914,332,19.0,"{""<5"":14,""5-20"":165,""21-60"":82,""61-240"":46,"">240"":25}",18341.5,41.821528,-71.351661,441110.0,RI,44.0,44007.0,Providence County,440070103002.0
19953,sg:9b22de1652914631ac25cba13ba04364,Hair We Are,RI,2019-06-01T00:00:00-04:00,2019-07-01T00:00:00-04:00,2895,1,7.0,"{""<5"":0,""5-20"":1,""21-60"":0,""61-240"":0,"">240"":0}",12.5,41.997122,-71.517184,812112.0,RI,44.0,44007.0,Providence County,440070178003.0
19992,sg:9e6eeb93a2424858b1858e7ade319aab,North East Action Sports,RI,2019-06-01T00:00:00-04:00,2019-07-01T00:00:00-04:00,2818,40,20.5,"{""<5"":1,""5-20"":19,""21-60"":10,""61-240"":10,"">240"":0}",2150.0,41.63599,-71.46859599999999,721110.0,RI,44.0,44003.0,Kent County,440030209042.0
19994,sg:9ea413df785643a8b888b71a060cd976,Main Street Motors,RI,2019-06-01T00:00:00-04:00,2019-07-01T00:00:00-04:00,2823,24,65.0,"{""<5"":1,""5-20"":8,""21-60"":3,""61-240"":6,"">240"":6}",2567.0,41.733755,-71.54823499999999,,RI,44.0,44007.0,Providence County,440070132013.0
20359,sg:c28d5c72c60647149535e6e0e84006eb,Denise Shapiro DDS,RI,2019-06-01T00:00:00-04:00,2019-07-01T00:00:00-04:00,2906,47,39.0,"{""<5"":0,""5-20"":18,""21-60"":10,""61-240"":9,"">240"":10}",4384.5,41.831208000000004,-71.390046,621210.0,RI,44.0,44007.0,Providence County,440070035001.0
20482,sg:ccc66278fd2d4a6697f1f97a25c51485,Bapsang,RI,2019-06-01T00:00:00-04:00,2019-07-01T00:00:00-04:00,2852,95,17.0,"{""<5"":8,""5-20"":47,""21-60"":23,""61-240"":9,"">240"":8}",4813.5,41.629418,-71.462374,722511.0,RI,44.0,44009.0,Washington County,440090501041.0
20593,sg:d902d2c7a13f445bba31139733057d78,Sunoco,RI,2019-06-01T00:00:00-04:00,2019-07-01T00:00:00-04:00,2860,249,8.0,"{""<5"":24,""5-20"":160,""21-60"":36,""61-240"":20,"">240"":9}",8688.0,41.873521999999994,-71.38113299999999,447110.0,RI,44.0,44007.0,Providence County,440070167002.0
21588,sg:357fffe675084f4d84481c9746bfabb3,Aloha Pizza,RI,2019-06-01T00:00:00-04:00,2019-07-01T00:00:00-04:00,2893,234,27.5,"{""<5"":14,""5-20"":93,""21-60"":52,""61-240"":45,"">240"":30}",17276.0,41.700497999999996,-71.52801600000001,722511.0,RI,44.0,44003.0,Kent County,440030203005.0
21767,sg:4643f8da68924354a2a42ae2169d7b9a,Michaels Discount,RI,2019-06-01T00:00:00-04:00,2019-07-01T00:00:00-04:00,2861,84,39.0,"{""<5"":3,""5-20"":32,""21-60"":14,""61-240"":14,"">240"":21}",8121.5,41.891625,-71.347454,452319.0,RI,44.0,44007.0,Providence County,440070157002.0
21796,sg:49a0612cce464870ae40ce56284815dc,Michelangelo's Deli and Catering,RI,2019-06-01T00:00:00-04:00,2019-07-01T00:00:00-04:00,2920,17,10.0,"{""<5"":3,""5-20"":7,""21-60"":1,""61-240"":0,"">240"":6}",1575.5,41.757852,-71.445886,721110.0,RI,44.0,44007.0,Providence County,440070139003.0
21841,sg:4dcba65a64ca4ae0af1962d0bb240c6d,Two Little Fish,RI,2019-06-01T00:00:00-04:00,2019-07-01T00:00:00-04:00,2891,496,35.0,"{""<5"":9,""5-20"":160,""21-60"":149,""61-240"":127,"">240"":51}",39410.5,41.324958,-71.796529,722511.0,RI,44.0,44009.0,Washington County,440090510004.0
22209,sg:6fda6289468649a8ac1ced23d960e7e4,The Point Tavern,RI,2019-06-01T00:00:00-04:00,2019-07-01T00:00:00-04:00,2903,69,59.0,"{""<5"":0,""5-20"":15,""21-60"":22,""61-240"":20,"">240"":12}",6968.5,41.819674,-71.39714000000001,722511.0,RI,44.0,44007.0,Providence County,440070037003.0
22350,sg:7e498a90bd3b490c92bb1b805f72bb2a,Warwick Dance & Gymnastics Academy,RI,2019-06-01T00:00:00-04:00,2019-07-01T00:00:00-04:00,2889,193,40.0,"{""<5"":6,""5-20"":59,""21-60"":57,""61-240"":65,"">240"":6}",14283.5,41.706959999999995,-71.416523,713940.0,RI,44.0,44003.0,Kent County,440030219021.0
22464,sg:88ff19f5249e4e72ae7f37dad3b421ff,Evans D Matthew,RI,2019-06-01T00:00:00-04:00,2019-07-01T00:00:00-04:00,2906,300,166.5,"{""<5"":1,""5-20"":37,""21-60"":46,""61-240"":94,"">240"":122}",45755.0,41.843094,-71.380073,621330.0,RI,44.0,44007.0,Providence County,440070034002.0
22519,sg:8ed9d8cd0f0f44ea96a259296220f948,Beacon Hospice,RI,2019-06-01T00:00:00-04:00,2019-07-01T00:00:00-04:00,2914,285,151.0,"{""<5"":2,""5-20"":42,""21-60"":32,""61-240"":125,"">240"":84}",40798.5,41.80268,-71.344139,621610.0,RI,44.0,44007.0,Providence County,440070105011.0
22597,sg:96c5b40f38d84b73aa2ad1a8aa758d13,Piper Brown Photography,RI,2019-06-01T00:00:00-04:00,2019-07-01T00:00:00-04:00,2917,46,145.5,"{""<5"":0,""5-20"":3,""21-60"":12,""61-240"":13,"">240"":18}",6800.0,41.878786,-71.472877,541921.0,RI,44.0,44007.0,Providence County,440070126026.0
22668,sg:9ce20a0092904f31a4f63e7b902ff481,Attorney Mark Buckley CFP,RI,2019-06-01T00:00:00-04:00,2019-07-01T00:00:00-04:00,2909,6,6.0,"{""<5"":1,""5-20"":4,""21-60"":0,""61-240"":1,"">240"":0}",203.0,41.815929,-71.434938,541213.0,RI,44.0,44007.0,Providence County,440070013001.0
22769,sg:a677650127684254b8916af8ef5620db,Bangkok City Thai Restaurant,RI,2019-06-01T00:00:00-04:00,2019-07-01T00:00:00-04:00,2842,76,61.5,"{""<5"":1,""5-20"":14,""21-60"":22,""61-240"":21,"">240"":18}",8549.0,41.521258,-71.294884,722511.0,RI,44.0,44005.0,Newport County,440050403042.0
22789,sg:a89cb4297bfd423d9205c062692ca98d,Rumford Food Mart,RI,2019-06-01T00:00:00-04:00,2019-07-01T00:00:00-04:00,2916,118,20.5,"{""<5"":7,""5-20"":52,""21-60"":30,""61-240"":22,"">240"":7}",6873.5,41.840674,-71.349321,722511.0,RI,44.0,44007.0,Providence County,440070101023.0
23080,sg:c7072ec9f0b94fa0ae54a820f585c968,Newport Yacht Club,RI,2019-06-01T00:00:00-04:00,2019-07-01T00:00:00-04:00,2840,524,59.0,"{""<5"":11,""5-20"":133,""21-60"":124,""61-240"":176,"">240"":80}",52400.0,41.488749,-71.319051,713940.0,RI,44.0,44005.0,Newport County,440050411003.0
23109,sg:ca786be6832b4795b92529b220490e5d,Richmond NMCA,RI,2019-06-01T00:00:00-04:00,2019-07-01T00:00:00-04:00,2894,123,271.0,"{""<5"":0,""5-20"":10,""21-60"":17,""61-240"":32,"">240"":64}",20989.5,41.440020000000004,-71.715351,221111.0,RI,44.0,44009.0,Washington County,440090506002.0
23273,sg:da4064fd878e421986633b8170325cc1,Mike's Truck & Trailer Repair,RI,2019-06-01T00:00:00-04:00,2019-07-01T00:00:00-04:00,2861,20,50.5,"{""<5"":0,""5-20"":6,""21-60"":5,""61-240"":7,"">240"":2}",1811.0,41.871021,-71.363866,811111.0,RI,44.0,44007.0,Providence County,440070168003.0
23558,sg:f7817db01b3845ce8187372cb09bb339,Apple Rehab Clipper,RI,2019-06-01T00:00:00-04:00,2019-07-01T00:00:00-04:00,2891,190,105.0,"{""<5"":3,""5-20"":42,""21-60"":28,""61-240"":71,"">240"":46}",23392.0,41.349942,-71.78246,623312.0,RI,44.0,44009.0,Washington County,440090509023.0
23843,sg:12ece1fbc192409fb298ac1205e00d43,Warren Fire Department And Rescue,RI,2019-06-01T00:00:00-04:00,2019-07-01T00:00:00-04:00,2885,10,41.0,"{""<5"":0,""5-20"":4,""21-60"":1,""61-240"":2,"">240"":3}",1111.5,41.730968,-71.284529,922160.0,RI,44.0,44001.0,Bristol County,440010305003.0
23973,sg:1e75df51a3454fe1960e156ddcffeeb5,Meeting Street Cafe,RI,2019-06-01T00:00:00-04:00,2019-07-01T00:00:00-04:00,2906,245,28.0,"{""<5"":6,""5-20"":90,""21-60"":77,""61-240"":51,"">240"":21}",16974.0,41.829235,-71.40100600000001,722511.0,RI,44.0,44007.0,Providence County,440070036023.0
24105,sg:2b98eb6356aa4785a0c5c597d55c0adc,Long Wharf Shops The,RI,2019-06-01T00:00:00-04:00,2019-07-01T00:00:00-04:00,2840,514,19.0,"{""<5"":16,""5-20"":279,""21-60"":159,""61-240"":44,"">240"":16}",20429.0,41.490495,-71.315899,531120.0,RI,44.0,44005.0,Newport County,440050411003.0
24169,sg:322b1bc036c248ad896d09b1f69c88e0,Block Island,RI,2019-06-01T00:00:00-04:00,2019-07-01T00:00:00-04:00,2807,19,15.0,"{""<5"":1,""5-20"":10,""21-60"":2,""61-240"":3,"">240"":3}",1380.0,41.175877,-71.570858,221112.0,RI,44.0,44009.0,Washington County,440090415001.0
24422,sg:4a51ec795aa8499db9a85993c0e0ddc4,Riviera Bingo,RI,2019-06-01T00:00:00-04:00,2019-07-01T00:00:00-04:00,2910,38,40.5,"{""<5"":3,""5-20"":11,""21-60"":8,""61-240"":14,"">240"":2}",3056.0,41.764142,-71.42501700000001,713210.0,RI,44.0,44007.0,Providence County,440070136002.0
24451,sg:4cef93406f2440aea2e950b93e3019fc,Raise The Bar Nutrition,RI,2019-06-01T00:00:00-04:00,2019-07-01T00:00:00-04:00,2818,210,20.0,"{""<5"":5,""5-20"":104,""21-60"":72,""61-240"":24,"">240"":5}",9040.5,41.659185,-71.450263,446191.0,RI,44.0,44003.0,Kent County,440030209011.0
24916,sg:77f916e0c3924f409afe490beb7c1651,The Margin Street Inn,RI,2019-06-01T00:00:00-04:00,2019-07-01T00:00:00-04:00,2891,35,58.0,"{""<5"":1,""5-20"":9,""21-60"":9,""61-240"":7,"">240"":9}",3693.0,41.369208,-71.831649,721110.0,RI,44.0,44009.0,Washington County,440090508021.0
24968,sg:7bb630e4f631487cb0eb27bc1ed24224,N & E Plate Glass,RI,2019-06-01T00:00:00-04:00,2019-07-01T00:00:00-04:00,2840,197,166.0,"{""<5"":5,""5-20"":24,""21-60"":35,""61-240"":48,"">240"":85}",29354.0,41.500044,-71.311922,451110.0,RI,44.0,44005.0,Newport County,440050405002.0
25155,sg:8d5dcffd127a43d98e7406229bf91550,Gardner's Wharf Seafood,RI,2019-06-01T00:00:00-04:00,2019-07-01T00:00:00-04:00,2852,237,16.0,"{""<5"":8,""5-20"":134,""21-60"":61,""61-240"":21,"">240"":13}",10446.0,41.572765000000004,-71.445582,445220.0,RI,44.0,44009.0,Washington County,440090503023.0
25375,sg:a4ab5274386e4538909c5040e2c6ff7a,Solasta Home Care,RI,2019-06-01T00:00:00-04:00,2019-07-01T00:00:00-04:00,2904,148,146.5,"{""<5"":3,""5-20"":24,""21-60"":19,""61-240"":43,"">240"":59}",21708.5,41.85725,-71.421002,621610.0,RI,44.0,44007.0,Providence County,440070029001.0
25423,sg:a9399c0ec4474a038724734144cc53f8,Pat's Service Station,RI,2019-06-01T00:00:00-04:00,2019-07-01T00:00:00-04:00,2830,17,46.0,"{""<5"":1,""5-20"":6,""21-60"":2,""61-240"":5,"">240"":3}",1631.0,41.966652,-71.679278,811111.0,RI,44.0,44007.0,Providence County,440070129001.0
25458,sg:adafa89214ab4535a442c0eb337073d7,Phillip Nutting Ameriprise Financial Services,RI,2019-06-01T00:00:00-04:00,2019-07-01T00:00:00-04:00,2886,77,204.0,"{""<5"":1,""5-20"":8,""21-60"":11,""61-240"":22,"">240"":35}",12259.0,41.725511,-71.45438399999999,523930.0,RI,44.0,44003.0,Kent County,440030221001.0
25608,sg:bbf789a939f74942a6f5c9f4be66127a,Kaufman Adam S DMD,RI,2019-06-01T00:00:00-04:00,2019-07-01T00:00:00-04:00,2891,10,36.0,"{""<5"":0,""5-20"":2,""21-60"":4,""61-240"":0,"">240"":4}",1147.0,41.36155,-71.827706,621210.0,RI,44.0,44009.0,Washington County,440090508022.0
27002,sg:45b2190f171447f8a0e506818c6b040e,Sbarro,RI,2019-06-01T00:00:00-04:00,2019-07-01T00:00:00-04:00,2886,1,16.0,"{""<5"":0,""5-20"":1,""21-60"":0,""61-240"":0,"">240"":0}",12.5,41.725627,-71.479036,722513.0,RI,44.0,44003.0,Kent County,440030223003.0
27208,sg:5a3df6ec9b4a4e94ac7b5fac18dc202b,R & D Sea Food,RI,2019-06-01T00:00:00-04:00,2019-07-01T00:00:00-04:00,2895,28,23.5,"{""<5"":1,""5-20"":13,""21-60"":2,""61-240"":1,"">240"":11}",3036.5,41.985587,-71.521142,445220.0,RI,44.0,44007.0,Providence County,440070175003.0
27249,sg:5e3d2ea946474b0494ad2b270f498575,Simplify Yoga,RI,2019-06-01T00:00:00-04:00,2019-07-01T00:00:00-04:00,2816,587,46.0,"{""<5"":19,""5-20"":130,""21-60"":218,""61-240"":199,"">240"":21}",45491.0,41.684599,-71.55354399999999,713940.0,RI,44.0,44003.0,Kent County,440030206021.0
27251,sg:5e4841942e4f448dab24add4755a45c2,Gansett Wraps,RI,2019-06-01T00:00:00-04:00,2019-07-01T00:00:00-04:00,2882,353,10.0,"{""<5"":21,""5-20"":228,""21-60"":66,""61-240"":25,"">240"":13}",12458.0,41.430075,-71.480117,722511.0,RI,44.0,44009.0,Washington County,440090515033.0
27521,sg:7700dc6460bb4ee2b308a9d8464d1249,Our House Pet Lodge,RI,2019-06-01T00:00:00-04:00,2019-07-01T00:00:00-04:00,2892,6,9.5,"{""<5"":0,""5-20"":4,""21-60"":1,""61-240"":1,"">240"":0}",241.0,41.54055,-71.637496,812910.0,RI,44.0,44009.0,Washington County,440090506004.0
27631,sg:82528103ad164cd48ddc432ccdf10e18,Tallulah's Taqueria,RI,2019-06-01T00:00:00-04:00,2019-07-01T00:00:00-04:00,2906,242,27.0,"{""<5"":4,""5-20"":80,""21-60"":114,""61-240"":28,"">240"":16}",13681.0,41.822148999999996,-71.392222,722511.0,RI,44.0,44007.0,Providence County,440070037001.0
28018,sg:a8de208c8c6e47e8918cc2ff6916fcc2,Fish'n Tales Adventures,RI,2019-06-01T00:00:00-04:00,2019-07-01T00:00:00-04:00,2840,327,45.0,"{""<5"":3,""5-20"":65,""21-60"":143,""61-240"":91,"">240"":25}",26307.0,41.486732,-71.317071,722515.0,RI,44.0,44005.0,Newport County,440050410001.0
28375,sg:cb729be958fd446eb70f4788dfc4319f,Tijuana Burrito Grill,RI,2019-06-01T00:00:00-04:00,2019-07-01T00:00:00-04:00,2840,118,25.5,"{""<5"":5,""5-20"":50,""21-60"":21,""61-240"":29,"">240"":13}",8972.5,41.49191,-71.31195500000001,722511.0,,,,,
29012,sg:09ef160366854d99a142528d3226c458,Frey Florist,RI,2019-06-01T00:00:00-04:00,2019-07-01T00:00:00-04:00,2908,242,42.0,"{""<5"":1,""5-20"":63,""21-60"":75,""61-240"":71,"">240"":32}",22193.0,41.838471000000006,-71.431678,453110.0,RI,44.0,44007.0,Providence County,440070023001.0
29064,sg:0f439bf6435d4b05a304222b489e11b3,OPJ Nails Salon,RI,2019-06-01T00:00:00-04:00,2019-07-01T00:00:00-04:00,2896,1,17.0,"{""<5"":0,""5-20"":1,""21-60"":0,""61-240"":0,"">240"":0}",12.5,41.978883,-71.513509,812113.0,RI,44.0,44007.0,Providence County,440070128022.0
29137,sg:1576035a580c47288c199d4d299a54da,Hianloland Fire Company Station 2 Rescue 3,RI,2019-06-01T00:00:00-04:00,2019-07-01T00:00:00-04:00,2817,2,36.0,"{""<5"":0,""5-20"":0,""21-60"":2,""61-240"":0,"">240"":0}",81.0,41.640719,-71.753423,922160.0,RI,44.0,44003.0,Kent County,440030208003.0
29147,sg:162b26ea373c44eb87c071c9bac4d170,Simplyee Cleaning Solutions,RI,2019-06-01T00:00:00-04:00,2019-07-01T00:00:00-04:00,2921,169,187.0,"{""<5"":0,""5-20"":24,""21-60"":28,""61-240"":39,"">240"":78}",26023.5,41.786131,-71.460505,561740.0,RI,44.0,44007.0,Providence County,440070147004.0
29240,sg:1edd2b09086541d7b0acb671dbe2b1e5,Live It Love It Wellness,RI,2019-06-01T00:00:00-04:00,2019-07-01T00:00:00-04:00,2886,108,52.5,"{""<5"":3,""5-20"":35,""21-60"":17,""61-240"":43,"">240"":10}",10005.0,41.707446000000004,-71.452159,448140.0,RI,44.0,44003.0,Kent County,440030221004.0
29339,sg:267056eb2f2a4f3fa11529943eabf2d3,Kingstown Plaza,RI,2019-06-01T00:00:00-04:00,2019-07-01T00:00:00-04:00,2852,1264,21.0,"{""<5"":34,""5-20"":577,""21-60"":444,""61-240"":163,"">240"":46}",60851.0,41.616827,-71.459034,531120.0,RI,44.0,44009.0,Washington County,440090501034.0
29648,sg:42d1c80509284267bb1f3dba7601bcb0,Adamsville Wine & Spirits,RI,2019-06-01T00:00:00-04:00,2019-07-01T00:00:00-04:00,2837,41,7.0,"{""<5"":2,""5-20"":33,""21-60"":0,""61-240"":3,"">240"":3}",1589.0,41.554676,-71.13199399999999,445310.0,RI,44.0,44005.0,Newport County,440050414002.0
30167,sg:7502cdaa5e7c4639a9ee2ed66c9e39d4,Bagel Boys,RI,2019-06-01T00:00:00-04:00,2019-07-01T00:00:00-04:00,2840,243,17.0,"{""<5"":12,""5-20"":120,""21-60"":48,""61-240"":41,"">240"":22}",14924.5,41.509012,-71.31810899999999,722515.0,RI,44.0,44005.0,Newport County,440050405001.0
30544,sg:9bf339a5bbb949098b4f2684d8f59821,Providence Pole Fitness,RI,2019-06-01T00:00:00-04:00,2019-07-01T00:00:00-04:00,2904,36,34.5,"{""<5"":1,""5-20"":11,""21-60"":8,""61-240"":8,"">240"":8}",3588.0,41.851231,-71.444356,713940.0,RI,44.0,44007.0,Providence County,440070024004.0
30733,sg:aed11864410d462daaaa52e73d28a575,Campanella's,RI,2019-06-01T00:00:00-04:00,2019-07-01T00:00:00-04:00,2920,263,33.0,"{""<5"":11,""5-20"":88,""21-60"":78,""61-240"":68,"">240"":18}",18840.5,41.746245,-71.47871500000001,722511.0,RI,44.0,44007.0,Providence County,440070144003.0
30939,sg:c5e59eb19ec84e5c9e6fcea713b578d0,Clark Street Day Care,RI,2019-06-01T00:00:00-04:00,2019-07-01T00:00:00-04:00,2891,54,20.5,"{""<5"":1,""5-20"":26,""21-60"":12,""61-240"":8,"">240"":7}",3697.5,41.364531,-71.831307,624410.0,RI,44.0,44009.0,Washington County,440090508021.0
31143,sg:d7279b5ed63d4681ad31100d212fda9e,PetSmart,RI,2019-06-01T00:00:00-04:00,2019-07-01T00:00:00-04:00,2896,403,13.0,"{""<5"":9,""5-20"":271,""21-60"":102,""61-240"":15,"">240"":6}",11238.5,41.979258,-71.508278,453910.0,RI,44.0,44007.0,Providence County,440070128031.0
31194,sg:dcdb6b5b10824d5487609e2e56a71344,Carmita's Puerto Rican Bakery,RI,2019-06-01T00:00:00-04:00,2019-07-01T00:00:00-04:00,2907,72,25.0,"{""<5"":3,""5-20"":27,""21-60"":26,""61-240"":13,"">240"":3}",4074.5,41.805262,-71.437754,722511.0,RI,44.0,44007.0,Providence County,440070014005.0
31763,sg:170caa319b6c4fbbad66393751b3281e,Costa Del Sol Restaurant,RI,2019-06-01T00:00:00-04:00,2019-07-01T00:00:00-04:00,2863,178,73.0,"{""<5"":6,""5-20"":45,""21-60"":23,""61-240"":64,"">240"":40}",20741.0,41.885999,-71.38244499999999,722511.0,RI,44.0,44007.0,Providence County,440070108001.0
32126,sg:3af545e75f3642da8834026d8c91a1a4,East Greenwich Car Wash,RI,2019-06-01T00:00:00-04:00,2019-07-01T00:00:00-04:00,2818,23,28.0,"{""<5"":0,""5-20"":10,""21-60"":5,""61-240"":7,"">240"":1}",1621.0,41.655377,-71.4547,811192.0,RI,44.0,44003.0,Kent County,440030209013.0
32150,sg:3cdcab5daaa64385a136d602131f35a3,KenWok,RI,2019-06-01T00:00:00-04:00,2019-07-01T00:00:00-04:00,2904,13,17.0,"{""<5"":0,""5-20"":7,""21-60"":3,""61-240"":3,"">240"":0}",660.5,41.864515999999995,-71.448836,722511.0,RI,44.0,44007.0,Providence County,440070119023.0
32389,sg:516247756ccc4f7984912e57cbd702e0,Flipp Salon & Apothecary,RI,2019-06-01T00:00:00-04:00,2019-07-01T00:00:00-04:00,2903,126,66.0,"{""<5"":3,""5-20"":28,""21-60"":30,""61-240"":26,"">240"":39}",14845.5,41.820370000000004,-71.402604,812112.0,RI,44.0,44007.0,Providence County,440070037002.0
32499,sg:5b1352b6e71548c7810493256afd3bf6,M & S Motors,RI,2019-06-01T00:00:00-04:00,2019-07-01T00:00:00-04:00,2906,63,12.0,"{""<5"":2,""5-20"":39,""21-60"":7,""61-240"":7,"">240"":8}",3749.5,41.822096,-71.389588,441120.0,RI,44.0,44007.0,Providence County,440070037001.0
33101,sg:992f7d9907cf42b7855221add19d673a,Barrington Christian Academy,RI,2019-06-01T00:00:00-04:00,2019-07-01T00:00:00-04:00,2806,287,54.0,"{""<5"":4,""5-20"":84,""21-60"":60,""61-240"":92,"">240"":47}",28616.0,41.75564,-71.327889,611110.0,RI,44.0,44001.0,Bristol County,440010302001.0
33377,sg:b316d4a995d3456a880646e925df612f,Starbucks,RI,2019-06-01T00:00:00-04:00,2019-07-01T00:00:00-04:00,2920,239,20.0,"{""<5"":8,""5-20"":112,""21-60"":70,""61-240"":40,"">240"":9}",12435.0,41.763877,-71.457978,722515.0,RI,44.0,44007.0,Providence County,440070139002.0
33387,sg:b44400c0607441af810d4d652e7abc72,Affinity Salon,RI,2019-06-01T00:00:00-04:00,2019-07-01T00:00:00-04:00,2896,9,60.0,"{""<5"":0,""5-20"":4,""21-60"":1,""61-240"":3,"">240"":1}",782.0,42.004796999999996,-71.589282,812112.0,RI,44.0,44007.0,Providence County,440070128011.0
34159,sg:fd0cb49b5eb14b8b9366b55df8afdc9e,Sprint,RI,2019-06-01T00:00:00-04:00,2019-07-01T00:00:00-04:00,2904,132,101.5,"{""<5"":0,""5-20"":29,""21-60"":19,""61-240"":54,"">240"":30}",16459.0,41.836392,-71.40927099999999,517312.0,RI,44.0,44007.0,Providence County,440070031003.0
34315,sg:0cc2475b23ec45f6995f752c9e6ef9d3,Sunset Auto Spa,RI,2019-06-01T00:00:00-04:00,2019-07-01T00:00:00-04:00,2914,29,20.0,"{""<5"":2,""5-20"":13,""21-60"":10,""61-240"":4,"">240"":0}",1174.5,41.82157,-71.36484899999999,811192.0,RI,44.0,44007.0,Providence County,440070102004.0
34397,sg:1487310018aa4c1286dd11ba096a52cd,Scissors Barber Shop,RI,2019-06-01T00:00:00-04:00,2019-07-01T00:00:00-04:00,2910,6,104.0,"{""<5"":0,""5-20"":0,""21-60"":1,""61-240"":3,"">240"":2}",972.0,41.778085,-71.43083100000001,812112.0,RI,44.0,44007.0,Providence County,440070137012.0
34509,sg:1f67bea54862452ab19a03ff1bf1670d,Orangeignite,RI,2019-06-01T00:00:00-04:00,2019-07-01T00:00:00-04:00,2904,93,41.0,"{""<5"":2,""5-20"":36,""21-60"":18,""61-240"":27,"">240"":10}",7647.5,41.863422,-71.45045400000001,713940.0,RI,44.0,44007.0,Providence County,440070119011.0
34554,sg:24095aac896d473282d5abd341cb68a7,Shell Oil,RI,2019-06-01T00:00:00-04:00,2019-07-01T00:00:00-04:00,2904,323,8.0,"{""<5"":26,""5-20"":232,""21-60"":38,""61-240"":16,"">240"":11}",9552.0,41.867981,-71.428735,447110.0,RI,44.0,44007.0,Providence County,440070118003.0
34672,sg:2deaf4661b3644529c2bd6b5533199e1,Shelby White,RI,2019-06-01T00:00:00-04:00,2019-07-01T00:00:00-04:00,2879,11,50.0,"{""<5"":0,""5-20"":3,""21-60"":3,""61-240"":3,"">240"":2}",1090.5,41.455569,-71.495886,812112.0,RI,44.0,44009.0,Washington County,440090512011.0
34787,sg:395702eaf0084e9e9f379091613940df,Comedy Connection Rhode Island,RI,2019-06-01T00:00:00-04:00,2019-07-01T00:00:00-04:00,2914,1,12.0,"{""<5"":0,""5-20"":1,""21-60"":0,""61-240"":0,"">240"":0}",12.5,41.817729,-71.38313000000001,512131.0,RI,44.0,44007.0,Providence County,440070104004.0
35048,sg:5385be39bf6b467e94b11316bf77d368,Sunnyview Nursing Center,RI,2019-06-01T00:00:00-04:00,2019-07-01T00:00:00-04:00,2886,122,88.0,"{""<5"":1,""5-20"":16,""21-60"":25,""61-240"":50,"">240"":30}",15940.0,41.723607,-71.459203,621610.0,RI,44.0,44003.0,Kent County,440030221001.0
36905,sg:0be4dd1b41384d6e8a7199588eb57792,All Nation Church of God,RI,2019-06-01T00:00:00-04:00,2019-07-01T00:00:00-04:00,2895,38,54.0,"{""<5"":1,""5-20"":10,""21-60"":12,""61-240"":11,"">240"":4}",3229.0,42.001437,-71.530469,813110.0,RI,44.0,44007.0,Providence County,440070174001.0
37248,sg:29ddece38c464389a8e7fda4af0363e4,KFC,RI,2019-06-01T00:00:00-04:00,2019-07-01T00:00:00-04:00,2886,226,10.0,"{""<5"":13,""5-20"":136,""21-60"":38,""61-240"":33,"">240"":6}",9678.0,41.732918,-71.434857,722513.0,RI,44.0,44003.0,Kent County,440030211003.0
37602,sg:4b384552755f4d23a66c02cbb1f26a30,HarborOne Bank,RI,2019-06-01T00:00:00-04:00,2019-07-01T00:00:00-04:00,2921,24,55.0,"{""<5"":0,""5-20"":9,""21-60"":4,""61-240"":4,"">240"":7}",2556.5,41.783459,-71.514976,522110.0,RI,44.0,44007.0,Providence County,440070146002.0
37721,sg:572b50a7d6ff4de0abb2b728c476b6f6,Chariho Animal Hospital,RI,2019-06-01T00:00:00-04:00,2019-07-01T00:00:00-04:00,2892,45,62.0,"{""<5"":1,""5-20"":13,""21-60"":8,""61-240"":8,"">240"":15}",5293.0,41.497786,-71.638685,541940.0,RI,44.0,44009.0,Washington County,440090506003.0
38055,sg:780ef062f67f4795b6d3600894d79436,Community College of Rhode Island,RI,2019-06-01T00:00:00-04:00,2019-07-01T00:00:00-04:00,2865,680,116.0,"{""<5"":2,""5-20"":91,""21-60"":113,""61-240"":333,"">240"":141}",89675.5,41.898737,-71.455067,611310.0,RI,44.0,44007.0,Providence County,440070116004.0
38682,sg:b6869a2beaf24b2fbf67eb8c7628c2cc,Animal Rescue Rhode Island,RI,2019-06-01T00:00:00-04:00,2019-07-01T00:00:00-04:00,2879,72,111.0,"{""<5"":0,""5-20"":11,""21-60"":14,""61-240"":24,"">240"":23}",9836.5,41.454004,-71.522707,812910.0,RI,44.0,44009.0,Washington County,440090512012.0
39013,sg:d63ff47f4fed46acb80cee2c60884994,Richmond Smoke,RI,2019-06-01T00:00:00-04:00,2019-07-01T00:00:00-04:00,2898,52,47.5,"{""<5"":1,""5-20"":18,""21-60"":8,""61-240"":16,"">240"":9}",5119.5,41.51279,-71.69533100000001,721110.0,RI,44.0,44009.0,Washington County,440090506002.0
39224,sg:ece09e2e91ca48debe367560219f898e,Mt Hope High School,RI,2019-06-01T00:00:00-04:00,2019-07-01T00:00:00-04:00,2809,717,176.0,"{""<5"":7,""5-20"":55,""21-60"":66,""61-240"":306,"">240"":283}",117351.0,41.688022,-71.269627,611110.0,RI,44.0,44001.0,Bristol County,440010309024.0
39817,sg:22192dcf4a5d4209b0b6a16d267bfa42,Pakarang Exquisite Thai Cuisine,RI,2019-06-01T00:00:00-04:00,2019-07-01T00:00:00-04:00,2903,130,154.5,"{""<5"":3,""5-20"":26,""21-60"":18,""61-240"":51,"">240"":32}",16417.0,41.821846,-71.40486,722511.0,RI,44.0,44007.0,Providence County,440070037002.0
40009,sg:33bdad952de84dbe839baf172a64590f,Alexanders Uniforms,RI,2019-06-01T00:00:00-04:00,2019-07-01T00:00:00-04:00,2920,165,45.0,"{""<5"":2,""5-20"":52,""21-60"":38,""61-240"":42,"">240"":31}",15955.0,41.756817,-71.447822,453310.0,RI,44.0,44007.0,Providence County,440070139003.0
41605,sg:d08693813dd74507a2970cfe3fc2d03b,WED Shun III LLC,RI,2019-06-01T00:00:00-04:00,2019-07-01T00:00:00-04:00,2919,10,16.0,"{""<5"":0,""5-20"":6,""21-60"":1,""61-240"":3,"">240"":0}",567.0,41.799061,-71.549306,221111.0,RI,44.0,44007.0,Providence County,440070122003.0
41621,sg:d1a85b39345c4b97aae9e404ea066520,Inferno Audio,RI,2019-06-01T00:00:00-04:00,2019-07-01T00:00:00-04:00,2895,147,19.0,"{""<5"":4,""5-20"":80,""21-60"":44,""61-240"":18,"">240"":1}",5741.0,42.005218,-71.51100799999999,443142.0,RI,44.0,44007.0,Providence County,440070180002.0
41835,sg:e5cd1a7ca470447dbda1fd9cf55d6232,J C's of Watch Hill,RI,2019-06-01T00:00:00-04:00,2019-07-01T00:00:00-04:00,2891,116,20.0,"{""<5"":5,""5-20"":54,""21-60"":24,""61-240"":17,"">240"":16}",8058.0,41.310518,-71.857351,448140.0,RI,44.0,44009.0,Washington County,440090510001.0
42239,sg:0d4b12e0327845a88938276e292c015e,Greenwich Bay Animal Hospital,RI,2019-06-01T00:00:00-04:00,2019-07-01T00:00:00-04:00,2818,1,203.0,"{""<5"":0,""5-20"":0,""21-60"":0,""61-240"":1,"">240"":0}",150.5,41.639548,-71.46842099999999,541940.0,RI,44.0,44003.0,Kent County,440030209042.0
42928,sg:4f9684526eeb4d489cb20028e5c826be,A Step Up,RI,2019-06-01T00:00:00-04:00,2019-07-01T00:00:00-04:00,2818,23,11.0,"{""<5"":2,""5-20"":12,""21-60"":2,""61-240"":3,"">240"":4}",1647.5,41.661473,-71.531401,611110.0,RI,44.0,44003.0,Kent County,440030209031.0
43232,sg:70d511e4793049929e5d54144f2d077a,Hertz,RI,2019-06-01T00:00:00-04:00,2019-07-01T00:00:00-04:00,2860,124,86.5,"{""<5"":2,""5-20"":28,""21-60"":23,""61-240"":30,"">240"":41}",15641.5,41.878782,-71.379861,532111.0,RI,44.0,44007.0,Providence County,440070160001.0
43298,sg:77dd84c02ccb4139a19ceef27ab8cde5,The San Miguel School,RI,2019-06-01T00:00:00-04:00,2019-07-01T00:00:00-04:00,2904,331,120.0,"{""<5"":2,""5-20"":51,""21-60"":65,""61-240"":96,"">240"":117}",45803.0,41.851756,-71.42253199999999,611110.0,RI,44.0,44007.0,Providence County,440070029005.0
43414,sg:83d6c5944f464f85b922b2b70fc44fb0,Community Christian School,RI,2019-06-01T00:00:00-04:00,2019-07-01T00:00:00-04:00,2859,55,80.0,"{""<5"":1,""5-20"":7,""21-60"":15,""61-240"":24,"">240"":8}",6229.5,41.959364,-71.706123,611110.0,RI,44.0,44007.0,Providence County,440070129004.0
45005,sg:1a812176c4614fe3ad93a8a12cb0f6e1,South County Nursing and Subacute Center,RI,2019-06-01T00:00:00-04:00,2019-07-01T00:00:00-04:00,2852,54,213.0,"{""<5"":0,""5-20"":12,""21-60"":11,""61-240"":5,"">240"":26}",7588.0,41.558822,-71.487905,621340.0,RI,44.0,44009.0,Washington County,440090503013.0
45449,sg:3eac9d1b77d64dc4a37c3ccf07f0cdd2,Shell Oil,RI,2019-06-01T00:00:00-04:00,2019-07-01T00:00:00-04:00,2905,89,8.0,"{""<5"":8,""5-20"":61,""21-60"":14,""61-240"":5,"">240"":1}",2342.0,41.786184999999996,-71.39474200000001,447110.0,RI,44.0,44007.0,Providence County,440070001011.0
45755,sg:59a4b39d412e4be49036add5e1b5142a,Slate Hill Park,RI,2019-06-01T00:00:00-04:00,2019-07-01T00:00:00-04:00,2920,225,43.0,"{""<5"":12,""5-20"":80,""21-60"":28,""61-240"":53,"">240"":52}",22620.5,41.756726,-71.463042,712190.0,RI,44.0,44007.0,Providence County,440070144001.0
46429,sg:9aa2e4ed9c6747378d95917afc66e3a6,Children's Dentistry of Westerly & Wakefield,RI,2019-06-01T00:00:00-04:00,2019-07-01T00:00:00-04:00,2891,3,536.0,"{""<5"":0,""5-20"":0,""21-60"":0,""61-240"":0,"">240"":3}",720.0,41.370517,-71.819643,621210.0,RI,44.0,44009.0,Washington County,440090508021.0
46865,sg:c747d50dcdad444bab583656c4b2395b,Smithfield High School,RI,2019-06-01T00:00:00-04:00,2019-07-01T00:00:00-04:00,2917,570,104.5,"{""<5"":6,""5-20"":103,""21-60"":98,""61-240"":196,"">240"":167}",74849.5,41.880657,-71.543948,611110.0,RI,44.0,44007.0,Providence County,440070127013.0
47478,sg:02ae310174254d56badfa8cfbc733f52,Munro Dugald H,RI,2019-06-01T00:00:00-04:00,2019-07-01T00:00:00-04:00,2915,283,32.0,"{""<5"":4,""5-20"":71,""21-60"":130,""61-240"":49,"">240"":29}",20497.0,41.773402000000004,-71.326575,446130.0,RI,44.0,44007.0,Providence County,440070107011.0
47702,sg:165f0af9145f41ffac3d337a5e527f14,Lucky Bait and Tackle,RI,2019-06-01T00:00:00-04:00,2019-07-01T00:00:00-04:00,2885,192,41.0,"{""<5"":7,""5-20"":70,""21-60"":36,""61-240"":26,"">240"":53}",18983.5,41.736446,-71.274084,451110.0,RI,44.0,44001.0,Bristol County,440010306011.0
49323,sg:af5f676e4a5d42828d4cc1bed9c7c2d3,Lincoln Tax Services of RI,RI,2019-06-01T00:00:00-04:00,2019-07-01T00:00:00-04:00,2865,34,70.5,"{""<5"":0,""5-20"":6,""21-60"":10,""61-240"":12,"">240"":6}",3726.0,41.934692999999996,-71.457021,541213.0,RI,44.0,44007.0,Providence County,440070116004.0
49490,sg:bee7f9a25da446fd9a52fb8390b84981,Dunkin',RI,2019-06-01T00:00:00-04:00,2019-07-01T00:00:00-04:00,2889,249,7.0,"{""<5"":24,""5-20"":169,""21-60"":19,""61-240"":29,"">240"":8}",9226.5,41.711608,-71.39764,722515.0,RI,44.0,44003.0,Kent County,440030218001.0
49672,sg:d0c3d41fa760432fb0c695694444a968,The Country Mutt,RI,2019-06-01T00:00:00-04:00,2019-07-01T00:00:00-04:00,2857,246,17.0,"{""<5"":23,""5-20"":105,""21-60"":28,""61-240"":54,"">240"":36}",19271.0,41.832178000000006,-71.587666,453910.0,RI,44.0,44007.0,Providence County,440070132012.0
50317,sg:124c6ee3931d461cb55d6a2b83944015,Iggy's Doughboys & Chowder House,RI,2019-06-01T00:00:00-04:00,2019-07-01T00:00:00-04:00,2889,719,39.0,"{""<5"":8,""5-20"":168,""21-60"":347,""61-240"":172,"">240"":24}",47819.5,41.684506,-71.398025,722511.0,RI,44.0,44003.0,Kent County,440030217002.0
50623,sg:3152ed8ab8f8448e85e5fd78128b78ec,Depetrillo's Pizza & Bakery,RI,2019-06-01T00:00:00-04:00,2019-07-01T00:00:00-04:00,2889,233,41.0,"{""<5"":9,""5-20"":86,""21-60"":55,""61-240"":59,"">240"":24}",17964.5,41.729341,-71.406565,722511.0,RI,44.0,44003.0,Kent County,440030214013.0
51284,sg:753f2a2af4d7443a972158f2ee433859,Murphy's Providence,RI,2019-06-01T00:00:00-04:00,2019-07-01T00:00:00-04:00,2903,308,67.5,"{""<5"":7,""5-20"":72,""21-60"":65,""61-240"":117,"">240"":47}",32438.5,41.823423999999996,-71.415705,722511.0,RI,44.0,44007.0,Providence County,440070008001.0
51327,sg:79050ad68a5f4b5eb6dcc78b5aa9987d,CVS,RI,2019-06-01T00:00:00-04:00,2019-07-01T00:00:00-04:00,2863,282,12.0,"{""<5"":8,""5-20"":181,""21-60"":60,""61-240"":20,"">240"":13}",10842.5,41.883686,-71.38656,446110.0,RI,44.0,44007.0,Providence County,440070108001.0
51411,sg:80c2d6fe293f4f779f96de9c5e9de0f3,First Baptist Church of Pawt,RI,2019-06-01T00:00:00-04:00,2019-07-01T00:00:00-04:00,2907,16,94.0,"{""<5"":0,""5-20"":5,""21-60"":1,""61-240"":8,"">240"":2}",1787.0,41.79138,-71.428021,813110.0,RI,44.0,44007.0,Providence County,440070015002.0
51536,sg:8cf94bbaf37e46bfb410fe63f1d4b1df,International Pocket Cafe Kingston,RI,2019-06-01T00:00:00-04:00,2019-07-01T00:00:00-04:00,2881,85,17.0,"{""<5"":1,""5-20"":51,""21-60"":27,""61-240"":3,"">240"":3}",2905.0,41.485749,-71.52439,722511.0,RI,44.0,44009.0,Washington County,440090514001.0
51633,sg:947373fd91c34ed6bd0ad7f3eb8c2343,Golden House,RI,2019-06-01T00:00:00-04:00,2019-07-01T00:00:00-04:00,2914,95,36.0,"{""<5"":3,""5-20"":33,""21-60"":23,""61-240"":30,"">240"":6}",7306.5,41.811598,-71.361866,722511.0,RI,44.0,44007.0,Providence County,440070105012.0
51876,sg:acdac4ec53924109b92e61f4563d130c,Dunkin',RI,2019-06-01T00:00:00-04:00,2019-07-01T00:00:00-04:00,2920,1022,20.0,"{""<5"":22,""5-20"":496,""21-60"":402,""61-240"":68,"">240"":34}",40930.0,41.754731,-71.461167,722515.0,RI,44.0,44007.0,Providence County,440070142002.0
52082,sg:c067a9b1bb3649e3971c2722db413749,Pointview Marina,RI,2019-06-01T00:00:00-04:00,2019-07-01T00:00:00-04:00,2879,270,40.0,"{""<5"":5,""5-20"":76,""21-60"":92,""61-240"":73,"">240"":24}",21435.0,41.388521000000004,-71.51769,441222.0,RI,44.0,44009.0,Washington County,440090513026.0
52244,sg:cf10227ce55c4cbb8cb094d17055c5e6,WellOne Primary Medical & Dental Care,RI,2019-06-01T00:00:00-04:00,2019-07-01T00:00:00-04:00,2859,72,46.0,"{""<5"":5,""5-20"":15,""21-60"":23,""61-240"":21,"">240"":8}",6212.0,41.956802,-71.702402,621330.0,RI,44.0,44007.0,Providence County,440070129004.0
53119,sg:1ed9763967634989bd7e0ad963663c4a,Cox Store,RI,2019-06-01T00:00:00-04:00,2019-07-01T00:00:00-04:00,2916,6,134.0,"{""<5"":0,""5-20"":0,""21-60"":2,""61-240"":3,"">240"":1}",772.5,41.858321999999994,-71.35570600000001,517312.0,RI,44.0,44007.0,Providence County,440070101011.0
53255,sg:2ad8b198a5f94e718009c8fe9c7f2a9a,Douglas Maiko Hypnosis Center,RI,2019-06-01T00:00:00-04:00,2019-07-01T00:00:00-04:00,2860,95,336.0,"{""<5"":0,""5-20"":10,""21-60"":11,""61-240"":19,"">240"":55}",16630.0,41.864391,-71.41766899999999,621330.0,RI,44.0,44007.0,Providence County,440070163002.0
53286,sg:2d5ed5fed3434e1c9a891d9128e03771,Tony T's,RI,2019-06-01T00:00:00-04:00,2019-07-01T00:00:00-04:00,2891,15,10.0,"{""<5"":1,""5-20"":9,""21-60"":5,""61-240"":0,"">240"":0}",317.5,41.366074,-71.830462,722511.0,RI,44.0,44009.0,Washington County,440090508021.0
53601,sg:479c6bc62b0146b4a18696373d0be7ba,Raffa Yoga and Urban Sweat,RI,2019-06-01T00:00:00-04:00,2019-07-01T00:00:00-04:00,2920,226,91.0,"{""<5"":3,""5-20"":53,""21-60"":32,""61-240"":90,"">240"":48}",27031.0,41.738958000000004,-71.458359,713940.0,RI,44.0,44007.0,Providence County,440070142002.0
53696,sg:50f7c4b6aa9c48df8dc09d780146c659,Ocean State Chiropractic and Sports Rehabilitation,RI,2019-06-01T00:00:00-04:00,2019-07-01T00:00:00-04:00,2904,1,63.0,"{""<5"":0,""5-20"":0,""21-60"":0,""61-240"":1,"">240"":0}",150.5,41.859784000000005,-71.468671,621310.0,RI,44.0,44007.0,Providence County,440070120005.0
53839,sg:5db5a465d2a346348c436b0dccd32273,Mill Street Inn,RI,2019-06-01T00:00:00-04:00,2019-07-01T00:00:00-04:00,2840,141,59.0,"{""<5"":2,""5-20"":35,""21-60"":35,""61-240"":29,"">240"":40}",15824.5,41.486424,-71.312441,721110.0,RI,44.0,44005.0,Newport County,440050408002.0
54134,sg:76b3d402432b44f4a545730f76ecb7d4,Napolitano's Brooklyn Pizza,RI,2019-06-01T00:00:00-04:00,2019-07-01T00:00:00-04:00,2920,43,23.0,"{""<5"":2,""5-20"":14,""21-60"":15,""61-240"":12,"">240"":0}",2593.5,41.737527,-71.464439,722511.0,RI,44.0,44007.0,Providence County,440070142001.0
54830,sg:bcdbdf38cbc44e70b5299ce032295010,Apex Tire and Service Centers,RI,2019-06-01T00:00:00-04:00,2019-07-01T00:00:00-04:00,2860,134,32.5,"{""<5"":3,""5-20"":56,""21-60"":26,""61-240"":29,"">240"":20}",10925.0,41.876214000000004,-71.381033,441310.0,RI,44.0,44007.0,Providence County,440070167001.0
54927,sg:c6563640c4a5464b82101c770aa3b0e7,Southwest Airlines,RI,2019-06-01T00:00:00-04:00,2019-07-01T00:00:00-04:00,2886,1,9.0,"{""<5"":0,""5-20"":1,""21-60"":0,""61-240"":0,"">240"":0}",12.5,41.725947,-71.435353,488190.0,RI,44.0,44003.0,Kent County,440039800001.0
55041,sg:d3a7d3053bdd48b8ae20f9304976d0b2,Wicked Flowers & Design,RI,2019-06-01T00:00:00-04:00,2019-07-01T00:00:00-04:00,2860,283,86.0,"{""<5"":2,""5-20"":61,""21-60"":58,""61-240"":101,"">240"":61}",32957.0,41.873457,-71.373012,453110.0,RI,44.0,44007.0,Providence County,440070167002.0
55224,sg:e3b35faba0904888a5c31587b1a3f4f4,Partners In Obstetrics & Gynecology,RI,2019-06-01T00:00:00-04:00,2019-07-01T00:00:00-04:00,2860,19,36.0,"{""<5"":0,""5-20"":5,""21-60"":8,""61-240"":2,"">240"":4}",1647.5,41.867225,-71.377589,621111.0,RI,44.0,44007.0,Providence County,440070167002.0
55557,sg:03c596d51b5e4390acfe8ba121e9339a,Barrington Music,RI,2019-06-01T00:00:00-04:00,2019-07-01T00:00:00-04:00,2806,12,15.0,"{""<5"":0,""5-20"":7,""21-60"":3,""61-240"":2,"">240"":0}",510.0,41.752932,-71.295172,451140.0,RI,44.0,44001.0,Bristol County,440010303002.0
55923,sg:21951e25df004b199bdee851112096ac,Long Wharf General Store,RI,2019-06-01T00:00:00-04:00,2019-07-01T00:00:00-04:00,2840,256,19.0,"{""<5"":10,""5-20"":134,""21-60"":75,""61-240"":30,"">240"":7}",10932.5,41.490035999999996,-71.316335,453220.0,RI,44.0,44005.0,Newport County,440050411003.0
55935,sg:226ad1a6026e4140b5f916cb5b0b1268,Fred's Place,RI,2019-06-01T00:00:00-04:00,2019-07-01T00:00:00-04:00,2920,7,582.0,"{""<5"":0,""5-20"":1,""21-60"":1,""61-240"":0,"">240"":5}",1253.0,41.783569,-71.46491800000001,812112.0,RI,44.0,44007.0,Providence County,440070147005.0
56103,sg:325b33e1ec7949a79247fd1e52878b1e,Ocean State Credit Union,RI,2019-06-01T00:00:00-04:00,2019-07-01T00:00:00-04:00,2816,123,21.0,"{""<5"":12,""5-20"":49,""21-60"":12,""61-240"":16,"">240"":34}",11696.5,41.673959,-71.59350699999999,522110.0,RI,44.0,44003.0,Kent County,440030207032.0
56375,sg:49d51adceb354f26aceb830c81631eea,Allstate Insurance,RI,2019-06-01T00:00:00-04:00,2019-07-01T00:00:00-04:00,2904,11,40.0,"{""<5"":0,""5-20"":4,""21-60"":4,""61-240"":3,"">240"":0}",663.5,41.869706,-71.42103,524210.0,RI,44.0,44007.0,Providence County,440070118001.0
56801,sg:71e9f4b421f94f7cb895a1c8b432c9a0,Adeline's Speakeasy Kitchen Bar,RI,2019-06-01T00:00:00-04:00,2019-07-01T00:00:00-04:00,2864,35,87.0,"{""<5"":0,""5-20"":0,""21-60"":8,""61-240"":17,"">240"":10}",5282.5,41.957378999999996,-71.443722,722511.0,RI,44.0,44007.0,Providence County,440070114034.0
57116,sg:8d3b8c91da9847b8b51885132e61c881,City Girl Cupcake,RI,2019-06-01T00:00:00-04:00,2019-07-01T00:00:00-04:00,2903,113,35.0,"{""<5"":1,""5-20"":44,""21-60"":30,""61-240"":19,"">240"":19}",9187.0,41.823274,-71.410945,311811.0,RI,44.0,44007.0,Providence County,440070008003.0
57288,sg:9c26a3f9c39f4481a47d9f194d83637e,147 Market And Deli,RI,2019-06-01T00:00:00-04:00,2019-07-01T00:00:00-04:00,2860,240,113.5,"{""<5"":6,""5-20"":46,""21-60"":41,""61-240"":57,"">240"":90}",32429.0,41.870746000000004,-71.378529,722511.0,RI,44.0,44007.0,Providence County,440070167002.0
57493,sg:b218858b97fa479094e08f063dee64de,The Charlestown Rathskeller,RI,2019-06-01T00:00:00-04:00,2019-07-01T00:00:00-04:00,2813,571,70.0,"{""<5"":0,""5-20"":63,""21-60"":175,""61-240"":299,"">240"":34}",61034.5,41.424076,-71.613175,722511.0,RI,44.0,44009.0,Washington County,440090511021.0
57964,sg:e3139e8498a84f13817eeba68a843544,Marcie's Pet Grooming,RI,2019-06-01T00:00:00-04:00,2019-07-01T00:00:00-04:00,2896,90,30.5,"{""<5"":0,""5-20"":33,""21-60"":35,""61-240"":19,"">240"":3}",5409.5,41.997706,-71.561952,812910.0,RI,44.0,44007.0,Providence County,440070128013.0
58083,sg:f02262ca908d4851966951842067c1b4,Village Collision Center,RI,2019-06-01T00:00:00-04:00,2019-07-01T00:00:00-04:00,2893,35,239.0,"{""<5"":2,""5-20"":7,""21-60"":0,""61-240"":11,"">240"":15}",5348.0,41.724552,-71.489756,811121.0,RI,44.0,44003.0,Kent County,440030205001.0
58094,sg:f12cf9a6ada848e79dc664614bec46bb,Supreme Cheese Pizzeria & Ristorante,RI,2019-06-01T00:00:00-04:00,2019-07-01T00:00:00-04:00,2891,204,12.5,"{""<5"":16,""5-20"":99,""21-60"":50,""61-240"":21,"">240"":18}",10783.0,41.368463,-71.819721,722511.0,RI,44.0,44009.0,Washington County,440090508021.0
58188,sg:facb2b40fcc248f18bc812d44137e4d4,The Mediator Fellowship,RI,2019-06-01T00:00:00-04:00,2019-07-01T00:00:00-04:00,2907,117,92.0,"{""<5"":1,""5-20"":31,""21-60"":18,""61-240"":27,"">240"":40}",14782.5,41.787516,-71.425111,813110.0,RI,44.0,44007.0,Providence County,440070015003.0
58306,sg:0505b8b4cdc3490c97fa66987fc65d40,Healthtrax Fitness & Wellness,RI,2019-06-01T00:00:00-04:00,2019-07-01T00:00:00-04:00,2914,347,51.0,"{""<5"":3,""5-20"":50,""21-60"":154,""61-240"":129,"">240"":11}",28924.0,41.805856,-71.34248199999999,713940.0,RI,44.0,44007.0,Providence County,440070105011.0
58444,sg:0fd3fc3ca85242e3bbfc18d5d5c265b0,Metropolitan Career Tech Ctr,RI,2019-06-01T00:00:00-04:00,2019-07-01T00:00:00-04:00,2905,281,81.0,"{""<5"":3,""5-20"":62,""21-60"":63,""61-240"":102,"">240"":51}",30925.0,41.806948,-71.410549,611110.0,RI,44.0,44007.0,Providence County,440070006002.0
59292,sg:5d8937a024c949d1a25709082bb3d571,Robinson Supply,RI,2019-06-01T00:00:00-04:00,2019-07-01T00:00:00-04:00,2920,8,9.0,"{""<5"":0,""5-20"":6,""21-60"":0,""61-240"":1,"">240"":1}",465.5,41.75158,-71.447673,444130.0,RI,44.0,44007.0,Providence County,440070139003.0
60553,sg:d9e5c8368e8d41a6874aa257469b4a6e,Elite Performance Systems,RI,2019-06-01T00:00:00-04:00,2019-07-01T00:00:00-04:00,2891,38,94.5,"{""<5"":1,""5-20"":9,""21-60"":4,""61-240"":20,"">240"":4}",4247.0,41.34395,-71.815564,713940.0,RI,44.0,44009.0,Washington County,440090509023.0
60681,sg:e6bd0c3020324058ab864fb4b010c6d4,Fifth Avenue Jewelers,RI,2019-06-01T00:00:00-04:00,2019-07-01T00:00:00-04:00,2910,32,10.0,"{""<5"":0,""5-20"":23,""21-60"":8,""61-240"":1,"">240"":0}",762.0,41.778628000000005,-71.4356,448310.0,RI,44.0,44007.0,Providence County,440070137014.0
62480,sg:897c1b5009fe468382f737befcc7270e,Mobil,RI,2019-06-01T00:00:00-04:00,2019-07-01T00:00:00-04:00,2816,280,9.0,"{""<5"":18,""5-20"":181,""21-60"":48,""61-240"":22,"">240"":11}",10202.5,41.704975,-71.616807,447110.0,RI,44.0,44003.0,Kent County,440030207031.0
62799,sg:a70ba4ff591d4de5846891a70c49ffb7,Sky Lounge,RI,2019-06-01T00:00:00-04:00,2019-07-01T00:00:00-04:00,2917,3,7.0,"{""<5"":0,""5-20"":2,""21-60"":0,""61-240"":1,"">240"":0}",175.5,41.877183,-71.470789,721110.0,RI,44.0,44007.0,Providence County,440070126026.0
62966,sg:b8574d9a235746d1b273aabac2b90a2b,SandFree,RI,2019-06-01T00:00:00-04:00,2019-07-01T00:00:00-04:00,2826,55,160.0,"{""<5"":0,""5-20"":9,""21-60"":6,""61-240"":18,"">240"":22}",8344.5,41.983204,-71.660178,561740.0,RI,44.0,44007.0,Providence County,440070130022.0
63165,sg:cafc2dfcbd364248a89f8a9bc857527a,The Home Depot,RI,2019-06-01T00:00:00-04:00,2019-07-01T00:00:00-04:00,2891,1708,18.0,"{""<5"":35,""5-20"":978,""21-60"":568,""61-240"":94,"">240"":33}",57383.5,41.362638000000004,-71.807355,444130.0,RI,44.0,44009.0,Washington County,440090509012.0
63222,sg:d0dcd4fdc5fa42f3be104ba17b7b5783,Warwick Industrial Fasteners,RI,2019-06-01T00:00:00-04:00,2019-07-01T00:00:00-04:00,2888,63,44.0,"{""<5"":1,""5-20"":27,""21-60"":5,""61-240"":9,"">240"":21}",6937.0,41.742163,-71.442044,452319.0,RI,44.0,44003.0,Kent County,440030211004.0
63305,sg:da24f5b64f134adfb24958045db418fb,Little Engine,RI,2019-06-01T00:00:00-04:00,2019-07-01T00:00:00-04:00,2909,80,69.5,"{""<5"":2,""5-20"":13,""21-60"":21,""61-240"":24,"">240"":20}",9430.0,41.826705,-71.433989,713940.0,RI,44.0,44007.0,Providence County,440070025002.0
63344,sg:dce40d9d15874ae7a19f9581f876b68a,Berkman Lawrence E DMD,RI,2019-06-01T00:00:00-04:00,2019-07-01T00:00:00-04:00,2833,4,20.0,"{""<5"":0,""5-20"":2,""21-60"":1,""61-240"":1,"">240"":0}",216.0,41.512867,-71.70864,621210.0,RI,44.0,44009.0,Washington County,440090507001.0
63473,sg:eae0a808d48b4f8dacdf1c7cea819b1d,Storage Pros,RI,2019-06-01T00:00:00-04:00,2019-07-01T00:00:00-04:00,2879,17,10.0,"{""<5"":1,""5-20"":13,""21-60"":2,""61-240"":1,"">240"":0}",396.5,41.443052,-71.483526,531130.0,RI,44.0,44009.0,Washington County,440090512024.0
63811,sg:0aef8beae9ef4a0ba0b66f22878f3e91,Brazilian Top Cleaning,RI,2019-06-01T00:00:00-04:00,2019-07-01T00:00:00-04:00,2914,3,5.0,"{""<5"":1,""5-20"":2,""21-60"":0,""61-240"":0,"">240"":0}",27.5,41.815661,-71.37602700000001,561740.0,RI,44.0,44007.0,Providence County,440070104004.0
63992,sg:1bbbf4b588ec4cddbece5e7e5155561b,Re Bath,RI,2019-06-01T00:00:00-04:00,2019-07-01T00:00:00-04:00,2919,152,44.5,"{""<5"":8,""5-20"":39,""21-60"":34,""61-240"":42,"">240"":29}",15165.5,41.802601,-71.486566,442299.0,RI,44.0,44007.0,Providence County,440070125001.0
64115,sg:286309a325ad492ba5c65e45ec8f4ff4,Field House Pub,RI,2019-06-01T00:00:00-04:00,2019-07-01T00:00:00-04:00,2914,38,28.0,"{""<5"":0,""5-20"":11,""21-60"":14,""61-240"":13,"">240"":0}",2661.0,41.809018,-71.381714,722511.0,RI,44.0,44007.0,Providence County,440070104003.0
64366,sg:3cc19d5f005e4a19b8db490a3982e1c2,YMCA,RI,2019-06-01T00:00:00-04:00,2019-07-01T00:00:00-04:00,2895,12,75.5,"{""<5"":2,""5-20"":2,""21-60"":1,""61-240"":4,"">240"":3}",1392.5,42.004905,-71.51229599999999,624190.0,RI,44.0,44007.0,Providence County,440070180002.0
64453,sg:457e4b603e5047b690ecbfd97910065e,Rusty Rabbit Antiques,RI,2019-06-01T00:00:00-04:00,2019-07-01T00:00:00-04:00,2813,21,11.0,"{""<5"":0,""5-20"":13,""21-60"":5,""61-240"":1,"">240"":2}",995.5,41.355647999999995,-71.717938,453310.0,RI,44.0,44009.0,Washington County,440090511013.0
64585,sg:51e32b85b0ac4f14bdf60c1b6ed37fd5,Watch Hill Outfitters,RI,2019-06-01T00:00:00-04:00,2019-07-01T00:00:00-04:00,2891,101,29.0,"{""<5"":12,""5-20"":37,""21-60"":7,""61-240"":15,"">240"":30}",10233.5,41.372144,-71.831102,451110.0,RI,44.0,44009.0,Washington County,440090508014.0
64842,sg:697a82d1cfb04a7c9c7f7df1e84a1cd5,Mowry Conservation Area,RI,2019-06-01T00:00:00-04:00,2019-07-01T00:00:00-04:00,2917,26,10.5,"{""<5"":1,""5-20"":16,""21-60"":8,""61-240"":1,"">240"":0}",677.0,41.920455,-71.55216999999999,712190.0,RI,44.0,44007.0,Providence County,440070127012.0
65244,sg:90f271bcffe14612b9ad9ef1e0735042,J & D Pizza,RI,2019-06-01T00:00:00-04:00,2019-07-01T00:00:00-04:00,2895,28,104.0,"{""<5"":0,""5-20"":6,""21-60"":2,""61-240"":12,"">240"":8}",3882.0,42.014453,-71.480307,722511.0,RI,44.0,44007.0,Providence County,440070184001.0
66053,sg:dfa6f069e5b248f3b613ab4ab3cec4a5,Family Dollar Stores,RI,2019-06-01T00:00:00-04:00,2019-07-01T00:00:00-04:00,2816,294,11.0,"{""<5"":10,""5-20"":188,""21-60"":53,""61-240"":32,"">240"":11}",11977.5,41.697203,-71.548311,452319.0,RI,44.0,44003.0,Kent County,440030206041.0
66239,sg:f0d10af5c9204f8d80a63ddda0f80342,ULTA Beauty,RI,2019-06-01T00:00:00-04:00,2019-07-01T00:00:00-04:00,2886,1,12.0,"{""<5"":0,""5-20"":1,""21-60"":0,""61-240"":0,"">240"":0}",12.5,41.701229999999995,-71.491741,446120.0,RI,44.0,44003.0,Kent County,440030222021.0
66647,sg:169a730916ff4057a6daadfa092bb1fd,Sunoco,RI,2019-06-01T00:00:00-04:00,2019-07-01T00:00:00-04:00,2830,131,6.0,"{""<5"":15,""5-20"":87,""21-60"":24,""61-240"":5,"">240"":0}",2849.5,41.977711,-71.61455699999999,447110.0,RI,44.0,44007.0,Providence County,440070130021.0
66738,sg:1ced765d7af14df1b805c9515f97863d,Subway,RI,2019-06-01T00:00:00-04:00,2019-07-01T00:00:00-04:00,2860,255,76.0,"{""<5"":2,""5-20"":82,""21-60"":31,""61-240"":52,"">240"":88}",31231.5,41.871697,-71.413117,722513.0,RI,44.0,44007.0,Providence County,440070150001.0
66841,sg:255e50b9eb1a4013a3ec7bbfc9b2b4f6,Cozy Quarters Pet Inn,RI,2019-06-01T00:00:00-04:00,2019-07-01T00:00:00-04:00,2896,12,8.5,"{""<5"":2,""5-20"":7,""21-60"":0,""61-240"":1,"">240"":2}",723.0,41.953886,-71.490997,453910.0,RI,44.0,44007.0,Providence County,440070128032.0
67153,sg:3f6845dabca740b2b2f7e0786c682283,Coastway Bank,RI,2019-06-01T00:00:00-04:00,2019-07-01T00:00:00-04:00,2921,8,192.5,"{""<5"":0,""5-20"":4,""21-60"":0,""61-240"":0,"">240"":4}",1010.0,41.783482,-71.515013,522110.0,RI,44.0,44007.0,Providence County,440070146002.0
67667,sg:6f5338ae61bf452ebdac1f5b83e71b8c,NBX Bikes of East Providence,RI,2019-06-01T00:00:00-04:00,2019-07-01T00:00:00-04:00,2914,133,15.0,"{""<5"":2,""5-20"":77,""21-60"":24,""61-240"":18,"">240"":12}",7528.5,41.813227000000005,-71.366654,451110.0,RI,44.0,44007.0,Providence County,440070104001.0
67864,sg:83c10f58332e4e41855ccf1405954d72,Studio101,RI,2019-06-01T00:00:00-04:00,2019-07-01T00:00:00-04:00,2903,38,204.5,"{""<5"":1,""5-20"":4,""21-60"":1,""61-240"":17,"">240"":15}",6251.5,41.822537,-71.4094,812112.0,RI,44.0,44007.0,Providence County,440070008003.0
68197,sg:a231d01c3ff34a18a59d49bdf208b8ba,Dear Hearts Iii,RI,2019-06-01T00:00:00-04:00,2019-07-01T00:00:00-04:00,2889,231,10.0,"{""<5"":11,""5-20"":147,""21-60"":53,""61-240"":17,"">240"":3}",7290.0,41.703033000000005,-71.406222,722515.0,RI,44.0,44003.0,Kent County,440030218002.0
68571,sg:c6f1167fd8024bfe822a97d571559dd9,New York Style Pizza Boulevard,RI,2019-06-01T00:00:00-04:00,2019-07-01T00:00:00-04:00,2910,50,26.5,"{""<5"":1,""5-20"":20,""21-60"":16,""61-240"":10,"">240"":3}",3125.5,41.785768,-71.451173,722511.0,RI,44.0,44007.0,Providence County,440070140003.0
68591,sg:c891b3c31ce746ba83ed6df841028938,Nortisa Auto Service and Repair,RI,2019-06-01T00:00:00-04:00,2019-07-01T00:00:00-04:00,2919,1,85.0,"{""<5"":0,""5-20"":0,""21-60"":0,""61-240"":1,"">240"":0}",150.5,41.83315,-71.474639,811111.0,RI,44.0,44007.0,Providence County,440070124016.0
68605,sg:ca4df931cbf9446ba894b73a5960afc5,International jewelers inc,RI,2019-06-01T00:00:00-04:00,2019-07-01T00:00:00-04:00,2904,4,24.5,"{""<5"":0,""5-20"":1,""21-60"":3,""61-240"":0,"">240"":0}",134.0,41.867446,-71.438769,448310.0,RI,44.0,44007.0,Providence County,440070118005.0
68672,sg:d2a625c5579149459019d8b610fd6d47,Applebee's,RI,2019-06-01T00:00:00-04:00,2019-07-01T00:00:00-04:00,2816,480,49.0,"{""<5"":3,""5-20"":70,""21-60"":247,""61-240"":152,"">240"":8}",35682.0,41.662063,-71.546425,722511.0,RI,44.0,44003.0,Kent County,440030206033.0
68863,sg:e6e77247fee74565b1b106bf518b096d,Advance Auto Parts,RI,2019-06-01T00:00:00-04:00,2019-07-01T00:00:00-04:00,2861,23,11.0,"{""<5"":3,""5-20"":12,""21-60"":6,""61-240"":1,"">240"":1}",791.0,41.889109000000005,-71.367778,441310.0,RI,44.0,44007.0,Providence County,440070155003.0
69681,sg:35724f2509234c0990bfbfd7ef8773cd,Coastal Cantina,RI,2019-06-01T00:00:00-04:00,2019-07-01T00:00:00-04:00,2891,17,8.0,"{""<5"":0,""5-20"":12,""21-60"":0,""61-240"":1,"">240"":4}",1260.5,41.378708,-71.829874,722511.0,RI,44.0,44009.0,Washington County,440090508014.0
69924,sg:4cb1af293dbe4fce810011bd2bb1bd51,Sonrisa Restaurant,RI,2019-06-01T00:00:00-04:00,2019-07-01T00:00:00-04:00,2863,270,81.0,"{""<5"":3,""5-20"":59,""21-60"":56,""61-240"":75,"">240"":77}",32780.5,41.88554,-71.383646,722511.0,RI,44.0,44007.0,Providence County,440070108001.0
70011,sg:57026cc259674cc9b8f1034b21439647,Rock & Rye,RI,2019-06-01T00:00:00-04:00,2019-07-01T00:00:00-04:00,2903,25,35.0,"{""<5"":0,""5-20"":9,""21-60"":7,""61-240"":8,"">240"":1}",1840.0,41.823349,-71.425438,722511.0,RI,44.0,44007.0,Providence County,440070009001.0
70231,sg:69a4cf65ed144f97af15937862f556a9,Fabric Connection,RI,2019-06-01T00:00:00-04:00,2019-07-01T00:00:00-04:00,2842,28,13.5,"{""<5"":0,""5-20"":16,""21-60"":7,""61-240"":5,"">240"":0}",1236.0,41.525408,-71.27643499999999,451130.0,RI,44.0,44005.0,Newport County,440050404002.0
70244,sg:6a9d098db93a41bdafc5b88936ccc05c,First American Title,RI,2019-06-01T00:00:00-04:00,2019-07-01T00:00:00-04:00,2914,6,15.0,"{""<5"":0,""5-20"":4,""21-60"":0,""61-240"":2,"">240"":0}",351.0,41.807457,-71.384546,524210.0,RI,44.0,44007.0,Providence County,440070104003.0
70445,sg:7db2a0d4d1224aad9e7e45c446dd999d,DeAlmeida Chiropractic & Rehab,RI,2019-06-01T00:00:00-04:00,2019-07-01T00:00:00-04:00,2914,577,61.0,"{""<5"":6,""5-20"":141,""21-60"":139,""61-240"":263,"">240"":28}",53708.5,41.819864,-71.355527,621310.0,RI,44.0,44007.0,Providence County,440070103002.0
70877,sg:a8db53aa3e964bd091a85791d1020629,Victra,RI,2019-06-01T00:00:00-04:00,2019-07-01T00:00:00-04:00,2818,159,20.0,"{""<5"":4,""5-20"":85,""21-60"":35,""61-240"":14,"">240"":21}",9637.0,41.661784999999995,-71.494887,443142.0,RI,44.0,44003.0,Kent County,440030209031.0
71243,sg:cdc767cd8b37406eb3fca223c89c1561,Thomas F Vutech DMD FAGD Vutech Dental,RI,2019-06-01T00:00:00-04:00,2019-07-01T00:00:00-04:00,2852,7,628.0,"{""<5"":0,""5-20"":0,""21-60"":0,""61-240"":0,"">240"":7}",1680.0,41.595744,-71.45533499999999,621210.0,RI,44.0,44009.0,Washington County,440090501021.0
71357,sg:d8b77220255b47318bd0f8e742fd0ddf,Warwick Ave Coastal,RI,2019-06-01T00:00:00-04:00,2019-07-01T00:00:00-04:00,2888,72,29.5,"{""<5"":3,""5-20"":24,""21-60"":13,""61-240"":23,"">240"":9}",6455.5,41.760888,-71.404519,447110.0,RI,44.0,44003.0,Kent County,440030210022.0
71657,sg:f76e181bd9194ffaaee1e0de8a9b57c4,Cantina del Rio,RI,2019-06-01T00:00:00-04:00,2019-07-01T00:00:00-04:00,2879,65,23.0,"{""<5"":2,""5-20"":28,""21-60"":16,""61-240"":15,"">240"":4}",4220.5,41.438526,-71.485988,722511.0,RI,44.0,44009.0,Washington County,440090512024.0
72181,sg:25d4e839328245baba696ff09da3687f,Big Lots Stores,RI,2019-06-01T00:00:00-04:00,2019-07-01T00:00:00-04:00,2889,400,19.0,"{""<5"":5,""5-20"":214,""21-60"":107,""61-240"":47,"">240"":27}",20574.5,41.709881,-71.399136,452319.0,RI,44.0,44003.0,Kent County,440030218002.0
72197,sg:27279833b2d84b0d9990fe201c207926,Cox Store,RI,2019-06-01T00:00:00-04:00,2019-07-01T00:00:00-04:00,2865,91,169.0,"{""<5"":2,""5-20"":10,""21-60"":8,""61-240"":36,"">240"":35}",14272.0,41.93461,-71.481311,517312.0,RI,44.0,44007.0,Providence County,440070116004.0
72679,sg:562392ffb9324c8da727885cb461d3a0,CVS,RI,2019-06-01T00:00:00-04:00,2019-07-01T00:00:00-04:00,2859,333,10.0,"{""<5"":21,""5-20"":255,""21-60"":44,""61-240"":2,"">240"":11}",7963.0,41.955158000000004,-71.704053,446110.0,RI,44.0,44007.0,Providence County,440070129004.0
73171,sg:846e1343a2774935bf318284d3161d1e,US Air Force Recruiting,RI,2019-06-01T00:00:00-04:00,2019-07-01T00:00:00-04:00,2909,13,508.0,"{""<5"":0,""5-20"":3,""21-60"":3,""61-240"":0,"">240"":7}",1839.0,41.826087,-71.436128,921190.0,RI,44.0,44007.0,Providence County,440070025002.0
73193,sg:866526d8942c4f5ba82a9f2dfeab9873,Innovative Office Interiors,RI,2019-06-01T00:00:00-04:00,2019-07-01T00:00:00-04:00,2822,33,36.0,"{""<5"":0,""5-20"":14,""21-60"":8,""61-240"":5,"">240"":6}",2691.5,41.567775,-71.540432,453210.0,RI,44.0,44009.0,Washington County,440090505001.0
73268,sg:8e4d62fe25f346539bffd9b9d86cd33e,West Broadway Middle School,RI,2019-06-01T00:00:00-04:00,2019-07-01T00:00:00-04:00,2909,277,257.0,"{""<5"":0,""5-20"":30,""21-60"":36,""61-240"":67,"">240"":144}",46476.5,41.817240000000005,-71.435965,611110.0,RI,44.0,44007.0,Providence County,440070010002.0
74161,sg:e5f9d368e8c54cb2a3fd8bcebf67977b,Kristina Grande Residential Properties,RI,2019-06-01T00:00:00-04:00,2019-07-01T00:00:00-04:00,2909,2,290.5,"{""<5"":0,""5-20"":0,""21-60"":0,""61-240"":1,"">240"":1}",390.5,41.819342,-71.43028000000001,531210.0,RI,44.0,44007.0,Providence County,440070011003.0
74167,sg:e65794c0d94441539a461c4c77fb9ee5,Darlington Early Childhood Center,RI,2019-06-01T00:00:00-04:00,2019-07-01T00:00:00-04:00,2861,24,84.0,"{""<5"":0,""5-20"":8,""21-60"":3,""61-240"":2,"">240"":11}",3162.5,41.875026,-71.35470699999999,624410.0,RI,44.0,44007.0,Providence County,440070168002.0
74595,sg:100b6f09ea2444739c34d728a91624a0,Burger King,RI,2019-06-01T00:00:00-04:00,2019-07-01T00:00:00-04:00,2916,369,9.0,"{""<5"":22,""5-20"":251,""21-60"":52,""61-240"":37,"">240"":7}",12547.0,41.857616,-71.355028,722513.0,RI,44.0,44007.0,Providence County,440070101011.0
74680,sg:173196178ba2425fa9ae553ae9a3ca0a,Newport Nautical Supply,RI,2019-06-01T00:00:00-04:00,2019-07-01T00:00:00-04:00,2840,263,67.0,"{""<5"":7,""5-20"":83,""21-60"":38,""61-240"":72,"">240"":63}",28550.0,41.506397,-71.319634,451110.0,RI,44.0,44005.0,Newport County,440050411001.0
75070,sg:397834e81d014495aa9560dc68038960,Sheila Skip Nowell Leadership,RI,2019-06-01T00:00:00-04:00,2019-07-01T00:00:00-04:00,2863,121,117.0,"{""<5"":2,""5-20"":14,""21-60"":26,""61-240"":36,"">240"":43}",16971.0,41.883584,-71.387562,611110.0,RI,44.0,44007.0,Providence County,440070108003.0
75170,sg:4381b607171441498bb2a20d88531c86,Mendon Athletic & Social Club,RI,2019-06-01T00:00:00-04:00,2019-07-01T00:00:00-04:00,2864,20,43.5,"{""<5"":1,""5-20"":7,""21-60"":5,""61-240"":3,"">240"":4}",1704.0,41.919818,-71.405464,721110.0,RI,44.0,44007.0,Providence County,440070113011.0
75236,sg:48c92b4b0a6d4650a3b9248788862d0f,Cumberland Farms,RI,2019-06-01T00:00:00-04:00,2019-07-01T00:00:00-04:00,2816,805,7.0,"{""<5"":66,""5-20"":645,""21-60"":71,""61-240"":14,"">240"":9}",15370.0,41.682178,-71.563907,447110.0,RI,44.0,44003.0,Kent County,440030206022.0
75298,sg:4ed5920ea6f641a29923f9c592a58e95,Sheppard's Place Bed & Breakfast,RI,2019-06-01T00:00:00-04:00,2019-07-01T00:00:00-04:00,2882,55,104.0,"{""<5"":1,""5-20"":12,""21-60"":9,""61-240"":19,"">240"":14}",6736.5,41.424627,-71.460068,721110.0,RI,44.0,44009.0,Washington County,440090515032.0
75428,sg:5999d013f5bf4471b484098b938d8573,Dunkin',RI,2019-06-01T00:00:00-04:00,2019-07-01T00:00:00-04:00,2908,658,8.0,"{""<5"":46,""5-20"":393,""21-60"":77,""61-240"":65,"">240"":77}",36408.5,41.8405,-71.419608,722515.0,RI,44.0,44007.0,Providence County,440070026002.0
75477,sg:5db549e2a29048d2a1317ea873edcc17,Navy Federal Credit Union Restricted Access,RI,2019-06-01T00:00:00-04:00,2019-07-01T00:00:00-04:00,2840,33,7.0,"{""<5"":2,""5-20"":25,""21-60"":3,""61-240"":2,"">240"":1}",980.0,41.517404,-71.317145,522110.0,RI,44.0,44005.0,Newport County,440050412001.0
75546,sg:64aef57a5e8b438bbe294973ab3b0024,American Ballroom Dance Club Studios,RI,2019-06-01T00:00:00-04:00,2019-07-01T00:00:00-04:00,2865,18,56.0,"{""<5"":1,""5-20"":6,""21-60"":2,""61-240"":6,"">240"":3}",1781.5,41.932088,-71.456336,611310.0,RI,44.0,44007.0,Providence County,440070116001.0
76131,sg:9bfe837cdad540978f1865b541329118,Brausa Carlson Gracie Brazilian Jiu Jitsu,RI,2019-06-01T00:00:00-04:00,2019-07-01T00:00:00-04:00,2891,230,45.5,"{""<5"":3,""5-20"":66,""21-60"":72,""61-240"":77,"">240"":12}",18217.0,41.381408,-71.828696,713940.0,RI,44.0,44009.0,Washington County,440090508014.0
76316,sg:acaa5cbbddf14351bc4c2c65dfd8c648,Crown Collision Center,RI,2019-06-01T00:00:00-04:00,2019-07-01T00:00:00-04:00,2809,10,6.0,"{""<5"":2,""5-20"":4,""21-60"":3,""61-240"":1,"">240"":0}",327.0,41.702938,-71.269961,811121.0,RI,44.0,44001.0,Bristol County,440010309021.0
76354,sg:afe9493347ed48eba4dd4bccc8a3eb70,Chelsea's,RI,2019-06-01T00:00:00-04:00,2019-07-01T00:00:00-04:00,2842,103,36.0,"{""<5"":1,""5-20"":29,""21-60"":40,""61-240"":14,"">240"":19}",8652.0,41.515953,-71.282595,722511.0,RI,44.0,44005.0,Newport County,440050404002.0
77183,sg:fd6bd4734b554625a0cf6fcfb96e1131,Dunkin',RI,2019-06-01T00:00:00-04:00,2019-07-01T00:00:00-04:00,2891,268,7.0,"{""<5"":16,""5-20"":202,""21-60"":23,""61-240"":15,"">240"":12}",8634.0,41.351905,-71.770611,722515.0,RI,44.0,44009.0,Washington County,440090509012.0
77333,sg:098d9e318ef1460d842a8043842971a3,Gastrointestinal Medicine Associates,RI,2019-06-01T00:00:00-04:00,2019-07-01T00:00:00-04:00,2891,19,30.0,"{""<5"":0,""5-20"":5,""21-60"":12,""61-240"":1,"">240"":1}",939.0,41.352605,-71.763387,621111.0,RI,44.0,44009.0,Washington County,440090509022.0
77393,sg:0dd94654f9ca42df8eed1b630619d717,Tamburini Golf Performance Training,RI,2019-06-01T00:00:00-04:00,2019-07-01T00:00:00-04:00,2919,1,16.0,"{""<5"":0,""5-20"":1,""21-60"":0,""61-240"":0,"">240"":0}",12.5,41.820857000000004,-71.506987,713940.0,RI,44.0,44007.0,Providence County,440070122001.0
77458,sg:138e4f27726b430faab19774e376e3cf,Terry's Tire & Auto Service,RI,2019-06-01T00:00:00-04:00,2019-07-01T00:00:00-04:00,2895,94,20.5,"{""<5"":1,""5-20"":46,""21-60"":20,""61-240"":17,"">240"":10}",6346.0,42.005697999999995,-71.513129,441310.0,RI,44.0,44007.0,Providence County,440070180002.0
77894,sg:3acaeb1c197242f88202fa306c3cdf5e,HomeGoods,RI,2019-06-01T00:00:00-04:00,2019-07-01T00:00:00-04:00,2865,97,32.0,"{""<5"":2,""5-20"":35,""21-60"":21,""61-240"":23,"">240"":16}",8594.5,41.937974,-71.476838,442299.0,RI,44.0,44007.0,Providence County,440070116004.0
77968,sg:4135d0ca59d04de0959393821746867f,Turilli Nicholas J Phys,RI,2019-06-01T00:00:00-04:00,2019-07-01T00:00:00-04:00,2889,13,37.0,"{""<5"":1,""5-20"":2,""21-60"":7,""61-240"":3,"">240"":0}",762.5,41.729077000000004,-71.392095,621111.0,RI,44.0,44003.0,Kent County,440030213002.0
78618,sg:7f5d3d20440043178cb0803f1fa9a864,RI community Spay Neuter,RI,2019-06-01T00:00:00-04:00,2019-07-01T00:00:00-04:00,2888,56,134.5,"{""<5"":3,""5-20"":11,""21-60"":11,""61-240"":12,"">240"":19}",6956.5,41.750378999999995,-71.434309,541940.0,RI,44.0,44003.0,Kent County,440030211002.0
78636,sg:80956825f14944ccafa41a9d5bbd197a,Gulf Oil,RI,2019-06-01T00:00:00-04:00,2019-07-01T00:00:00-04:00,2885,172,10.0,"{""<5"":13,""5-20"":97,""21-60"":23,""61-240"":28,"">240"":11}",9030.5,41.717099,-71.268742,447110.0,RI,44.0,44001.0,Bristol County,440010306023.0
80059,sg:0ee089512a524a25abeb553fb64423cf,Big Top Flea Market,RI,2019-06-01T00:00:00-04:00,2019-07-01T00:00:00-04:00,2909,362,27.0,"{""<5"":2,""5-20"":129,""21-60"":145,""61-240"":65,"">240"":21}",22312.5,41.818746999999995,-71.446768,453310.0,RI,44.0,44007.0,Providence County,440070019003.0
80111,sg:128918b2bbf3429d9936ceb3cebc7e57,Starbucks,RI,2019-06-01T00:00:00-04:00,2019-07-01T00:00:00-04:00,2920,621,9.0,"{""<5"":43,""5-20"":386,""21-60"":129,""61-240"":45,"">240"":18}",21249.5,41.75585,-71.461169,722515.0,RI,44.0,44007.0,Providence County,440070142002.0
80202,sg:1beda883f4dc45daafac718c1a265d2f,Goff Junior High,RI,2019-06-01T00:00:00-04:00,2019-07-01T00:00:00-04:00,2861,2394,74.0,"{""<5"":26,""5-20"":613,""21-60"":488,""61-240"":484,"">240"":783}",288253.5,41.881555999999996,-71.35466,611110.0,RI,44.0,44007.0,Providence County,440070159002.0
80589,sg:3f00721e90d04a93b175902692396329,Bank Newport,RI,2019-06-01T00:00:00-04:00,2019-07-01T00:00:00-04:00,2818,15,7.0,"{""<5"":2,""5-20"":9,""21-60"":3,""61-240"":1,"">240"":0}",389.5,41.662368,-71.494989,522110.0,RI,44.0,44003.0,Kent County,440030209031.0
80728,sg:4c26eaa98d524232ac973d453825200b,Nathan's Famous,RI,2019-06-01T00:00:00-04:00,2019-07-01T00:00:00-04:00,2891,146,29.0,"{""<5"":3,""5-20"":51,""21-60"":56,""61-240"":26,"">240"":10}",9226.0,41.356894,-71.811006,722513.0,RI,44.0,44009.0,Washington County,440090508022.0
81132,sg:71400bd8afec4cef9f2f32e46b7c75c8,Dave's Coffee,RI,2019-06-01T00:00:00-04:00,2019-07-01T00:00:00-04:00,2813,6,8.5,"{""<5"":0,""5-20"":6,""21-60"":0,""61-240"":0,"">240"":0}",75.0,41.355277,-71.71461,722515.0,RI,44.0,44009.0,Washington County,440090511013.0
81337,sg:838e628cdbad4db8bf9b8eadb127d0e8,Tower Hill Dental,RI,2019-06-01T00:00:00-04:00,2019-07-01T00:00:00-04:00,2879,75,44.0,"{""<5"":4,""5-20"":27,""21-60"":9,""61-240"":16,"">240"":19}",7680.0,41.446118,-71.476857,621210.0,RI,44.0,44009.0,Washington County,440090512024.0
81367,sg:8665b56422714f58b6d1d8fc9536e17b,United States Postal Service (USPS),RI,2019-06-01T00:00:00-04:00,2019-07-01T00:00:00-04:00,2910,38,14.5,"{""<5"":0,""5-20"":22,""21-60"":6,""61-240"":5,"">240"":5}",2470.5,41.776939,-71.436715,491110.0,RI,44.0,44007.0,Providence County,440070137022.0
81438,sg:8d895cc62c724d4ea91250f2a7916765,Ria Money Transfer,RI,2019-06-01T00:00:00-04:00,2019-07-01T00:00:00-04:00,2908,1,740.0,"{""<5"":0,""5-20"":0,""21-60"":0,""61-240"":0,"">240"":1}",240.0,41.825086999999996,-71.443523,522320.0,RI,44.0,44007.0,Providence County,440070021023.0
81779,sg:b20f6188f6d84f2cbc3c21ae7c8b7776,Little Free Library Charter Prayer and Meditation Garden,RI,2019-06-01T00:00:00-04:00,2019-07-01T00:00:00-04:00,2864,16,25.5,"{""<5"":0,""5-20"":6,""21-60"":9,""61-240"":1,"">240"":0}",590.0,41.978229,-71.45223,451130.0,RI,44.0,44007.0,Providence County,440070114022.0
82057,sg:cd2cefc0ade14b1eb95d1ff516dd5aa6,Evolution Body Piercing,RI,2019-06-01T00:00:00-04:00,2019-07-01T00:00:00-04:00,2903,38,17.0,"{""<5"":2,""5-20"":24,""21-60"":10,""61-240"":2,"">240"":0}",1011.0,41.821857,-71.41255699999999,448310.0,RI,44.0,44007.0,Providence County,440070008003.0
82176,sg:da585fe0695547638b4989d89f5e309f,Long Island Pipe Supply,RI,2019-06-01T00:00:00-04:00,2019-07-01T00:00:00-04:00,2905,144,14.5,"{""<5"":9,""5-20"":76,""21-60"":28,""61-240"":30,"">240"":1}",6861.5,41.793382,-71.409839,444130.0,RI,44.0,44007.0,Providence County,440070001024.0
82625,sg:03c107c566164317bd8c42d0de54235d,T L C Day Care Center,RI,2019-06-01T00:00:00-04:00,2019-07-01T00:00:00-04:00,2861,2,14.0,"{""<5"":0,""5-20"":1,""21-60"":1,""61-240"":0,"">240"":0}",53.0,41.871759000000004,-71.35464,624410.0,RI,44.0,44007.0,Providence County,440070168002.0
82640,sg:056854c9540b4dff975f826db1298198,Leverage,RI,2019-06-01T00:00:00-04:00,2019-07-01T00:00:00-04:00,2906,57,104.0,"{""<5"":0,""5-20"":12,""21-60"":4,""61-240"":33,"">240"":8}",7198.5,41.832440000000005,-71.40015799999999,812199.0,RI,44.0,44007.0,Providence County,440070036011.0
83118,sg:2fdc236d6f7f42929c8b001b61b5a22c,First Baptist Church of Narr,RI,2019-06-01T00:00:00-04:00,2019-07-01T00:00:00-04:00,2882,30,80.0,"{""<5"":1,""5-20"":3,""21-60"":8,""61-240"":18,"">240"":0}",3073.0,41.435165999999995,-71.477355,813110.0,RI,44.0,44009.0,Washington County,440090515031.0
83467,sg:509633c86beb45259e40bb585fa84da4,Catanzaro's Pizzeria Cranston,RI,2019-06-01T00:00:00-04:00,2019-07-01T00:00:00-04:00,2910,187,22.0,"{""<5"":4,""5-20"":78,""21-60"":69,""61-240"":22,"">240"":14}",10450.5,41.784776,-71.455087,722511.0,RI,44.0,44007.0,Providence County,440070147003.0
83579,sg:5b26f22ecc424fdb81368e86816a3789,CJ's Tire & Auto Service,RI,2019-06-01T00:00:00-04:00,2019-07-01T00:00:00-04:00,2840,27,10.0,"{""<5"":1,""5-20"":21,""21-60"":2,""61-240"":1,"">240"":2}",976.5,41.504675,-71.31797399999999,441310.0,RI,44.0,44005.0,Newport County,440050405002.0
83621,sg:5f2640bbe9a445b4851271a4d8d756c2,Nautilus Goat Island Solar CSG LLC,RI,2019-06-01T00:00:00-04:00,2019-07-01T00:00:00-04:00,2839,4,91.0,"{""<5"":0,""5-20"":2,""21-60"":0,""61-240"":1,"">240"":1}",415.5,41.945899,-71.65750899999999,221114.0,RI,44.0,44007.0,Providence County,440070130023.0
84050,sg:8858fd9ec8484292bd6f3ab616ec8ed9,Cobblestones Wood Fired Pizza,RI,2019-06-01T00:00:00-04:00,2019-07-01T00:00:00-04:00,2818,42,7.5,"{""<5"":2,""5-20"":28,""21-60"":8,""61-240"":4,"">240"":0}",1281.0,41.642235,-71.46728399999999,722511.0,RI,44.0,44003.0,Kent County,440030209042.0
84610,sg:ba26110f56ae449092542e0ccf491365,Envoy Mortgage Warwick II,RI,2019-06-01T00:00:00-04:00,2019-07-01T00:00:00-04:00,2886,4,307.5,"{""<5"":0,""5-20"":0,""21-60"":0,""61-240"":2,"">240"":2}",781.0,41.69787,-71.479364,522110.0,RI,44.0,44003.0,Kent County,440030222021.0
84653,sg:bd7ba2514e774447bae7124cbd26c373,China Sea,RI,2019-06-01T00:00:00-04:00,2019-07-01T00:00:00-04:00,2888,32,26.0,"{""<5"":1,""5-20"":13,""21-60"":10,""61-240"":5,"">240"":3}",2042.5,41.744844,-71.42779399999999,722511.0,RI,44.0,44003.0,Kent County,440030211003.0
84775,sg:ca535e96fdff4b248446e2941bbc850f,Diego's,RI,2019-06-01T00:00:00-04:00,2019-07-01T00:00:00-04:00,2840,547,58.0,"{""<5"":4,""5-20"":145,""21-60"":143,""61-240"":227,"">240"":28}",48497.5,41.486476,-71.31586800000001,722511.0,RI,44.0,44005.0,Newport County,440050410001.0
84928,sg:d7f93b124d1640699caf117e33d31451,Navigant Credit Union,RI,2019-06-01T00:00:00-04:00,2019-07-01T00:00:00-04:00,2917,450,191.5,"{""<5"":13,""5-20"":111,""21-60"":37,""61-240"":96,"">240"":193}",63686.5,41.918401,-71.520186,522110.0,RI,44.0,44007.0,Providence County,440070126011.0
86031,sg:3b508135c96e4a9da82cb537169dae80,Newton Packing,RI,2019-06-01T00:00:00-04:00,2019-07-01T00:00:00-04:00,2908,134,87.5,"{""<5"":1,""5-20"":24,""21-60"":25,""61-240"":60,"">240"":24}",16105.0,41.843733,-71.42025799999999,445110.0,RI,44.0,44007.0,Providence County,440070027002.0
86825,sg:8936d5f6829c4e51909f0afb7072ea48,Sunoco,RI,2019-06-01T00:00:00-04:00,2019-07-01T00:00:00-04:00,2861,186,19.5,"{""<5"":7,""5-20"":89,""21-60"":30,""61-240"":24,"">240"":36}",14597.0,41.893786999999996,-71.354323,447110.0,RI,44.0,44007.0,Providence County,440070156001.0
86940,sg:94fe3e79983e40c6934df27229b84485,Flaunt Boutique,RI,2019-06-01T00:00:00-04:00,2019-07-01T00:00:00-04:00,2917,161,11.0,"{""<5"":6,""5-20"":97,""21-60"":42,""61-240"":13,"">240"":3}",5605.0,41.868348,-71.531757,448120.0,RI,44.0,44007.0,Providence County,440070127021.0
87079,sg:a3d03553c2974d24ae1d050ff9f6b978,Neuropsychology Partners,RI,2019-06-01T00:00:00-04:00,2019-07-01T00:00:00-04:00,2908,359,102.0,"{""<5"":5,""5-20"":40,""21-60"":87,""61-240"":112,"">240"":115}",48492.0,41.836119000000004,-71.43435500000001,621330.0,RI,44.0,44007.0,Providence County,440070023002.0
87160,sg:aade7d31628e433984c641511d870401,West Warwick Country Club,RI,2019-06-01T00:00:00-04:00,2019-07-01T00:00:00-04:00,2893,490,64.0,"{""<5"":6,""5-20"":118,""21-60"":113,""61-240"":186,"">240"":67}",50139.5,41.723912,-71.513306,713910.0,RI,44.0,44003.0,Kent County,440030205002.0
87350,sg:be823349cc804ee5b2726d59297644cf,Burrillville Extended Steere Farm,RI,2019-06-01T00:00:00-04:00,2019-07-01T00:00:00-04:00,2830,87,31.0,"{""<5"":6,""5-20"":24,""21-60"":20,""61-240"":7,"">240"":30}",9378.5,41.938547,-71.674812,624410.0,RI,44.0,44007.0,Providence County,440070130023.0
87847,sg:f08762cba67a40e0aed2f45abc52c473,Walsh's Auto Body & Sales,RI,2019-06-01T00:00:00-04:00,2019-07-01T00:00:00-04:00,2907,29,20.0,"{""<5"":2,""5-20"":13,""21-60"":9,""61-240"":4,"">240"":1}",1374.0,41.792481,-71.425457,811121.0,RI,44.0,44007.0,Providence County,440070015002.0
87933,sg:f941c895e4df4a8e828be93b4c36b740,Speedway,RI,2019-06-01T00:00:00-04:00,2019-07-01T00:00:00-04:00,2903,371,23.0,"{""<5"":17,""5-20"":152,""21-60"":66,""61-240"":73,"">240"":63}",30722.0,41.816918,-71.407035,447110.0,RI,44.0,44007.0,Providence County,440070006001.0
88120,sg:0b8ea0a8fe964547a11299703cec7013,Potter Burns School,RI,2019-06-01T00:00:00-04:00,2019-07-01T00:00:00-04:00,2861,188,42.0,"{""<5"":1,""5-20"":61,""21-60"":41,""61-240"":36,"">240"":49}",19603.5,41.88187,-71.353499,611110.0,RI,44.0,44007.0,Providence County,440070158003.0
88314,sg:1b0ff5a765214ae5868cd9af57bd6878,OB GYN Associates Inc,RI,2019-06-01T00:00:00-04:00,2019-07-01T00:00:00-04:00,2914,122,33.0,"{""<5"":2,""5-20"":40,""21-60"":44,""61-240"":14,"">240"":22}",9674.0,41.808628000000006,-71.34692199999999,621111.0,RI,44.0,44007.0,Providence County,440070105011.0
88498,sg:2b5d1d46528442a5b38e83a05dea1a73,Nathanael Greene Middle,RI,2019-06-01T00:00:00-04:00,2019-07-01T00:00:00-04:00,2908,649,221.0,"{""<5"":7,""5-20"":95,""21-60"":85,""61-240"":146,"">240"":316}",102460.5,41.834524,-71.43159399999999,611110.0,RI,44.0,44007.0,Providence County,440070023002.0
88561,sg:30768c50d3164ff190e3afa23d6b51a8,South Kingstown High,RI,2019-06-01T00:00:00-04:00,2019-07-01T00:00:00-04:00,2879,1475,143.0,"{""<5"":16,""5-20"":220,""21-60"":168,""61-240"":519,"">240"":552}",220183.5,41.446163,-71.49503100000001,611110.0,RI,44.0,44009.0,Washington County,440090512022.0
89151,sg:68e41ac889e344e0a003206cdd9c75f1,Liberty Physical Therapy,RI,2019-06-01T00:00:00-04:00,2019-07-01T00:00:00-04:00,2906,9,522.0,"{""<5"":0,""5-20"":0,""21-60"":0,""61-240"":1,"">240"":8}",2070.5,41.849812,-71.40111800000001,621340.0,RI,44.0,44007.0,Providence County,440070033003.0
89165,sg:6a89555052e64007ad867e164420cb33,Margaret I Robertson School,RI,2019-06-01T00:00:00-04:00,2019-07-01T00:00:00-04:00,2863,22,99.0,"{""<5"":0,""5-20"":4,""21-60"":6,""61-240"":9,"">240"":3}",2367.5,41.896908,-71.389379,611110.0,RI,44.0,44007.0,Providence County,440070109003.0
89622,sg:9566a81f445a4befb69c7731ae66ad22,The Miriam Hospital,RI,2019-06-01T00:00:00-04:00,2019-07-01T00:00:00-04:00,2906,4085,116.0,"{""<5"":31,""5-20"":614,""21-60"":778,""61-240"":1328,"">240"":1334}",559285.5,41.852090000000004,-71.398397,622110.0,RI,44.0,44007.0,Providence County,440070033004.0
90034,sg:bb3bc3f4cd414f639cea7d8985371a12,Spring Green Auto Body,RI,2019-06-01T00:00:00-04:00,2019-07-01T00:00:00-04:00,2910,12,36.5,"{""<5"":0,""5-20"":3,""21-60"":6,""61-240"":3,"">240"":0}",732.0,41.762283000000004,-71.42475300000001,811121.0,RI,44.0,44007.0,Providence County,440070136002.0
90340,sg:d811de6c90cb4b5e97485168dad5421f,East Bay Auto Sales,RI,2019-06-01T00:00:00-04:00,2019-07-01T00:00:00-04:00,2885,25,203.0,"{""<5"":1,""5-20"":3,""21-60"":4,""61-240"":7,"">240"":10}",3655.5,41.734048,-71.273421,441120.0,RI,44.0,44001.0,Bristol County,440010306011.0
90343,sg:d85c854090b04cad9a3ec65d3c375972,Arigna Irish Pub & Coal Fire Kitchen,RI,2019-06-01T00:00:00-04:00,2019-07-01T00:00:00-04:00,2861,406,59.0,"{""<5"":5,""5-20"":77,""21-60"":123,""61-240"":161,"">240"":40}",39787.0,41.878405,-71.355037,722511.0,RI,44.0,44007.0,Providence County,440070168001.0
90602,sg:f2cae252a1b24106aede6769b748a0fc,Native Fitness,RI,2019-06-01T00:00:00-04:00,2019-07-01T00:00:00-04:00,2871,201,64.0,"{""<5"":2,""5-20"":26,""21-60"":66,""61-240"":84,"">240"":23}",21165.0,41.59752,-71.261094,713940.0,RI,44.0,44005.0,Newport County,440050401035.0
90621,sg:f4f8f24fcbb34593a8ae4050bb4f8ca7,Boys & Girls Clubs of America,RI,2019-06-01T00:00:00-04:00,2019-07-01T00:00:00-04:00,2909,33,21.0,"{""<5"":0,""5-20"":16,""21-60"":12,""61-240"":3,"">240"":2}",1617.5,41.82405,-71.455086,624110.0,RI,44.0,44007.0,Providence County,440070020003.0
90944,sg:137bd901887a43d4a057016c1457fb8b,The Reynolds Barn,RI,2019-06-01T00:00:00-04:00,2019-07-01T00:00:00-04:00,2852,59,38.0,"{""<5"":0,""5-20"":17,""21-60"":19,""61-240"":22,"">240"":1}",4533.0,41.542846000000004,-71.46782900000001,445230.0,RI,44.0,44009.0,Washington County,440090504023.0
90998,sg:193bdf702b5f4bc298698c376b03d394,Precious Angel's Child Center,RI,2019-06-01T00:00:00-04:00,2019-07-01T00:00:00-04:00,2888,72,54.0,"{""<5"":2,""5-20"":31,""21-60"":3,""61-240"":11,"">240"":25}",8169.5,41.75561,-71.43390500000001,624410.0,RI,44.0,44003.0,Kent County,440030211002.0
91161,sg:2a020985fdb943c3985a4da437d1d06b,Burger King,RI,2019-06-01T00:00:00-04:00,2019-07-01T00:00:00-04:00,2842,316,9.0,"{""<5"":20,""5-20"":218,""21-60"":55,""61-240"":17,"">240"":6}",9001.0,41.518562,-71.29945500000001,722513.0,RI,44.0,44005.0,Newport County,440050403042.0
91692,sg:57f3b01372fd445cb411daac299e0516,Westerly Urgent Care,RI,2019-06-01T00:00:00-04:00,2019-07-01T00:00:00-04:00,2891,65,44.0,"{""<5"":1,""5-20"":17,""21-60"":24,""61-240"":22,"">240"":1}",4738.0,41.362840999999996,-71.81464,621111.0,RI,44.0,44009.0,Washington County,440090508022.0
91833,sg:642208032daf487dbd2766594c735de7,East Providence Housing Authority,RI,2019-06-01T00:00:00-04:00,2019-07-01T00:00:00-04:00,2914,170,108.5,"{""<5"":0,""5-20"":43,""21-60"":24,""61-240"":42,"">240"":61}",22470.5,41.823202,-71.35983399999999,523930.0,RI,44.0,44007.0,Providence County,440070103001.0
92042,sg:75971cd0f75a44f5a7e71bafe09a049c,EXIT Realty Professionals,RI,2019-06-01T00:00:00-04:00,2019-07-01T00:00:00-04:00,2919,1,13.0,"{""<5"":0,""5-20"":1,""21-60"":0,""61-240"":0,"">240"":0}",12.5,41.809272,-71.49479000000001,531210.0,RI,44.0,44007.0,Providence County,440070122001.0
92141,sg:7e2165b54fa64fd6acd923d1b1586d6c,Rhyda Tire Sales,RI,2019-06-01T00:00:00-04:00,2019-07-01T00:00:00-04:00,2893,440,91.5,"{""<5"":3,""5-20"":66,""21-60"":111,""61-240"":152,"">240"":108}",54124.0,41.713781,-71.51137800000001,441310.0,RI,44.0,44003.0,Kent County,440030202001.0
92195,sg:82e5af66ef8344158e466e594dc165a9,Groomingdales,RI,2019-06-01T00:00:00-04:00,2019-07-01T00:00:00-04:00,2920,96,28.5,"{""<5"":3,""5-20"":32,""21-60"":35,""61-240"":21,"">240"":5}",6185.5,41.773951000000004,-71.45707800000001,453910.0,RI,44.0,44007.0,Providence County,440070143001.0
92270,sg:89a273c5037d45e8a9e282140780a23c,New London Square,RI,2019-06-01T00:00:00-04:00,2019-07-01T00:00:00-04:00,2893,772,29.0,"{""<5"":22,""5-20"":307,""21-60"":232,""61-240"":143,"">240"":68}",51130.0,41.683175,-71.526161,531120.0,RI,44.0,44003.0,Kent County,440030201022.0
92356,sg:9090ac4f7cf64b4cbce1050a0ed30842,Ramon's Pizza,RI,2019-06-01T00:00:00-04:00,2019-07-01T00:00:00-04:00,2860,217,32.0,"{""<5"":5,""5-20"":85,""21-60"":36,""61-240"":33,"">240"":58}",21419.5,41.869453,-71.38883,722511.0,RI,44.0,44007.0,Providence County,440070164001.0
92430,sg:993b231e17e94fc782e1c7dd4a892859,The Original Italian Bakery,RI,2019-06-01T00:00:00-04:00,2019-07-01T00:00:00-04:00,2919,479,10.0,"{""<5"":29,""5-20"":245,""21-60"":104,""61-240"":72,"">240"":29}",25143.0,41.79643,-71.482988,722511.0,RI,44.0,44007.0,Providence County,440070125001.0
92731,sg:b784af78c5f1499ea48de7e189962fec,BFF Grooming Inc,RI,2019-06-01T00:00:00-04:00,2019-07-01T00:00:00-04:00,2818,273,36.0,"{""<5"":5,""5-20"":89,""21-60"":98,""61-240"":68,"">240"":13}",18448.0,41.660413,-71.449729,453910.0,RI,44.0,44003.0,Kent County,440030209011.0
93027,sg:d3327a97af8743a082cd36d64dcfc9be,Gallos Tires Shop,RI,2019-06-01T00:00:00-04:00,2019-07-01T00:00:00-04:00,2920,74,55.0,"{""<5"":2,""5-20"":21,""21-60"":16,""61-240"":19,"">240"":16}",7615.0,41.79079,-71.455658,441310.0,RI,44.0,44007.0,Providence County,440070147003.0
93347,sg:ef4d5376115c46098ef9953516eee1aa,Storage Pros,RI,2019-06-01T00:00:00-04:00,2019-07-01T00:00:00-04:00,2882,7,6.0,"{""<5"":0,""5-20"":7,""21-60"":0,""61-240"":0,"">240"":0}",87.5,41.42716,-71.478836,531130.0,RI,44.0,44009.0,Washington County,440090515033.0
93438,sg:f8521458da2d45f9a7a4670b1da3a995,Copacabana Colombian Restaurant,RI,2019-06-01T00:00:00-04:00,2019-07-01T00:00:00-04:00,2904,75,80.0,"{""<5"":1,""5-20"":19,""21-60"":13,""61-240"":14,"">240"":28}",9593.5,41.861565,-71.422832,722511.0,RI,44.0,44007.0,Providence County,440070118003.0
94448,sg:5567644fd0a740cabc2f2b1763ec7cd6,Greenwood Inn,RI,2019-06-01T00:00:00-04:00,2019-07-01T00:00:00-04:00,2886,410,50.0,"{""<5"":9,""5-20"":86,""21-60"":145,""61-240"":153,"">240"":17}",34076.5,41.711797999999995,-71.448298,722511.0,RI,44.0,44003.0,Kent County,440030221001.0
94979,sg:878a33e584fd471f8a6d2c3fd44ae5f9,Sakonnet River Outfitters,RI,2019-06-01T00:00:00-04:00,2019-07-01T00:00:00-04:00,2878,72,23.5,"{""<5"":1,""5-20"":32,""21-60"":18,""61-240"":15,"">240"":6}",4829.0,41.653938000000004,-71.197939,451110.0,RI,44.0,44005.0,Newport County,440050416022.0
95047,sg:8f16de60442e42da92df41cf64957996,Time For You Studio,RI,2019-06-01T00:00:00-04:00,2019-07-01T00:00:00-04:00,2889,26,75.0,"{""<5"":2,""5-20"":3,""21-60"":7,""61-240"":8,"">240"":6}",2970.0,41.723893,-71.407143,812199.0,RI,44.0,44003.0,Kent County,440030214012.0
95093,sg:93f868861c1d4b76bb5ed5d7422ebd84,Amerigo Sailboat Charters,RI,2019-06-01T00:00:00-04:00,2019-07-01T00:00:00-04:00,2840,6,12.0,"{""<5"":0,""5-20"":4,""21-60"":2,""61-240"":0,"">240"":0}",131.0,41.483636,-71.315506,441222.0,RI,44.0,44005.0,Newport County,440050410001.0
95185,sg:9cb3b82e8019460e946dec6f9a670e09,Hair By The Water,RI,2019-06-01T00:00:00-04:00,2019-07-01T00:00:00-04:00,2830,2,5.0,"{""<5"":1,""5-20"":1,""21-60"":0,""61-240"":0,"">240"":0}",15.0,41.964912,-71.67528100000001,812112.0,RI,44.0,44007.0,Providence County,440070129001.0
95917,sg:e881a7e6dbe642f68d0ba4c9a857319a,Pizza Hut,RI,2019-06-01T00:00:00-04:00,2019-07-01T00:00:00-04:00,2809,65,14.0,"{""<5"":5,""5-20"":34,""21-60"":20,""61-240"":2,"">240"":4}",2508.5,41.677494,-71.260355,722513.0,RI,44.0,44001.0,Bristol County,440010308001.0
96054,sg:f5e9bf066f8c49e8a027a83bcc6594dc,Envisions Eye Care,RI,2019-06-01T00:00:00-04:00,2019-07-01T00:00:00-04:00,2893,147,46.0,"{""<5"":6,""5-20"":23,""21-60"":56,""61-240"":27,"">240"":35}",15034.0,41.685198,-71.50308299999999,446130.0,RI,44.0,44003.0,Kent County,440030201021.0
96247,sg:071c16a59e4b43759e5ddd2c6d00c287,Third Base Sports Bar and Grill,RI,2019-06-01T00:00:00-04:00,2019-07-01T00:00:00-04:00,2864,135,46.0,"{""<5"":4,""5-20"":43,""21-60"":23,""61-240"":29,"">240"":36}",14483.5,41.912211,-71.393075,722511.0,RI,44.0,44007.0,Providence County,440070112005.0
96644,sg:2a414ea8adf84935aedcb7237372e07b,Newport Rotary Shell,RI,2019-06-01T00:00:00-04:00,2019-07-01T00:00:00-04:00,2840,146,7.0,"{""<5"":18,""5-20"":99,""21-60"":18,""61-240"":3,"">240"":8}",4383.0,41.50632,-71.317964,447110.0,RI,44.0,44005.0,Newport County,440050405002.0
96705,sg:2fc114c6bec44c78a35993021e19659a,English Muffin,RI,2019-06-01T00:00:00-04:00,2019-07-01T00:00:00-04:00,2919,450,41.0,"{""<5"":8,""5-20"":93,""21-60"":204,""61-240"":114,"">240"":31}",34041.5,41.789099,-71.515072,722511.0,RI,44.0,44007.0,Providence County,440070125003.0
96867,sg:3d469e8d7d4c4dd59cecb29c73edc8a7,Radiology Associates,RI,2019-06-01T00:00:00-04:00,2019-07-01T00:00:00-04:00,2895,141,37.0,"{""<5"":2,""5-20"":51,""21-60"":34,""61-240"":38,"">240"":16}",11578.5,42.00254,-71.508014,621111.0,RI,44.0,44007.0,Providence County,440070179001.0
97100,sg:528805c5997d47cd9e81cf6f40f0091a,Mkg Beauty & Business,RI,2019-06-01T00:00:00-04:00,2019-07-01T00:00:00-04:00,2920,3,121.0,"{""<5"":0,""5-20"":1,""21-60"":0,""61-240"":1,"">240"":1}",403.0,41.786087,-71.472164,611511.0,,,,,
97221,sg:5eb1f923dd594cc2aea94de8c54b8583,To The Pointe of Performing Arts,RI,2019-06-01T00:00:00-04:00,2019-07-01T00:00:00-04:00,2816,147,30.0,"{""<5"":3,""5-20"":45,""21-60"":60,""61-240"":34,"">240"":5}",9317.0,41.662045,-71.603575,713940.0,RI,44.0,44003.0,Kent County,440030207032.0
97570,sg:816320e9ab774130ae4e77235f665103,Inflicting Ink,RI,2019-06-01T00:00:00-04:00,2019-07-01T00:00:00-04:00,2871,21,44.0,"{""<5"":0,""5-20"":6,""21-60"":5,""61-240"":8,"">240"":2}",1961.5,41.609355,-71.247001,812199.0,RI,44.0,44005.0,Newport County,440050401023.0
97745,sg:92325a4eb5864abd9d6715986899bba8,Mobile Menu,RI,2019-06-01T00:00:00-04:00,2019-07-01T00:00:00-04:00,2908,364,124.0,"{""<5"":0,""5-20"":76,""21-60"":59,""61-240"":97,"">240"":132}",49618.0,41.848177,-71.431919,445110.0,RI,44.0,44007.0,Providence County,440070028004.0
98314,sg:c95976afeac54b72806448569cbd7cab,North Bay Manor,RI,2019-06-01T00:00:00-04:00,2019-07-01T00:00:00-04:00,2917,90,95.0,"{""<5"":0,""5-20"":15,""21-60"":21,""61-240"":35,"">240"":19}",10865.5,41.893890999999996,-71.539917,621330.0,RI,44.0,44007.0,Providence County,440070127011.0
98361,sg:cd3d7e91e16947af9cc4747fa6d2454b,Urology Associates Wakefield,RI,2019-06-01T00:00:00-04:00,2019-07-01T00:00:00-04:00,2879,16,25.0,"{""<5"":0,""5-20"":7,""21-60"":3,""61-240"":0,"">240"":6}",1649.0,41.430973,-71.49636600000001,621111.0,RI,44.0,44009.0,Washington County,440090512021.0
98890,sg:00d7982c582f47f5ab175951fe7f7873,WED Kingstown Solar I East Array,RI,2019-06-01T00:00:00-04:00,2019-07-01T00:00:00-04:00,2892,41,79.0,"{""<5"":0,""5-20"":12,""21-60"":7,""61-240"":15,"">240"":7}",4371.0,41.498897,-71.586685,221114.0,RI,44.0,44009.0,Washington County,440090513061.0
98937,sg:054052dc202c4375ba906f5cd21dbd03,Heliblock,RI,2019-06-01T00:00:00-04:00,2019-07-01T00:00:00-04:00,2891,90,46.5,"{""<5"":4,""5-20"":21,""21-60"":24,""61-240"":22,"">240"":19}",9115.5,41.346835999999996,-71.80371099999999,512131.0,RI,44.0,44009.0,Washington County,440090509023.0
99007,sg:0ae08af78998440a9d5afd2c5ed8281f,Ouellette Tom,RI,2019-06-01T00:00:00-04:00,2019-07-01T00:00:00-04:00,2878,20,21.5,"{""<5"":0,""5-20"":9,""21-60"":5,""61-240"":2,"">240"":4}",1576.0,41.627582000000004,-71.145288,445110.0,RI,44.0,44005.0,Newport County,440050417011.0
99057,sg:0f0cddac3fbc45ec83f4238b0fc1dbdd,Brass Attack,RI,2019-06-01T00:00:00-04:00,2019-07-01T00:00:00-04:00,2909,490,77.0,"{""<5"":10,""5-20"":141,""21-60"":75,""61-240"":117,"">240"":147}",57713.5,41.813417,-71.454822,451140.0,RI,44.0,44007.0,Providence County,440070016007.0
99062,sg:0f4cdb570c1c48de8c0ae1a4f24a98a7,Sean P Durkin Ameriprise Financial Services,RI,2019-06-01T00:00:00-04:00,2019-07-01T00:00:00-04:00,2888,42,17.0,"{""<5"":1,""5-20"":20,""21-60"":9,""61-240"":4,"">240"":8}",3139.0,41.740165000000005,-71.438237,523930.0,RI,44.0,44003.0,Kent County,440030211004.0
99760,sg:5392519643e448d79f85b6813dc30fb9,True Value Hardware,RI,2019-06-01T00:00:00-04:00,2019-07-01T00:00:00-04:00,2835,92,23.0,"{""<5"":3,""5-20"":37,""21-60"":32,""61-240"":16,"">240"":4}",5134.0,41.496145,-71.36766800000001,444130.0,RI,44.0,44005.0,Newport County,440050413005.0
100311,sg:850deb5ba44242a3b9f94001e6309139,Sakonnet Golf Club,RI,2019-06-01T00:00:00-04:00,2019-07-01T00:00:00-04:00,2837,185,60.0,"{""<5"":1,""5-20"":41,""21-60"":51,""61-240"":55,"">240"":37}",19738.0,41.470508,-71.18589300000001,713940.0,RI,44.0,44005.0,Newport County,440050414001.0
100607,sg:a007e3f33f8c45f1a31729d0038f3f8e,Soleful Beginnings,RI,2019-06-01T00:00:00-04:00,2019-07-01T00:00:00-04:00,2915,3,97.0,"{""<5"":0,""5-20"":0,""21-60"":0,""61-240"":3,"">240"":0}",451.5,41.795963,-71.354865,812199.0,RI,44.0,44007.0,Providence County,440070105023.0
100691,sg:a7e1c2abdef84415a0740b1d5873ada5,Great Taste,RI,2019-06-01T00:00:00-04:00,2019-07-01T00:00:00-04:00,2861,158,23.5,"{""<5"":3,""5-20"":68,""21-60"":28,""61-240"":39,"">240"":20}",12661.0,41.879227,-71.354513,722511.0,RI,44.0,44007.0,Providence County,440070159002.0
