,safegraph_place_id,location_name,region,date_range_start,date_range_end,postal_code,raw_visit_counts,median_dwell,bucketed_dwell_times,est_total_dwell,latitude,longitude,naics_code,state,stateFIPS,countyFIPS,countyName,CBGFIPS
2,sg:0028f062a9ab43c8be8211ad9a4944c9,Eastconn Special Education,CT,2019-01-01T00:00:00-05:00,2019-02-01T00:00:00-05:00,6247,66,147.5,"{""<5"":0,""5-20"":8,""21-60"":5,""61-240"":25,"">240"":28}",10785.0,41.771956,-72.08698000000001,611110.0,CT,9.0,9015.0,Windham County,90158200001.0
292,sg:19d8098f56b84c44b5b98f32ef55660b,The Bijou Theatre,CT,2019-01-01T00:00:00-05:00,2019-02-01T00:00:00-05:00,6604,64,50.0,"{""<5"":2,""5-20"":23,""21-60"":8,""61-240"":21,"">240"":10}",6177.0,41.17837,-73.192094,451140.0,CT,9.0,9001.0,Fairfield County,90010706001.0
542,sg:339f21563fd24628a0e759affb51cc30,Learn & Play Preschool Child Care Center,CT,2019-01-01T00:00:00-05:00,2019-02-01T00:00:00-05:00,6405,20,527.0,"{""<5"":0,""5-20"":2,""21-60"":5,""61-240"":2,"">240"":11}",3168.5,41.307946,-72.749237,624410.0,CT,9.0,9009.0,New Haven County,90091847001.0
715,sg:42431c0f0fd241bf8974e4703a7c7bcb,Cortina Learning International,CT,2019-01-01T00:00:00-05:00,2019-02-01T00:00:00-05:00,6897,3,11.0,"{""<5"":0,""5-20"":3,""21-60"":0,""61-240"":0,"">240"":0}",37.5,41.169638,-73.414632,611630.0,CT,9.0,9001.0,Fairfield County,90010454002.0
730,sg:4348163123484bceb142e77ef26f66e6,Pentecostal Church Door of Salvation,CT,2019-01-01T00:00:00-05:00,2019-02-01T00:00:00-05:00,6519,163,62.0,"{""<5"":6,""5-20"":44,""21-60"":31,""61-240"":32,"">240"":50}",18636.5,41.298149,-72.93719399999999,813110.0,CT,9.0,9009.0,New Haven County,90091406003.0
756,sg:45320e4b9b144cc2941d0feb67804d69,Game X Change,CT,2019-01-01T00:00:00-05:00,2019-02-01T00:00:00-05:00,6477,326,42.0,"{""<5"":6,""5-20"":94,""21-60"":97,""61-240"":93,"">240"":36}",27755.0,41.275159,-72.990236,451120.0,CT,9.0,9009.0,New Haven County,90091571001.0
847,sg:4e33e7fb51b145b59d787464ccf2865e,Diagnostic & Medical Specialists of Greenwich,CT,2019-01-01T00:00:00-05:00,2019-02-01T00:00:00-05:00,6830,50,69.0,"{""<5"":0,""5-20"":13,""21-60"":9,""61-240"":22,"">240"":6}",5278.0,41.034104,-73.624227,621111.0,CT,9.0,9001.0,Fairfield County,90010103002.0
914,sg:535d992244044af7bcb08eaa902799a5,Roosters,CT,2019-01-01T00:00:00-05:00,2019-02-01T00:00:00-05:00,6074,1,23.0,"{""<5"":0,""5-20"":0,""21-60"":1,""61-240"":0,"">240"":0}",40.5,41.808121,-72.55586600000001,812111.0,CT,9.0,9003.0,Hartford County,90034875002.0
1106,sg:663b57efa14a4935a746bda892547ef1,Mathews Park,CT,2019-01-01T00:00:00-05:00,2019-02-01T00:00:00-05:00,6604,804,25.0,"{""<5"":21,""5-20"":341,""21-60"":153,""61-240"":211,"">240"":78}",60987.0,41.108755,-73.416169,712190.0,CT,9.0,9001.0,Fairfield County,90010437002.0
1199,sg:6f70b20b3fa644b5b49b73e4d42ba66a,Aspen Dental Associates,CT,2019-01-01T00:00:00-05:00,2019-02-01T00:00:00-05:00,6825,24,80.5,"{""<5"":0,""5-20"":4,""21-60"":7,""61-240"":9,"">240"":4}",2648.0,41.172067,-73.22810600000001,621210.0,CT,9.0,9001.0,Fairfield County,90010614001.0
1218,sg:72a990e772f748c0a5894653d22387e2,A Vitti Excavators Recycling,CT,2019-01-01T00:00:00-05:00,2019-02-01T00:00:00-05:00,6902,83,61.0,"{""<5"":3,""5-20"":24,""21-60"":14,""61-240"":19,"">240"":23}",9254.0,41.039165000000004,-73.53899200000001,562211.0,CT,9.0,9001.0,Fairfield County,90010222002.0
1269,sg:77dfb2abe2f3483f81ef7aebf77be0c5,LaRocca's Country Market,CT,2019-01-01T00:00:00-05:00,2019-02-01T00:00:00-05:00,6903,2,20.0,"{""<5"":0,""5-20"":1,""21-60"":1,""61-240"":0,"">240"":0}",53.0,41.145072,-73.58913000000001,445110.0,CT,9.0,9001.0,Fairfield County,90010203004.0
1299,sg:7a7cf79cb8774cff8850b243a8008b2e,Webster Bank,CT,2019-01-01T00:00:00-05:00,2019-02-01T00:00:00-05:00,6712,1,4.0,"{""<5"":1,""5-20"":0,""21-60"":0,""61-240"":0,"">240"":0}",2.5,41.50963,-72.982787,522110.0,CT,9.0,9009.0,New Haven County,90093472001.0
1324,sg:7d6c7a3a265b44a7b72621eb242979b0,St Matthew Church,CT,2019-01-01T00:00:00-05:00,2019-02-01T00:00:00-05:00,6854,194,41.0,"{""<5"":2,""5-20"":61,""21-60"":69,""61-240"":62,"">240"":0}",12893.0,41.110611999999996,-73.448355,813110.0,CT,9.0,9001.0,Fairfield County,90010432002.0
1376,sg:81fe927eccc845e1be82e9a308fbf1e6,Liv's Shack,CT,2019-01-01T00:00:00-05:00,2019-02-01T00:00:00-05:00,6498,15,22.0,"{""<5"":0,""5-20"":7,""21-60"":5,""61-240"":1,"">240"":2}",920.5,41.278157,-72.464823,722511.0,CT,9.0,9007.0,Middlesex County,90076801004.0
1518,sg:916803a9d40f4ae18ad7a15ce51b1a15,Collins Creamery,CT,2019-01-01T00:00:00-05:00,2019-02-01T00:00:00-05:00,6082,8,28.0,"{""<5"":0,""5-20"":2,""21-60"":5,""61-240"":1,"">240"":0}",378.0,41.972962,-72.539058,722515.0,CT,9.0,9003.0,Hartford County,90034810002.0
1528,sg:9252873243be48dfb211276dbadeb196,The Mochi Store,CT,2019-01-01T00:00:00-05:00,2019-02-01T00:00:00-05:00,6510,20,155.0,"{""<5"":1,""5-20"":9,""21-60"":0,""61-240"":0,"">240"":10}",2515.0,41.305444,-72.929059,722515.0,CT,9.0,9009.0,New Haven County,90091401001.0
1662,sg:9ee96fae6d2d4f48be7bfa2873f827da,Anytime Fitness,CT,2019-01-01T00:00:00-05:00,2019-02-01T00:00:00-05:00,6416,435,41.0,"{""<5"":5,""5-20"":92,""21-60"":191,""61-240"":136,"">240"":11}",32006.0,41.606451,-72.678557,713940.0,CT,9.0,9007.0,Middlesex County,90075701003.0
1827,sg:aefea156bda04f6398d2a71b778669d5,Nails by Salina,CT,2019-01-01T00:00:00-05:00,2019-02-01T00:00:00-05:00,6825,30,65.0,"{""<5"":0,""5-20"":2,""21-60"":12,""61-240"":13,"">240"":3}",3187.5,41.175151,-73.225626,812113.0,CT,9.0,9001.0,Fairfield County,90010613001.0
1830,sg:af67beaae0d24f4f9a7dfad0b8eb0a39,LA Page Makeup,CT,2019-01-01T00:00:00-05:00,2019-02-01T00:00:00-05:00,6450,28,59.0,"{""<5"":1,""5-20"":10,""21-60"":3,""61-240"":5,"">240"":9}",3161.5,41.532146000000004,-72.77954,446120.0,CT,9.0,9009.0,New Haven County,90091713004.0
1905,sg:b65f47b86338407e8855d5932d2bad08,Tesla Supercharger,CT,2019-01-01T00:00:00-05:00,2019-02-01T00:00:00-05:00,6820,130,15.0,"{""<5"":4,""5-20"":92,""21-60"":30,""61-240"":4,"">240"":0}",2977.0,41.067605,-73.504809,447110.0,CT,9.0,9001.0,Fairfield County,90010304003.0
1936,sg:b8c1d77be4a5403da7aa55e35c049579,TaxRecover,CT,2019-01-01T00:00:00-05:00,2019-02-01T00:00:00-05:00,6382,21,84.0,"{""<5"":0,""5-20"":3,""21-60"":5,""61-240"":7,"">240"":6}",2733.5,41.471705,-72.088127,541213.0,CT,9.0,9011.0,New London County,90118705013.0
2006,sg:c0f8c1a888b542aeb1157d86c8bd28d8,Holy Cross Lutheran Church Lcms,CT,2019-01-01T00:00:00-05:00,2019-02-01T00:00:00-05:00,6611,8,47.5,"{""<5"":1,""5-20"":1,""21-60"":2,""61-240"":4,"">240"":0}",698.0,41.261292,-73.222125,813110.0,CT,9.0,9001.0,Fairfield County,90010902003.0
2176,sg:d0b4310ab1574074ba03690244953e66,NAPA of New Haven,CT,2019-01-01T00:00:00-05:00,2019-02-01T00:00:00-05:00,6511,274,29.0,"{""<5"":8,""5-20"":110,""21-60"":63,""61-240"":44,"">240"":49}",22328.5,41.318985999999995,-72.898669,444130.0,CT,9.0,9009.0,New Haven County,90091424001.0
2303,sg:ddf200eb227442dcbdee4d4a2a2ac231,CVS,CT,2019-01-01T00:00:00-05:00,2019-02-01T00:00:00-05:00,6098,223,10.0,"{""<5"":17,""5-20"":163,""21-60"":33,""61-240"":10,"">240"":0}",4921.5,41.920282,-73.05975,446110.0,CT,9.0,9005.0,Litchfield County,90053201002.0
2351,sg:e335939b57c5469a85d00c96bd314282,Fairfield Craft Ales,CT,2019-01-01T00:00:00-05:00,2019-02-01T00:00:00-05:00,6615,156,48.5,"{""<5"":3,""5-20"":35,""21-60"":54,""61-240"":51,"">240"":13}",13427.5,41.175847999999995,-73.147347,312120.0,CT,9.0,9001.0,Fairfield County,90010804001.0
2366,sg:e5399c0ebd34425384f2a2b2ca09671c,Housatonic Valley Dental Care,CT,2019-01-01T00:00:00-05:00,2019-02-01T00:00:00-05:00,6018,32,36.0,"{""<5"":0,""5-20"":11,""21-60"":9,""61-240"":4,"">240"":8}",3024.0,42.027023,-73.33440999999999,621210.0,CT,9.0,9005.0,Litchfield County,90052602001.0
2741,sg:08f8d6d9c1fb48fc97ec590ff148ddac,Hawk's Landing Country Club,CT,2019-01-01T00:00:00-05:00,2019-02-01T00:00:00-05:00,6489,68,116.5,"{""<5"":0,""5-20"":7,""21-60"":13,""61-240"":42,"">240"":6}",8375.0,41.64308,-72.856088,713940.0,CT,9.0,9003.0,Hartford County,90034302012.0
2838,sg:11d5c36551744b6a8979b803585c1f6a,Grab N Go Mart,CT,2019-01-01T00:00:00-05:00,2019-02-01T00:00:00-05:00,6510,2,11.0,"{""<5"":0,""5-20"":2,""21-60"":0,""61-240"":0,"">240"":0}",25.0,41.304849,-72.923451,445110.0,CT,9.0,9009.0,New Haven County,90091401001.0
2876,sg:1547f1b8c2df47ce89296f49759e9f1c,Gibson David P DDS,CT,2019-01-01T00:00:00-05:00,2019-02-01T00:00:00-05:00,6511,4,64.5,"{""<5"":0,""5-20"":1,""21-60"":1,""61-240"":1,"">240"":1}",443.5,41.306126,-72.93209499999999,621210.0,CT,9.0,9009.0,New Haven County,90093614011.0
2939,sg:1c681f0832ce498692e47e051dc247c0,Mario's Tuscany Grill,CT,2019-01-01T00:00:00-05:00,2019-02-01T00:00:00-05:00,6098,97,61.0,"{""<5"":2,""5-20"":25,""21-60"":21,""61-240"":33,"">240"":16}",9974.5,41.922146000000005,-73.07445799999999,722511.0,CT,9.0,9005.0,Litchfield County,90053201004.0
2952,sg:1d52b638a4bd4a7ba9cf0a10d7a28049,St Moritz,CT,2019-01-01T00:00:00-05:00,2019-02-01T00:00:00-05:00,6830,86,78.0,"{""<5"":1,""5-20"":17,""21-60"":19,""61-240"":31,"">240"":18}",9970.0,41.022535999999995,-73.624442,722511.0,CT,9.0,9001.0,Fairfield County,90010106002.0
3002,sg:21f3e1528b414bebb8a8fd5d9dfdd6c4,Therapeutic & Sports Techniques LLC,CT,2019-01-01T00:00:00-05:00,2019-02-01T00:00:00-05:00,6437,3,125.0,"{""<5"":0,""5-20"":0,""21-60"":1,""61-240"":2,"">240"":0}",341.5,41.309279,-72.724912,812199.0,CT,9.0,9009.0,New Haven County,90091903024.0
3016,sg:23ef3635a2c34f6f9615788a4974ba51,Schwartz Kove J DPM,CT,2019-01-01T00:00:00-05:00,2019-02-01T00:00:00-05:00,6111,5,27.0,"{""<5"":0,""5-20"":2,""21-60"":1,""61-240"":1,"">240"":1}",456.0,41.704336,-72.736174,621111.0,CT,9.0,9003.0,Hartford County,90034946002.0
3323,sg:41b4ed74017c41cfa70f9c5f16ba9011,Dunkin',CT,2019-01-01T00:00:00-05:00,2019-02-01T00:00:00-05:00,6365,178,7.0,"{""<5"":18,""5-20"":142,""21-60"":11,""61-240"":4,"">240"":3}",3587.5,41.487313,-71.973569,722515.0,CT,9.0,9011.0,New London County,90117001002.0
3369,sg:453fc4121d3f4de3a89458dd01ca7e40,Essex Fire Engine Company 1 Headquarters,CT,2019-01-01T00:00:00-05:00,2019-02-01T00:00:00-05:00,6426,65,17.0,"{""<5"":3,""5-20"":31,""21-60"":13,""61-240"":16,"">240"":2}",3809.5,41.350865999999996,-72.400954,922160.0,CT,9.0,9007.0,Middlesex County,90076301003.0
3387,sg:4756aa0225944954a703bccc0127c3d2,Lazarus Sean W DPM,CT,2019-01-01T00:00:00-05:00,2019-02-01T00:00:00-05:00,6516,2,33.5,"{""<5"":0,""5-20"":1,""21-60"":1,""61-240"":0,"">240"":0}",53.0,41.273581,-72.94994200000001,621111.0,CT,9.0,9009.0,New Haven County,90091545004.0
3470,sg:4e12ec4a688349979e432c7bf2ed43d3,Romano's Sea Shack,CT,2019-01-01T00:00:00-05:00,2019-02-01T00:00:00-05:00,6716,68,32.5,"{""<5"":0,""5-20"":21,""21-60"":23,""61-240"":7,"">240"":17}",6327.5,41.595393,-72.986609,722511.0,CT,9.0,9009.0,New Haven County,90093612003.0
3548,sg:55e45c7bc640425c9348b9ce8b6cd71f,Shelton Dental Center,CT,2019-01-01T00:00:00-05:00,2019-02-01T00:00:00-05:00,6484,1,274.0,"{""<5"":0,""5-20"":0,""21-60"":0,""61-240"":0,"">240"":1}",240.0,41.304451,-73.101884,621210.0,CT,9.0,9001.0,Fairfield County,90011103013.0
3878,sg:73f99a0b7ba946e4b65e3c3fadb8a431,Mi Honduras Deli,CT,2019-01-01T00:00:00-05:00,2019-02-01T00:00:00-05:00,6855,50,39.5,"{""<5"":0,""5-20"":15,""21-60"":12,""61-240"":14,"">240"":9}",4940.5,41.101329,-73.406674,722511.0,CT,9.0,9001.0,Fairfield County,90010442003.0
3885,sg:7468326aaa484ef6b434d0f25bb0f42a,CrossFit,CT,2019-01-01T00:00:00-05:00,2019-02-01T00:00:00-05:00,6484,96,27.5,"{""<5"":0,""5-20"":40,""21-60"":24,""61-240"":22,"">240"":10}",7183.0,41.313458000000004,-73.09657800000001,713940.0,CT,9.0,9001.0,Fairfield County,90011101002.0
3901,sg:763c6665733e4b189fa5baacc8b1538d,Lewisboro Town Park,CT,2019-01-01T00:00:00-05:00,2019-02-01T00:00:00-05:00,10518,68,24.5,"{""<5"":6,""5-20"":23,""21-60"":21,""61-240"":9,"">240"":9}",4667.5,41.274399,-73.587642,712190.0,NY,36.0,36119.0,Westchester County,361190125023.0
3945,sg:7ae296a73c3d419db39a0f86d0c605a2,A Child's Garden Montessori School,CT,2019-01-01T00:00:00-05:00,2019-02-01T00:00:00-05:00,6378,56,460.5,"{""<5"":0,""5-20"":1,""21-60"":7,""61-240"":8,"">240"":40}",11100.0,41.406347,-71.935393,611110.0,CT,9.0,9011.0,New London County,90117054001.0
4082,sg:87e2238b613f4f709fe0b5d7bdceb7b6,Christie's Fine Jewelry LLC,CT,2019-01-01T00:00:00-05:00,2019-02-01T00:00:00-05:00,6042,90,18.0,"{""<5"":1,""5-20"":47,""21-60"":31,""61-240"":9,"">240"":2}",3680.0,41.814397,-72.526712,448310.0,CT,9.0,9003.0,Hartford County,90035141021.0
4174,sg:91f910071c7b4bca9b48a05fc0218689,Connecticut Oral & Maxillofacial Surgery Centers LLC,CT,2019-01-01T00:00:00-05:00,2019-02-01T00:00:00-05:00,6250,7,41.0,"{""<5"":0,""5-20"":0,""21-60"":4,""61-240"":3,"">240"":0}",613.5,41.741754,-72.260525,621210.0,CT,9.0,9013.0,Tolland County,90138815003.0
4186,sg:92ee4a471a014004add5bd450a2876c7,Burger King,CT,2019-01-01T00:00:00-05:00,2019-02-01T00:00:00-05:00,6033,205,10.0,"{""<5"":9,""5-20"":137,""21-60"":39,""61-240"":18,"">240"":2}",6503.5,41.726553,-72.61636800000001,722513.0,CT,9.0,9003.0,Hartford County,90035203022.0
4542,sg:ba575c89dc744c65847f1f9c14a0b448,Children's Creative Learning Center,CT,2019-01-01T00:00:00-05:00,2019-02-01T00:00:00-05:00,6410,3,535.0,"{""<5"":0,""5-20"":0,""21-60"":0,""61-240"":0,"">240"":3}",720.0,41.497831,-72.899556,624410.0,CT,9.0,9009.0,New Haven County,90093433001.0
4594,sg:c074042ad8d64bf89f9777128aac44b7,Michael K Hwang DMD,CT,2019-01-01T00:00:00-05:00,2019-02-01T00:00:00-05:00,6108,1,6.0,"{""<5"":0,""5-20"":1,""21-60"":0,""61-240"":0,"">240"":0}",12.5,41.774011,-72.641087,621210.0,CT,9.0,9003.0,Hartford County,90035102001.0
4672,sg:c85e99bb9a184f3fbd35bbf72bad19bc,Aerial Arts Fitness,CT,2019-01-01T00:00:00-05:00,2019-02-01T00:00:00-05:00,6351,3,20.0,"{""<5"":0,""5-20"":2,""21-60"":0,""61-240"":0,"">240"":1}",265.0,41.603193,-71.983287,713940.0,CT,9.0,9011.0,New London County,90117092003.0
4683,sg:c9a403462d1f41d6bd70cc3ea012f0c0,Hartford HealthCare Medical Group,CT,2019-01-01T00:00:00-05:00,2019-02-01T00:00:00-05:00,6708,181,63.0,"{""<5"":0,""5-20"":27,""21-60"":59,""61-240"":48,"">240"":47}",21231.0,41.546815,-73.062552,621111.0,CT,9.0,9009.0,New Haven County,90093516021.0
4841,sg:dd0bcb8ce5d74b3abe9d7a779ae2f0db,Ss Cyril & Methodius School,CT,2019-01-01T00:00:00-05:00,2019-02-01T00:00:00-05:00,6106,355,79.0,"{""<5"":5,""5-20"":100,""21-60"":53,""61-240"":100,"">240"":97}",41739.0,41.755349,-72.673764,611110.0,CT,9.0,9003.0,Hartford County,90035004001.0
4852,sg:de8472f94bb240b88cef14c811385e9c,New Academy Preschool,CT,2019-01-01T00:00:00-05:00,2019-02-01T00:00:00-05:00,6612,5,10.0,"{""<5"":0,""5-20"":5,""21-60"":0,""61-240"":0,"">240"":0}",62.5,41.249653,-73.303074,624410.0,CT,9.0,9001.0,Fairfield County,90011051002.0
4888,sg:e167fad83fb54f62acb6cea9776f3fe5,Dianna's Natural Hair Care,CT,2019-01-01T00:00:00-05:00,2019-02-01T00:00:00-05:00,6082,92,73.0,"{""<5"":2,""5-20"":27,""21-60"":13,""61-240"":35,"">240"":15}",9736.5,42.000223999999996,-72.571012,812112.0,CT,9.0,9003.0,Hartford County,90034804002.0
5046,sg:f17e22d280d34747b873ac53da89949d,Foot Locker,CT,2019-01-01T00:00:00-05:00,2019-02-01T00:00:00-05:00,6510,110,24.5,"{""<5"":4,""5-20"":49,""21-60"":19,""61-240"":18,"">240"":20}",8901.0,41.305426000000004,-72.924891,448210.0,CT,9.0,9009.0,New Haven County,90091401001.0
5238,sg:02f7f094aa83448899aa84d3b2eb9aab,Metro Center Garage,CT,2019-01-01T00:00:00-05:00,2019-02-01T00:00:00-05:00,6902,14,421.5,"{""<5"":0,""5-20"":1,""21-60"":0,""61-240"":5,"">240"":8}",2685.0,41.045716,-73.54248199999999,812930.0,CT,9.0,9001.0,Fairfield County,90010222002.0
5263,sg:05d3336f7073417b983497d3a426194b,Hometown Wine & Spirits,CT,2019-01-01T00:00:00-05:00,2019-02-01T00:00:00-05:00,6470,63,8.0,"{""<5"":3,""5-20"":49,""21-60"":8,""61-240"":2,"">240"":1}",1485.0,41.413878000000004,-73.303022,445310.0,CT,9.0,9001.0,Fairfield County,90012302001.0
5323,sg:0aee6102afcb4396804cbe360af38703,Subway,CT,2019-01-01T00:00:00-05:00,2019-02-01T00:00:00-05:00,6488,146,8.0,"{""<5"":9,""5-20"":104,""21-60"":20,""61-240"":11,"">240"":2}",4268.0,41.478618,-73.214864,722513.0,CT,9.0,9009.0,New Haven County,90093481242.0
5385,sg:1008bb8cfed4436cba29bf680f1a40c6,Paws & Reflect,CT,2019-01-01T00:00:00-05:00,2019-02-01T00:00:00-05:00,6820,199,24.0,"{""<5"":10,""5-20"":78,""21-60"":44,""61-240"":36,"">240"":31}",15640.0,41.074359,-73.472672,453910.0,CT,9.0,9001.0,Fairfield County,90010304001.0
5401,sg:1147b53301dd4c81a0fb14773a905baa,U Haul Co,CT,2019-01-01T00:00:00-05:00,2019-02-01T00:00:00-05:00,6108,49,251.0,"{""<5"":0,""5-20"":9,""21-60"":4,""61-240"":11,"">240"":25}",7930.0,41.776537,-72.645073,532120.0,CT,9.0,9003.0,Hartford County,90035101001.0
5462,sg:1724656b29194df78f68cdca5c255b46,Half Full Brewery,CT,2019-01-01T00:00:00-05:00,2019-02-01T00:00:00-05:00,6902,227,60.0,"{""<5"":3,""5-20"":63,""21-60"":48,""61-240"":42,"">240"":71}",26100.0,41.039524,-73.549878,312120.0,CT,9.0,9001.0,Fairfield County,90010223001.0
5466,sg:174f2f4fae9449b79e4e86ae23465343,Burger King,CT,2019-01-01T00:00:00-05:00,2019-02-01T00:00:00-05:00,6614,334,10.0,"{""<5"":22,""5-20"":207,""21-60"":42,""61-240"":39,"">240"":24}",15973.0,41.195759,-73.140745,722513.0,CT,9.0,9001.0,Fairfield County,90010809002.0
5575,sg:20e84795f9824aeda201fe6bed0bbc67,Ovens of France,CT,2019-01-01T00:00:00-05:00,2019-02-01T00:00:00-05:00,6798,25,6.0,"{""<5"":1,""5-20"":20,""21-60"":0,""61-240"":4,"">240"":0}",854.5,41.528151,-73.204302,311811.0,CT,9.0,9005.0,Litchfield County,90053621012.0
5579,sg:216aac5e1c4245dfabe9ba58ae253d21,Stonington Hs Prek,CT,2019-01-01T00:00:00-05:00,2019-02-01T00:00:00-05:00,6379,1317,235.0,"{""<5"":9,""5-20"":93,""21-60"":136,""61-240"":430,"">240"":649}",227168.0,41.366565,-71.860599,611110.0,CT,9.0,9011.0,New London County,90117051012.0
5703,sg:2dcd91d419b34551805ea38eb2ac8a27,Church of Christ,CT,2019-01-01T00:00:00-05:00,2019-02-01T00:00:00-05:00,6250,8,224.0,"{""<5"":0,""5-20"":1,""21-60"":2,""61-240"":1,"">240"":4}",1204.0,41.75098,-72.191687,813110.0,CT,9.0,9013.0,Tolland County,90138811004.0
5726,sg:301d101716d447d5a05f0a48f51b2848,Danberg Susan C Dr,CT,2019-01-01T00:00:00-05:00,2019-02-01T00:00:00-05:00,6033,165,45.0,"{""<5"":0,""5-20"":28,""21-60"":76,""61-240"":36,"">240"":25}",14846.0,41.710015999999996,-72.605689,446130.0,CT,9.0,9003.0,Hartford County,90035203021.0
5762,sg:326a37ba653e49e585729e4e655c6334,Johnny Rockets,CT,2019-01-01T00:00:00-05:00,2019-02-01T00:00:00-05:00,6460,3,1019.0,"{""<5"":0,""5-20"":0,""21-60"":0,""61-240"":1,"">240"":2}",630.5,41.236255,-73.034586,722511.0,CT,9.0,9009.0,New Haven County,90091508001.0
5799,sg:375660a0271c41bca0b5d339a116701e,Land Rover Guilford,CT,2019-01-01T00:00:00-05:00,2019-02-01T00:00:00-05:00,6437,70,20.5,"{""<5"":2,""5-20"":33,""21-60"":12,""61-240"":13,"">240"":10}",5260.0,41.297539,-72.706211,441110.0,CT,9.0,9009.0,New Haven County,90091903021.0
5930,sg:4561bbeb725d4cbbb9cc5dd199a6583f,ReBar Bar And Pizza,CT,2019-01-01T00:00:00-05:00,2019-02-01T00:00:00-05:00,6516,1,30.0,"{""<5"":0,""5-20"":0,""21-60"":1,""61-240"":0,"">240"":0}",40.5,41.258926,-72.947641,722511.0,CT,9.0,9009.0,New Haven County,90091551004.0
6013,sg:4d22df05b27a4981b1f70296e6e7ab4c,Dustin Vivy L DDS,CT,2019-01-01T00:00:00-05:00,2019-02-01T00:00:00-05:00,6831,101,127.0,"{""<5"":1,""5-20"":14,""21-60"":16,""61-240"":36,"">240"":34}",14403.5,41.030156,-73.631647,621210.0,CT,9.0,9001.0,Fairfield County,90010103004.0
6030,sg:4e91445fe7a340ac93f81e42aaa108ba,The Tot's Spot,CT,2019-01-01T00:00:00-05:00,2019-02-01T00:00:00-05:00,6840,2,124.0,"{""<5"":0,""5-20"":1,""21-60"":0,""61-240"":1,"">240"":0}",163.0,41.135478000000006,-73.496678,624410.0,CT,9.0,9001.0,Fairfield County,90010351004.0
6165,sg:5d3a14f911034117901c032f60981caa,Vacuums Unlimited,CT,2019-01-01T00:00:00-05:00,2019-02-01T00:00:00-05:00,6110,52,28.5,"{""<5"":0,""5-20"":22,""21-60"":7,""61-240"":6,"">240"":17}",5541.5,41.733528,-72.72409300000001,444130.0,CT,9.0,9003.0,Hartford County,90034961003.0
6265,sg:6711e4b6cdac4fd9af437bffe342d790,House Of Arts Letters And Science Hals Academy,CT,2019-01-01T00:00:00-05:00,2019-02-01T00:00:00-05:00,6053,108,56.5,"{""<5"":4,""5-20"":13,""21-60"":38,""61-240"":28,"">240"":25}",11925.5,41.682794,-72.80131,611110.0,CT,9.0,9003.0,Hartford County,90034166001.0
6286,sg:693f3fd73cfd4c66967307dc8bc6f911,Forme Barre Fitness,CT,2019-01-01T00:00:00-05:00,2019-02-01T00:00:00-05:00,6830,201,46.0,"{""<5"":0,""5-20"":27,""21-60"":95,""61-240"":77,"">240"":2}",16253.5,41.027879,-73.630638,713940.0,CT,9.0,9001.0,Fairfield County,90010103004.0
6304,sg:6a8374f167734e6f9336e7fac03031cc,Iliad Estrada Guaranteed Rate,CT,2019-01-01T00:00:00-05:00,2019-02-01T00:00:00-05:00,6830,9,339.0,"{""<5"":0,""5-20"":3,""21-60"":0,""61-240"":0,"">240"":6}",1477.5,41.026988,-73.629172,522110.0,CT,9.0,9001.0,Fairfield County,90010105001.0
6526,sg:810454c763604fbe9fd7b64cf6079efb,Fair Haven Family Dentistry,CT,2019-01-01T00:00:00-05:00,2019-02-01T00:00:00-05:00,6513,70,12.0,"{""<5"":6,""5-20"":38,""21-60"":14,""61-240"":5,"">240"":7}",3489.5,41.30932,-72.89410500000001,621210.0,CT,9.0,9009.0,New Haven County,90091425004.0
6862,sg:a147a3ba760e433580467055c133997f,Cutting Edge,CT,2019-01-01T00:00:00-05:00,2019-02-01T00:00:00-05:00,6037,54,19.5,"{""<5"":3,""5-20"":28,""21-60"":18,""61-240"":5,"">240"":0}",1839.0,41.625506,-72.74828199999999,451110.0,CT,9.0,9003.0,Hartford County,90034001001.0
6873,sg:a2bd3d1e599a4feeb04719079bc52105,Adform Interiors,CT,2019-01-01T00:00:00-05:00,2019-02-01T00:00:00-05:00,6042,142,216.5,"{""<5"":1,""5-20"":20,""21-60"":21,""61-240"":32,"">240"":68}",22239.0,41.795598,-72.57857299999999,444120.0,CT,9.0,9003.0,Hartford County,90035141021.0
6933,sg:a9a896bb5ce148e58d7b62adae53ea87,Sisters of Charity,CT,2019-01-01T00:00:00-05:00,2019-02-01T00:00:00-05:00,6371,3,20.0,"{""<5"":1,""5-20"":1,""21-60"":1,""61-240"":0,"">240"":0}",55.5,41.294565999999996,-72.251734,813110.0,CT,9.0,9011.0,New London County,90116601024.0
6982,sg:ae39ea5e0ddf4f2db6266742a1acc8f0,Backus Outpatient Care Center,CT,2019-01-01T00:00:00-05:00,2019-02-01T00:00:00-05:00,6360,6,486.5,"{""<5"":0,""5-20"":1,""21-60"":0,""61-240"":0,"">240"":5}",1212.5,41.513695,-72.116976,621330.0,CT,9.0,9011.0,New London County,90116966001.0
7047,sg:b5eb8f82c46441c1888576041ce6f71c,Stop & Shop,CT,2019-01-01T00:00:00-05:00,2019-02-01T00:00:00-05:00,6515,1378,20.0,"{""<5"":27,""5-20"":684,""21-60"":507,""61-240"":101,"">240"":59}",58511.5,41.336247,-72.98205899999999,445110.0,CT,9.0,9009.0,New Haven County,90091412004.0
7106,sg:bb6d32ae2d574cfc92f17f9e797da944,Brookdale,CT,2019-01-01T00:00:00-05:00,2019-02-01T00:00:00-05:00,6074,80,178.5,"{""<5"":0,""5-20"":15,""21-60"":13,""61-240"":20,"">240"":32}",11404.0,41.825357000000004,-72.557299,623110.0,CT,9.0,9003.0,Hartford County,90034875002.0
7439,sg:dd499bb868fa4c5fb40c89aef7f4d96e,Apple Valley Chiropractic and Wellness Center,CT,2019-01-01T00:00:00-05:00,2019-02-01T00:00:00-05:00,6489,86,25.5,"{""<5"":4,""5-20"":35,""21-60"":22,""61-240"":10,"">240"":15}",6443.5,41.637986,-72.901136,621310.0,CT,9.0,9003.0,Hartford County,90034306012.0
7686,sg:f5e6ceb6520e4c5796143a64d7b61e23,Westbrook Department of Public Health,CT,2019-01-01T00:00:00-05:00,2019-02-01T00:00:00-05:00,6498,188,39.0,"{""<5"":2,""5-20"":64,""21-60"":45,""61-240"":58,"">240"":19}",15916.5,41.281528,-72.458845,712120.0,CT,9.0,9007.0,Middlesex County,90076801004.0
7769,sg:fdd4d3e3079741bb95ae339b198038b3,Trumbull Cafe & Grill,CT,2019-01-01T00:00:00-05:00,2019-02-01T00:00:00-05:00,6611,215,22.0,"{""<5"":5,""5-20"":91,""21-60"":91,""61-240"":28,"">240"":0}",9049.5,41.245195,-73.19645899999999,722511.0,CT,9.0,9001.0,Fairfield County,90010904001.0
7807,sg:012faa20b65e483dbe36d5e4d5ae8a40,Lord Thompson Manor,CT,2019-01-01T00:00:00-05:00,2019-02-01T00:00:00-05:00,6277,9,186.0,"{""<5"":0,""5-20"":1,""21-60"":2,""61-240"":3,"">240"":3}",1265.0,41.9691,-71.868427,611610.0,CT,9.0,9015.0,Windham County,90159001003.0
7860,sg:05e43c1d24fd440eb47d8c521013d2ff,Pemberwick Xchange Deli,CT,2019-01-01T00:00:00-05:00,2019-02-01T00:00:00-05:00,6831,197,65.0,"{""<5"":2,""5-20"":67,""21-60"":25,""61-240"":51,"">240"":52}",22010.5,41.019441,-73.654602,722511.0,CT,9.0,9001.0,Fairfield County,90010104005.0
7973,sg:1167ba30735e46b582b7dcc07db8f8be,Dunkin',CT,2019-01-01T00:00:00-05:00,2019-02-01T00:00:00-05:00,6226,48,112.0,"{""<5"":3,""5-20"":12,""21-60"":1,""61-240"":15,"">240"":17}",6535.5,41.720573,-72.202713,722515.0,,,,,
8008,sg:16223db41ee846798f656f15ce066cc3,Superior Sea Food,CT,2019-01-01T00:00:00-05:00,2019-02-01T00:00:00-05:00,6880,42,7.5,"{""<5"":4,""5-20"":32,""21-60"":1,""61-240"":0,"">240"":5}",1650.5,41.139113,-73.33036899999999,445220.0,CT,9.0,9001.0,Fairfield County,90010503004.0
8097,sg:1eabe5ce71ff494c83a151942b085510,Oak learners natural childcare,CT,2019-01-01T00:00:00-05:00,2019-02-01T00:00:00-05:00,6907,14,23.0,"{""<5"":0,""5-20"":7,""21-60"":5,""61-240"":1,"">240"":1}",680.5,41.087453000000004,-73.525118,624410.0,CT,9.0,9001.0,Fairfield County,90010210001.0
8484,sg:44ef8f1f72d14b95ace8e34c55b9cf25,Hartford HealthCare Medical Group,CT,2019-01-01T00:00:00-05:00,2019-02-01T00:00:00-05:00,6492,16,36.0,"{""<5"":0,""5-20"":6,""21-60"":3,""61-240"":5,"">240"":2}",1429.0,41.486090999999995,-72.806398,621111.0,CT,9.0,9009.0,New Haven County,90091754001.0
8559,sg:4d10b01727ae48ff91bf39f04c2345ec,Kangaroo's Korner Inc Day Care,CT,2019-01-01T00:00:00-05:00,2019-02-01T00:00:00-05:00,6795,11,8.0,"{""<5"":0,""5-20"":11,""21-60"":0,""61-240"":0,"">240"":0}",137.5,41.661398,-73.162059,624410.0,CT,9.0,9005.0,Litchfield County,90053602001.0
8737,sg:602eecce2a644250977c6f4c69b31f11,Norwich Oral & Maxillofacial Surgeons PC,CT,2019-01-01T00:00:00-05:00,2019-02-01T00:00:00-05:00,6360,66,51.5,"{""<5"":0,""5-20"":17,""21-60"":20,""61-240"":11,"">240"":18}",6998.0,41.53979,-72.09620799999999,621210.0,CT,9.0,9011.0,New London County,90116966001.0
8803,sg:6582e18e19aa4c6b82e30cf76f69bc0c,Mountain Laurel Sudbury School,CT,2019-01-01T00:00:00-05:00,2019-02-01T00:00:00-05:00,6052,34,57.5,"{""<5"":2,""5-20"":8,""21-60"":7,""61-240"":13,"">240"":4}",3305.0,41.667303000000004,-72.786105,611110.0,CT,9.0,9003.0,Hartford County,90034158001.0
8816,sg:665d2ab974d3433799757a4b169c8c1d,Bolton Dental Group,CT,2019-01-01T00:00:00-05:00,2019-02-01T00:00:00-05:00,6043,26,9.5,"{""<5"":2,""5-20"":14,""21-60"":1,""61-240"":5,"">240"":4}",1933.0,41.791087,-72.44246,621210.0,CT,9.0,9013.0,Tolland County,90135291003.0
8831,sg:678ef4e8307a435ebaeb4e5d52466bcb,4 Sisters Cleaning Services,CT,2019-01-01T00:00:00-05:00,2019-02-01T00:00:00-05:00,6831,13,16.0,"{""<5"":0,""5-20"":7,""21-60"":5,""61-240"":1,"">240"":0}",440.5,41.017434,-73.65916999999999,561740.0,CT,9.0,9001.0,Fairfield County,90010104003.0
8933,sg:7038083cab6641a4b016d6e22aa01003,Holiday Inn Express,CT,2019-01-01T00:00:00-05:00,2019-02-01T00:00:00-05:00,6111,246,127.5,"{""<5"":2,""5-20"":35,""21-60"":50,""61-240"":52,"">240"":107}",35973.5,41.680943,-72.712886,721110.0,CT,9.0,9003.0,Hartford County,90034941004.0
8940,sg:7085f75eba3940fdafbdd197f50cf70b,Tuscany Restaurant and Pizzeria,CT,2019-01-01T00:00:00-05:00,2019-02-01T00:00:00-05:00,6479,119,7.0,"{""<5"":11,""5-20"":76,""21-60"":20,""61-240"":11,"">240"":1}",3683.0,41.563673,-72.876272,722511.0,CT,9.0,9003.0,Hartford County,90034303021.0
9012,sg:784873fb8e4240b28051995620967eec,DNA Genetics Lab,CT,2019-01-01T00:00:00-05:00,2019-02-01T00:00:00-05:00,6517,134,58.5,"{""<5"":7,""5-20"":41,""21-60"":20,""61-240"":34,"">240"":32}",14137.0,41.332145000000004,-72.900876,621493.0,CT,9.0,9009.0,New Haven County,90091651002.0
9070,sg:7df59eeaa9ea483ab60d40af15d64c8a,Kalyan K Chakravarti DDS,CT,2019-01-01T00:00:00-05:00,2019-02-01T00:00:00-05:00,6033,62,46.0,"{""<5"":1,""5-20"":14,""21-60"":21,""61-240"":24,"">240"":2}",5120.0,41.684135999999995,-72.599838,621210.0,CT,9.0,9003.0,Hartford County,90035204002.0
9083,sg:7f088af54b9a4735b839962469f30433,Golden Dragon Buffet & Grill,CT,2019-01-01T00:00:00-05:00,2019-02-01T00:00:00-05:00,6512,33,22.0,"{""<5"":1,""5-20"":13,""21-60"":17,""61-240"":2,"">240"":0}",1154.5,41.286241,-72.876473,722511.0,CT,9.0,9009.0,New Haven County,90091804001.0
9106,sg:81aa7d16767c45d2a15df24bc8a1577d,New Britain Drug Rehab,CT,2019-01-01T00:00:00-05:00,2019-02-01T00:00:00-05:00,6051,19,28.0,"{""<5"":1,""5-20"":6,""21-60"":7,""61-240"":5,"">240"":0}",1113.5,41.667017,-72.784616,621330.0,CT,9.0,9003.0,Hartford County,90034171001.0
9430,sg:a38463da571d4b2b92ccad028ce577c7,Hidden Kitchen Route 80,CT,2019-01-01T00:00:00-05:00,2019-02-01T00:00:00-05:00,6471,1,5.0,"{""<5"":0,""5-20"":1,""21-60"":0,""61-240"":0,"">240"":0}",12.5,41.340364,-72.749837,722511.0,CT,9.0,9009.0,New Haven County,90091861003.0
9437,sg:a42559a86c634f2396b4937b19dd1657,Stonington Boe Pre School,CT,2019-01-01T00:00:00-05:00,2019-02-01T00:00:00-05:00,6372,55,108.0,"{""<5"":1,""5-20"":11,""21-60"":5,""61-240"":20,"">240"":18}",7672.5,41.394857,-71.958311,611110.0,CT,9.0,9011.0,New London County,90117054002.0
9494,sg:ab1dc5765953484588d2f30606dbfc7a,Paul Weinstein,CT,2019-01-01T00:00:00-05:00,2019-02-01T00:00:00-05:00,6906,67,75.0,"{""<5"":0,""5-20"":17,""21-60"":11,""61-240"":19,"">240"":20}",8317.5,41.069194,-73.520903,621310.0,CT,9.0,9001.0,Fairfield County,90010211002.0
9730,sg:c3b7fd916e20403a9a5332a98fe3badc,Honey Farms Wine & Liquor,CT,2019-01-01T00:00:00-05:00,2019-02-01T00:00:00-05:00,6518,338,42.0,"{""<5"":2,""5-20"":78,""21-60"":140,""61-240"":88,"">240"":30}",27094.0,41.384823,-72.901601,445310.0,CT,9.0,9009.0,New Haven County,90091660014.0
9817,sg:cb97ba6f44a646ecbd72e1ab45235a5b,Dollar General,CT,2019-01-01T00:00:00-05:00,2019-02-01T00:00:00-05:00,6460,192,12.5,"{""<5"":4,""5-20"":123,""21-60"":44,""61-240"":16,"">240"":5}",6937.5,41.209641,-73.01900699999999,452319.0,CT,9.0,9009.0,New Haven County,90091510002.0
9897,sg:d42c7d02fc364313a634e4451f8c4202,St James Lutheran Preschool,CT,2019-01-01T00:00:00-05:00,2019-02-01T00:00:00-05:00,6488,63,10.0,"{""<5"":3,""5-20"":34,""21-60"":8,""61-240"":16,"">240"":2}",3644.5,41.468462,-73.22184,624410.0,,,,,
9962,sg:dbaaf1353a0c4901a82485d9fa303d97,Henny Penny Convenience Store,CT,2019-01-01T00:00:00-05:00,2019-02-01T00:00:00-05:00,6351,85,6.0,"{""<5"":5,""5-20"":70,""21-60"":6,""61-240"":4,"">240"":0}",1732.5,41.590218,-71.990107,447110.0,CT,9.0,9011.0,New London County,90117101001.0
10197,sg:f2cdb6ffe488473a81af7915bb3ffaa2,Black Hall Outfitters,CT,2019-01-01T00:00:00-05:00,2019-02-01T00:00:00-05:00,6371,20,504.5,"{""<5"":0,""5-20"":1,""21-60"":2,""61-240"":6,"">240"":11}",3636.5,41.290607,-72.312578,451110.0,CT,9.0,9011.0,New London County,90116601013.0
10214,sg:f53bb491d1c24ef897aec12c68eed022,AeroTech Fasteners,CT,2019-01-01T00:00:00-05:00,2019-02-01T00:00:00-05:00,6260,35,274.0,"{""<5"":0,""5-20"":5,""21-60"":4,""61-240"":7,"">240"":19}",5838.0,41.892804999999996,-71.88903,444130.0,CT,9.0,9015.0,Windham County,90159032001.0
10286,sg:fca59c4f766c4ca999049ae0ecc7babc,Church of Christ Trumbull,CT,2019-01-01T00:00:00-05:00,2019-02-01T00:00:00-05:00,6611,14,97.0,"{""<5"":1,""5-20"":5,""21-60"":0,""61-240"":3,"">240"":5}",1716.5,41.251508,-73.19436,813110.0,CT,9.0,9001.0,Fairfield County,90010906001.0
10355,sg:032c3e8e91834d039a06ba8fb01e5cd7,Bank of America,CT,2019-01-01T00:00:00-05:00,2019-02-01T00:00:00-05:00,6905,3,496.0,"{""<5"":0,""5-20"":0,""21-60"":0,""61-240"":0,"">240"":3}",720.0,41.072238,-73.549467,522110.0,CT,9.0,9001.0,Fairfield County,90010206003.0
10384,sg:0722798b423d45cc85dc374146dc1e9c,Powerhouse Motorsports,CT,2019-01-01T00:00:00-05:00,2019-02-01T00:00:00-05:00,6450,87,31.0,"{""<5"":2,""5-20"":26,""21-60"":25,""61-240"":21,"">240"":13}",7623.0,41.519785999999996,-72.80204599999999,441228.0,CT,9.0,9009.0,New Haven County,90091711003.0
10498,sg:1176152b65bb4b1a890d9b4ce1e0aaf2,Sunoco,CT,2019-01-01T00:00:00-05:00,2019-02-01T00:00:00-05:00,6040,15,5.0,"{""<5"":1,""5-20"":12,""21-60"":0,""61-240"":1,"">240"":1}",543.0,41.784682000000004,-72.500552,447110.0,CT,9.0,9003.0,Hartford County,90035149001.0
10782,sg:2c2583e1c6624e87b01b8b73935025eb,The Hit Club,CT,2019-01-01T00:00:00-05:00,2019-02-01T00:00:00-05:00,6787,198,62.5,"{""<5"":2,""5-20"":46,""21-60"":46,""61-240"":61,"">240"":43}",21943.5,41.669647,-73.076872,722511.0,CT,9.0,9005.0,Litchfield County,90053492002.0
10850,sg:32aa8ea27b714bcfa3cb7a0ed936800a,Grace Nursery School,CT,2019-01-01T00:00:00-05:00,2019-02-01T00:00:00-05:00,6489,84,22.5,"{""<5"":5,""5-20"":31,""21-60"":17,""61-240"":12,"">240"":19}",7454.5,41.600809999999996,-72.856756,624410.0,CT,9.0,9003.0,Hartford County,90034302033.0
10918,sg:38ba74e09a9d4529811b99eb52c8eaff,D H Marvin & Son,CT,2019-01-01T00:00:00-05:00,2019-02-01T00:00:00-05:00,6415,122,10.0,"{""<5"":5,""5-20"":82,""21-60"":18,""61-240"":10,"">240"":7}",4951.5,41.568165,-72.325974,444130.0,CT,9.0,9011.0,New London County,90117141013.0
10958,sg:3bd1ae18802c47069bd0811d6a01fd6b,Papa's Pizza & Pasta,CT,2019-01-01T00:00:00-05:00,2019-02-01T00:00:00-05:00,6460,30,46.0,"{""<5"":0,""5-20"":10,""21-60"":6,""61-240"":12,"">240"":2}",2654.0,41.195819,-73.092112,722511.0,CT,9.0,9009.0,New Haven County,90091505002.0
11098,sg:498d33f544894370a45999d13cd57ba8,The Vital Stretch,CT,2019-01-01T00:00:00-05:00,2019-02-01T00:00:00-05:00,6851,3,498.0,"{""<5"":0,""5-20"":0,""21-60"":1,""61-240"":0,"">240"":2}",520.5,41.123497,-73.414955,621340.0,CT,9.0,9001.0,Fairfield County,90010434001.0
11111,sg:4ac13aaecec147f883337a16acd39c50,China King,CT,2019-01-01T00:00:00-05:00,2019-02-01T00:00:00-05:00,6510,18,33.0,"{""<5"":1,""5-20"":6,""21-60"":4,""61-240"":2,"">240"":5}",1740.5,41.306603,-72.927594,722511.0,CT,9.0,9009.0,New Haven County,90091401001.0
11137,sg:4c327276d3bd48c3a8320e9359ea22d7,Portuguese Holy Ghost Society,CT,2019-01-01T00:00:00-05:00,2019-02-01T00:00:00-05:00,6378,1,919.0,"{""<5"":0,""5-20"":0,""21-60"":0,""61-240"":0,"">240"":1}",240.0,41.332704,-71.906098,722511.0,CT,9.0,9011.0,New London County,90117052002.0
11161,sg:4ddea12480d343b7ac4fb4a31897d169,Uncle Aaron's Tackle Shack,CT,2019-01-01T00:00:00-05:00,2019-02-01T00:00:00-05:00,6065,60,29.0,"{""<5"":0,""5-20"":22,""21-60"":17,""61-240"":5,"">240"":16}",5556.0,41.962943,-73.019635,451110.0,CT,9.0,9005.0,Litchfield County,90052901003.0
11225,sg:540893699071406f88ab2de3c080fcae,Crt Children's Learning Center,CT,2019-01-01T00:00:00-05:00,2019-02-01T00:00:00-05:00,6105,8,14.5,"{""<5"":0,""5-20"":5,""21-60"":1,""61-240"":2,"">240"":0}",404.0,41.764943,-72.697539,624410.0,CT,9.0,9003.0,Hartford County,90035031003.0
11391,sg:62f4f9813dba4074a3fce98cfd628fab,Luckys Mini Mart,CT,2019-01-01T00:00:00-05:00,2019-02-01T00:00:00-05:00,6010,687,46.0,"{""<5"":19,""5-20"":227,""21-60"":147,""61-240"":157,"">240"":137}",65347.0,41.675805,-72.948944,447110.0,CT,9.0,9003.0,Hartford County,90034061001.0
11535,sg:723cb0386e5541d3ad499caeb03992e8,American Eagle Financial Credit Union,CT,2019-01-01T00:00:00-05:00,2019-02-01T00:00:00-05:00,6457,904,183.5,"{""<5"":4,""5-20"":140,""21-60"":144,""61-240"":221,"">240"":395}",135652.5,41.538543,-72.561183,522110.0,CT,9.0,9007.0,Middlesex County,90076802002.0
11628,sg:7a6153804cad48a6b640b376c15c7189,WesWings,CT,2019-01-01T00:00:00-05:00,2019-02-01T00:00:00-05:00,6457,206,41.5,"{""<5"":3,""5-20"":47,""21-60"":67,""61-240"":56,"">240"":33}",19656.5,41.553703999999996,-72.653527,722511.0,CT,9.0,9007.0,Middlesex County,90075417002.0
11683,sg:8022c12380314680876c0bb15f5fb7c7,Ice Box Plus,CT,2019-01-01T00:00:00-05:00,2019-02-01T00:00:00-05:00,6234,90,19.5,"{""<5"":2,""5-20"":46,""21-60"":28,""61-240"":10,"">240"":4}",4179.0,41.798417,-71.902951,445292.0,CT,9.0,9015.0,Windham County,90159051005.0
11839,sg:8e602d5a950c4e94819bffe12999ef78,People's Bank,CT,2019-01-01T00:00:00-05:00,2019-02-01T00:00:00-05:00,6112,8,9.0,"{""<5"":1,""5-20"":4,""21-60"":3,""61-240"":0,"">240"":0}",174.0,41.785215,-72.70616700000001,522110.0,CT,9.0,9003.0,Hartford County,90035038001.0
11980,sg:9db1b8fd00484182b076b3d76f64cbce,Border Grill,CT,2019-01-01T00:00:00-05:00,2019-02-01T00:00:00-05:00,6880,53,10.0,"{""<5"":3,""5-20"":33,""21-60"":12,""61-240"":2,"">240"":3}",1927.0,41.13835,-73.31035,722511.0,CT,9.0,9001.0,Fairfield County,90010506003.0
12022,sg:a1e43bd8804f41718652e52c74a99b18,Village Bistro at Beach House,CT,2019-01-01T00:00:00-05:00,2019-02-01T00:00:00-05:00,6460,144,102.5,"{""<5"":0,""5-20"":23,""21-60"":29,""61-240"":66,"">240"":26}",17635.0,41.224194,-73.000445,445310.0,CT,9.0,9009.0,New Haven County,90091511002.0
12048,sg:a4d887f98e314075bf0fe2e6664e9f11,Mother Land Market,CT,2019-01-01T00:00:00-05:00,2019-02-01T00:00:00-05:00,6514,65,23.0,"{""<5"":2,""5-20"":27,""21-60"":16,""61-240"":7,"">240"":13}",5164.0,41.337740000000004,-72.934925,445110.0,CT,9.0,9009.0,New Haven County,90091655001.0
12055,sg:a575d0423def4bb9891ccc738a8a932e,Beacon Prescription,CT,2019-01-01T00:00:00-05:00,2019-02-01T00:00:00-05:00,6098,88,16.0,"{""<5"":3,""5-20"":49,""21-60"":16,""61-240"":15,"">240"":5}",4725.5,41.921524,-73.067672,446110.0,CT,9.0,9005.0,Litchfield County,90053201004.0
12146,sg:af1a9baf499146b68eb905d576d73ef5,Jessica Dorner Nutrition,CT,2019-01-01T00:00:00-05:00,2019-02-01T00:00:00-05:00,6070,5,80.0,"{""<5"":0,""5-20"":2,""21-60"":0,""61-240"":2,"">240"":1}",566.0,41.8792,-72.799336,445110.0,CT,9.0,9003.0,Hartford County,90034663002.0
12254,sg:b9e69f22ecbe408c90131c44cf433c83,Taylor Glenn PC,CT,2019-01-01T00:00:00-05:00,2019-02-01T00:00:00-05:00,6708,12,33.0,"{""<5"":0,""5-20"":3,""21-60"":7,""61-240"":2,"">240"":0}",622.0,41.547773,-73.065024,621111.0,CT,9.0,9009.0,New Haven County,90093516021.0
12333,sg:c2040d287ea84147892a41c762685d6a,Air National Guard 103rd Airlift Wing,CT,2019-01-01T00:00:00-05:00,2019-02-01T00:00:00-05:00,6026,1,59.0,"{""<5"":0,""5-20"":0,""21-60"":1,""61-240"":0,"">240"":0}",40.5,41.931405,-72.703765,921190.0,CT,9.0,9003.0,Hartford County,90039800001.0
12366,sg:c61f3cbbf8b34580bf083b40df759567,Littlest Angel Care,CT,2019-01-01T00:00:00-05:00,2019-02-01T00:00:00-05:00,6825,120,129.5,"{""<5"":1,""5-20"":24,""21-60"":19,""61-240"":29,"">240"":47}",16716.5,41.169729,-73.23510999999999,621610.0,CT,9.0,9001.0,Fairfield County,90010614002.0
12417,sg:ca8abac26b27436683ad0858ec6302ae,Principal Financial Group,CT,2019-01-01T00:00:00-05:00,2019-02-01T00:00:00-05:00,6078,7,268.0,"{""<5"":0,""5-20"":1,""21-60"":0,""61-240"":2,"">240"":4}",1273.5,41.982941,-72.65601600000001,524210.0,CT,9.0,9003.0,Hartford County,90034771011.0
12629,sg:e19c1c1addff4269b1f6e6a8cf4fcea8,Wesley School,CT,2019-01-01T00:00:00-05:00,2019-02-01T00:00:00-05:00,6457,76,23.0,"{""<5"":1,""5-20"":32,""21-60"":9,""61-240"":7,"">240"":27}",8300.5,41.525644,-72.668222,611110.0,CT,9.0,9007.0,Middlesex County,90075422001.0
12637,sg:e25cd5abe21a49828a451b852c15955c,A & C Home Inspections,CT,2019-01-01T00:00:00-05:00,2019-02-01T00:00:00-05:00,6401,133,157.0,"{""<5"":2,""5-20"":29,""21-60"":15,""61-240"":32,"">240"":55}",18991.0,41.339969,-73.086185,621610.0,CT,9.0,9009.0,New Haven County,90091253002.0
12760,sg:ee995a1cea3243d3b09c52cf1a4e5a18,Massage By Colleen,CT,2019-01-01T00:00:00-05:00,2019-02-01T00:00:00-05:00,6457,2,432.0,"{""<5"":0,""5-20"":0,""21-60"":0,""61-240"":0,"">240"":2}",480.0,41.560456,-72.648949,812199.0,CT,9.0,9007.0,Middlesex County,90075416001.0
12777,sg:f110617b2c964379b616093ec68a1613,Pet Valu,CT,2019-01-01T00:00:00-05:00,2019-02-01T00:00:00-05:00,6084,1542,20.0,"{""<5"":21,""5-20"":755,""21-60"":626,""61-240"":114,"">240"":26}",58240.0,41.859071,-72.357888,453910.0,CT,9.0,9013.0,Tolland County,90135331022.0
12814,sg:f4d083263ca5472681b5c7c5e131d635,Klub Kid Inc,CT,2019-01-01T00:00:00-05:00,2019-02-01T00:00:00-05:00,6033,7,511.0,"{""<5"":0,""5-20"":1,""21-60"":2,""61-240"":0,"">240"":4}",1053.5,41.717589000000004,-72.623222,624410.0,CT,9.0,9003.0,Hartford County,90035203022.0
12877,sg:fa478777b5b1460a82583a50973a9e9a,Salon A,CT,2019-01-01T00:00:00-05:00,2019-02-01T00:00:00-05:00,6413,39,303.0,"{""<5"":1,""5-20"":0,""21-60"":4,""61-240"":12,"">240"":22}",7250.5,41.296268,-72.532852,812112.0,CT,9.0,9007.0,Middlesex County,90076104001.0
12910,sg:fdf4060771f44c2ca212927993131185,Bella Blue Photography,CT,2019-01-01T00:00:00-05:00,2019-02-01T00:00:00-05:00,6416,4,14.5,"{""<5"":0,""5-20"":3,""21-60"":0,""61-240"":1,"">240"":0}",188.0,41.606577,-72.666137,541921.0,CT,9.0,9007.0,Middlesex County,90075703003.0
12934,sg:00164758ee4a4d2faf48c53e2f361bd6,Center School,CT,2019-01-01T00:00:00-05:00,2019-02-01T00:00:00-05:00,6424,27,92.0,"{""<5"":0,""5-20"":12,""21-60"":0,""61-240"":8,"">240"":7}",3034.0,41.576883,-72.501689,611110.0,CT,9.0,9007.0,Middlesex County,90075502022.0
12986,sg:0561192cebdf4cf1a83eca889a597b2f,Hartford HealthCare Medical Group,CT,2019-01-01T00:00:00-05:00,2019-02-01T00:00:00-05:00,6010,46,29.5,"{""<5"":0,""5-20"":20,""21-60"":9,""61-240"":5,"">240"":12}",4247.0,41.666725,-72.920855,621111.0,CT,9.0,9003.0,Hartford County,90034054021.0
12987,sg:057628b3148042689ca67d5a14a22cbb,KeyBank,CT,2019-01-01T00:00:00-05:00,2019-02-01T00:00:00-05:00,6880,2,283.0,"{""<5"":0,""5-20"":0,""21-60"":0,""61-240"":1,"">240"":1}",390.5,41.139414,-73.32845999999999,522110.0,CT,9.0,9001.0,Fairfield County,90010503004.0
13084,sg:0fcda88d3d884ee5a5cb7f0d2ef2663d,Mr Sparkle Car Wash,CT,2019-01-01T00:00:00-05:00,2019-02-01T00:00:00-05:00,6119,1,167.0,"{""<5"":0,""5-20"":0,""21-60"":0,""61-240"":1,"">240"":0}",150.5,41.757737,-72.723359,811192.0,CT,9.0,9003.0,Hartford County,90034967003.0
13261,sg:20eedc5ab09a4d7a9bd818250141d40c,Thrifty Car Rental International,CT,2019-01-01T00:00:00-05:00,2019-02-01T00:00:00-05:00,6096,26,10.0,"{""<5"":0,""5-20"":23,""21-60"":2,""61-240"":1,"">240"":0}",519.0,41.932788,-72.667795,532111.0,CT,9.0,9003.0,Hartford County,90034762002.0
13275,sg:22737614d4854076a21963cabfb792dd,St Paul's Evangelical Lutheran Church Elca,CT,2019-01-01T00:00:00-05:00,2019-02-01T00:00:00-05:00,6109,274,68.5,"{""<5"":5,""5-20"":65,""21-60"":57,""61-240"":68,"">240"":79}",32327.5,41.709742,-72.669443,813110.0,CT,9.0,9003.0,Hartford County,90034922004.0
13357,sg:28574c025d0d408f907f065e668bc78a,Sweet Lisa's Exquisite Cakes,CT,2019-01-01T00:00:00-05:00,2019-02-01T00:00:00-05:00,6807,23,46.0,"{""<5"":1,""5-20"":5,""21-60"":6,""61-240"":4,"">240"":7}",2590.0,41.037043,-73.602745,311811.0,CT,9.0,9001.0,Fairfield County,90010108003.0
13424,sg:2ec46236964442ef9a8dd98c6059af77,Charlie's Pizzeria,CT,2019-01-01T00:00:00-05:00,2019-02-01T00:00:00-05:00,6108,301,27.0,"{""<5"":11,""5-20"":113,""21-60"":90,""61-240"":59,"">240"":28}",20684.5,41.770737,-72.649711,722511.0,CT,9.0,9003.0,Hartford County,90035102002.0
13908,sg:5f279494cbdb4688b59d8363ee98bb00,Empire Esthetics,CT,2019-01-01T00:00:00-05:00,2019-02-01T00:00:00-05:00,6511,2,105.0,"{""<5"":0,""5-20"":1,""21-60"":0,""61-240"":1,"">240"":0}",163.0,41.310959000000004,-72.919832,812199.0,CT,9.0,9009.0,New Haven County,90091420002.0
14042,sg:6d3a93fd08994a9d9ded2f6ef08666ee,Bangkok,CT,2019-01-01T00:00:00-05:00,2019-02-01T00:00:00-05:00,6810,157,20.0,"{""<5"":4,""5-20"":77,""21-60"":53,""61-240"":11,"">240"":12}",7654.5,41.40715,-73.418914,722511.0,CT,9.0,9001.0,Fairfield County,90012104003.0
14142,sg:7736026512124dfe9aef8b3458b13d8e,Fit Behavior,CT,2019-01-01T00:00:00-05:00,2019-02-01T00:00:00-05:00,6001,89,29.0,"{""<5"":3,""5-20"":30,""21-60"":29,""61-240"":24,"">240"":3}",5889.0,41.807279,-72.826719,713940.0,CT,9.0,9003.0,Hartford County,90034622013.0
14211,sg:7d46f547464e47cd8ea6c33104557b69,West,CT,2019-01-01T00:00:00-05:00,2019-02-01T00:00:00-05:00,6880,26,11.5,"{""<5"":0,""5-20"":17,""21-60"":5,""61-240"":4,"">240"":0}",1017.0,41.141215,-73.35978,448120.0,CT,9.0,9001.0,Fairfield County,90010505004.0
14236,sg:7f3f8ce0282a414ba922683a8da13c95,Papa John's,CT,2019-01-01T00:00:00-05:00,2019-02-01T00:00:00-05:00,6810,23,1169.0,"{""<5"":0,""5-20"":1,""21-60"":0,""61-240"":0,"">240"":22}",5292.5,41.397831,-73.452557,722513.0,CT,9.0,9001.0,Fairfield County,90012101001.0
14265,sg:81eaf4fa6da54f1f9261af0b2a883ed7,Subway,CT,2019-01-01T00:00:00-05:00,2019-02-01T00:00:00-05:00,6810,27,21.0,"{""<5"":0,""5-20"":13,""21-60"":12,""61-240"":1,"">240"":1}",1039.0,41.411091,-73.436577,722513.0,CT,9.0,9001.0,Fairfield County,90012103001.0
14466,sg:96181e3cb42a479e8aab28eae8b177d1,Gulf Oil,CT,2019-01-01T00:00:00-05:00,2019-02-01T00:00:00-05:00,6903,278,6.0,"{""<5"":26,""5-20"":172,""21-60"":23,""61-240"":30,"">240"":27}",14141.5,41.11518,-73.545025,447110.0,CT,9.0,9001.0,Fairfield County,90010204001.0
14510,sg:9a6423e98e1647e2ade144805165abc7,Anytime Fitness,CT,2019-01-01T00:00:00-05:00,2019-02-01T00:00:00-05:00,6704,351,42.0,"{""<5"":3,""5-20"":68,""21-60"":146,""61-240"":104,"">240"":30}",29622.5,41.582085,-73.030525,713940.0,CT,9.0,9009.0,New Haven County,90093525002.0
14580,sg:a1775288c7254c43991c2be4f3f2c734,Panera Bread,CT,2019-01-01T00:00:00-05:00,2019-02-01T00:00:00-05:00,6776,361,10.0,"{""<5"":16,""5-20"":231,""21-60"":82,""61-240"":27,"">240"":5}",11512.0,41.551919,-73.416288,722515.0,CT,9.0,9005.0,Litchfield County,90052536001.0
14586,sg:a26d7087c472402eb10a6083a3748526,A Stork's Studio,CT,2019-01-01T00:00:00-05:00,2019-02-01T00:00:00-05:00,6477,112,31.5,"{""<5"":0,""5-20"":42,""21-60"":20,""61-240"":18,"">240"":32}",11724.0,41.264008000000004,-73.006015,621511.0,CT,9.0,9009.0,New Haven County,90091571001.0
14807,sg:ba7fd1dd033c43138c55419040ef81c7,Kim's Flower Shop,CT,2019-01-01T00:00:00-05:00,2019-02-01T00:00:00-05:00,6109,14,18.0,"{""<5"":1,""5-20"":7,""21-60"":1,""61-240"":5,"">240"":0}",883.0,41.704525,-72.660514,453110.0,CT,9.0,9003.0,Hartford County,90034922002.0
14869,sg:c1145e86431d4aa49a58910ae8c5c2be,Wendy's,CT,2019-01-01T00:00:00-05:00,2019-02-01T00:00:00-05:00,6460,106,329.0,"{""<5"":4,""5-20"":25,""21-60"":13,""61-240"":10,"">240"":54}",15314.0,41.236844,-73.022082,722513.0,CT,9.0,9009.0,New Haven County,90091511004.0
14901,sg:c47c7edba7d14b6d866ffdbf66b4a1c1,Eddie's Sombrero,CT,2019-01-01T00:00:00-05:00,2019-02-01T00:00:00-05:00,6489,36,1203.0,"{""<5"":0,""5-20"":0,""21-60"":1,""61-240"":0,"">240"":35}",8440.5,41.620697,-72.872333,722511.0,CT,9.0,9003.0,Hartford County,90034302012.0
14936,sg:c8b4409903ba411c91ad2e0d5fd95cb1,Hello Dahle,CT,2019-01-01T00:00:00-05:00,2019-02-01T00:00:00-05:00,6110,23,23.0,"{""<5"":1,""5-20"":10,""21-60"":4,""61-240"":3,"">240"":5}",1941.0,41.741015000000004,-72.718941,452319.0,CT,9.0,9003.0,Hartford County,90034961003.0
15016,sg:d224811eedb140fdb669443dc3081a13,Snip Doggy Dog,CT,2019-01-01T00:00:00-05:00,2019-02-01T00:00:00-05:00,6870,316,10.0,"{""<5"":25,""5-20"":194,""21-60"":71,""61-240"":23,"">240"":3}",9544.5,41.031138,-73.567818,453910.0,CT,9.0,9001.0,Fairfield County,90010110003.0
15108,sg:db919c874c8c446daf28ff8417d25f68,Home Help Network,CT,2019-01-01T00:00:00-05:00,2019-02-01T00:00:00-05:00,6516,55,535.0,"{""<5"":1,""5-20"":7,""21-60"":3,""61-240"":6,"">240"":38}",10234.5,41.300532000000004,-72.967415,561740.0,CT,9.0,9009.0,New Haven County,90091541002.0
15192,sg:e52eea8771294c6d9861e42f43a78e29,Pacific Sales,CT,2019-01-01T00:00:00-05:00,2019-02-01T00:00:00-05:00,6854,196,20.0,"{""<5"":1,""5-20"":108,""21-60"":60,""61-240"":21,"">240"":6}",8383.0,41.103357,-73.438482,443141.0,CT,9.0,9001.0,Fairfield County,90010431001.0
15197,sg:e56e91787bc74055a766910ac1520357,Taco Tequila,CT,2019-01-01T00:00:00-05:00,2019-02-01T00:00:00-05:00,6851,54,44.5,"{""<5"":1,""5-20"":17,""21-60"":13,""61-240"":12,"">240"":11}",5187.5,41.126137,-73.419815,722511.0,CT,9.0,9001.0,Fairfield County,90010434003.0
15213,sg:e6dcd0968d054b8eace3c99d31d6b614,Rush Bowls,CT,2019-01-01T00:00:00-05:00,2019-02-01T00:00:00-05:00,6103,197,84.0,"{""<5"":5,""5-20"":58,""21-60"":24,""61-240"":46,"">240"":64}",23992.5,41.763135999999996,-72.672302,722515.0,CT,9.0,9003.0,Hartford County,90035021002.0
15312,sg:ef6400d050ec41a2922f9b863ffda612,Hasna's Afghan Fusion Cuisine,CT,2019-01-01T00:00:00-05:00,2019-02-01T00:00:00-05:00,6705,169,49.0,"{""<5"":6,""5-20"":40,""21-60"":48,""61-240"":36,"">240"":39}",17237.0,41.559915999999994,-73.012925,722513.0,CT,9.0,9009.0,New Haven County,90093512001.0
15339,sg:f1f7037860644f3a81dbb3e1648cc77e,Colebrook Village,CT,2019-01-01T00:00:00-05:00,2019-02-01T00:00:00-05:00,6248,102,69.5,"{""<5"":0,""5-20"":34,""21-60"":16,""61-240"":26,"">240"":26}",11226.0,41.65701,-72.353757,623312.0,CT,9.0,9013.0,Tolland County,90135261012.0
15356,sg:f3ac5901a8374e2eb15c867f52e917e4,Yankee Linen Supply Company,CT,2019-01-01T00:00:00-05:00,2019-02-01T00:00:00-05:00,6851,145,78.0,"{""<5"":0,""5-20"":38,""21-60"":24,""61-240"":59,"">240"":24}",16086.5,41.133062,-73.426682,453310.0,CT,9.0,9001.0,Fairfield County,90010434003.0
15398,sg:f8f8e99d499d41499fbb9fef40219dff,Schenck'S Island Park,CT,2019-01-01T00:00:00-05:00,2019-02-01T00:00:00-05:00,6897,53,19.0,"{""<5"":1,""5-20"":28,""21-60"":9,""61-240"":12,"">240"":3}",3243.0,41.188958,-73.428956,712190.0,CT,9.0,9001.0,Fairfield County,90010452002.0
15488,sg:0163529257744d25a82b0fd194b4fb3b,Dairy Queen,CT,2019-01-01T00:00:00-05:00,2019-02-01T00:00:00-05:00,6410,68,32.0,"{""<5"":2,""5-20"":25,""21-60"":16,""61-240"":21,"">240"":4}",5086.0,41.475644,-72.905857,722513.0,CT,9.0,9009.0,New Haven County,90093433002.0
15530,sg:05292bf4f20345f88a15b78896be4385,Wild Birds Unlimited,CT,2019-01-01T00:00:00-05:00,2019-02-01T00:00:00-05:00,6357,1,10.0,"{""<5"":0,""5-20"":1,""21-60"":0,""61-240"":0,"">240"":0}",12.5,41.351649,-72.210882,453910.0,CT,9.0,9011.0,New London County,90118707011.0
15587,sg:0aa2f880c8cb45369e90044d1ac0d926,Jug Shop,CT,2019-01-01T00:00:00-05:00,2019-02-01T00:00:00-05:00,6082,35,7.0,"{""<5"":5,""5-20"":18,""21-60"":5,""61-240"":5,"">240"":2}",1672.5,41.98914,-72.57059,445310.0,CT,9.0,9003.0,Hartford County,90034808004.0
15614,sg:0d2a890f68c04326a20af08ed09aa8bb,City Sports Grille,CT,2019-01-01T00:00:00-05:00,2019-02-01T00:00:00-05:00,6340,73,21.0,"{""<5"":2,""5-20"":33,""21-60"":23,""61-240"":14,"">240"":1}",3696.0,41.362865,-72.06839699999999,713950.0,CT,9.0,9011.0,New London County,90117027002.0
15956,sg:2cc37b916f9e4237b8866f6e912c9b9a,Lox Stock & Bagels,CT,2019-01-01T00:00:00-05:00,2019-02-01T00:00:00-05:00,6117,1,516.0,"{""<5"":0,""5-20"":0,""21-60"":0,""61-240"":0,"">240"":1}",240.0,41.784282,-72.74545400000001,624410.0,CT,9.0,9003.0,Hartford County,90034974001.0
15959,sg:2cf3e70336fd46de8943ba3025b1bd05,Krystal international Beauty Salon,CT,2019-01-01T00:00:00-05:00,2019-02-01T00:00:00-05:00,6902,12,75.0,"{""<5"":0,""5-20"":4,""21-60"":1,""61-240"":4,"">240"":3}",1412.5,41.055658,-73.548834,812112.0,CT,9.0,9001.0,Fairfield County,90010215001.0
16246,sg:4b7ac85cbb264fc996d28c9c28f3e7ef,Eli Whitney Museum,CT,2019-01-01T00:00:00-05:00,2019-02-01T00:00:00-05:00,6517,91,43.0,"{""<5"":5,""5-20"":29,""21-60"":16,""61-240"":30,"">240"":11}",8178.0,41.335732,-72.910635,712110.0,CT,9.0,9009.0,New Haven County,90091652003.0
16307,sg:513ed687991940098a7a317b9907912c,King Donuts,CT,2019-01-01T00:00:00-05:00,2019-02-01T00:00:00-05:00,6040,77,31.0,"{""<5"":0,""5-20"":30,""21-60"":20,""61-240"":19,"">240"":8}",5964.5,41.764769,-72.54213299999999,722515.0,CT,9.0,9003.0,Hartford County,90035146004.0
16396,sg:5aa6d2b435ab45adbd2eeeab43bc4737,7-Eleven,CT,2019-01-01T00:00:00-05:00,2019-02-01T00:00:00-05:00,6076,59,7.0,"{""<5"":6,""5-20"":40,""21-60"":5,""61-240"":7,"">240"":1}",2011.0,41.959421999999996,-72.313153,445120.0,CT,9.0,9013.0,Tolland County,90138901003.0
16406,sg:5b7f2faac69c4294ad1a090526487e37,Middlesex Hospital,CT,2019-01-01T00:00:00-05:00,2019-02-01T00:00:00-05:00,6457,3,30.0,"{""<5"":0,""5-20"":0,""21-60"":3,""61-240"":0,"">240"":0}",121.5,41.547491,-72.636108,621610.0,CT,9.0,9007.0,Middlesex County,90075417001.0
16525,sg:64e49c1da679484bad08cc6981800384,Hartford HealthCare Medical Group,CT,2019-01-01T00:00:00-05:00,2019-02-01T00:00:00-05:00,6032,94,53.5,"{""<5"":2,""5-20"":21,""21-60"":30,""61-240"":33,"">240"":8}",8369.0,41.730026,-72.801327,621111.0,CT,9.0,9003.0,Hartford County,90034602021.0
16527,sg:654ff49614834f5694a37339bc77045a,Peterson Karen DMD,CT,2019-01-01T00:00:00-05:00,2019-02-01T00:00:00-05:00,6512,41,41.0,"{""<5"":1,""5-20"":11,""21-60"":10,""61-240"":7,"">240"":12}",4478.5,41.279183,-72.871429,621210.0,CT,9.0,9009.0,New Haven County,90091803001.0
16545,sg:6736f0641fa04f678965e2fbfe7ae028,Avon Public Schools Pre K,CT,2019-01-01T00:00:00-05:00,2019-02-01T00:00:00-05:00,6001,69,71.0,"{""<5"":2,""5-20"":21,""21-60"":7,""61-240"":26,"">240"":13}",7584.0,41.817984,-72.835937,611110.0,CT,9.0,9003.0,Hartford County,90034622011.0
16562,sg:68c5a285e44d4f21b0e01f177c3904c8,Visual Perceptions Eyecare LLC,CT,2019-01-01T00:00:00-05:00,2019-02-01T00:00:00-05:00,6111,33,13.0,"{""<5"":1,""5-20"":23,""21-60"":6,""61-240"":3,"">240"":0}",984.5,41.696892999999996,-72.756766,446130.0,CT,9.0,9003.0,Hartford County,90034946002.0
16626,sg:6f76f3773aa0457886d8d64197d856ff,Pizza Corner,CT,2019-01-01T00:00:00-05:00,2019-02-01T00:00:00-05:00,6511,493,15.0,"{""<5"":33,""5-20"":241,""21-60"":69,""61-240"":85,"">240"":65}",34282.0,41.305096999999996,-72.933826,722511.0,CT,9.0,9009.0,New Haven County,90091403002.0
16665,sg:7344462007244fa8bb6b4209921c1ec8,Habitat for Humanity,CT,2019-01-01T00:00:00-05:00,2019-02-01T00:00:00-05:00,6374,71,18.0,"{""<5"":1,""5-20"":38,""21-60"":19,""61-240"":6,"">240"":7}",3830.0,41.665948,-71.917183,813219.0,CT,9.0,9015.0,Windham County,90159073004.0
16670,sg:7388343580894c628f000354fd89e0ac,Buffington's Driving School,CT,2019-01-01T00:00:00-05:00,2019-02-01T00:00:00-05:00,6850,318,30.0,"{""<5"":3,""5-20"":110,""21-60"":121,""61-240"":51,"">240"":33}",21878.5,41.115908000000005,-73.416573,453310.0,CT,9.0,9001.0,Fairfield County,90010437001.0
16738,sg:7a7b6c84862f4a7eb4b0c5807efc5fb9,Walmart,CT,2019-01-01T00:00:00-05:00,2019-02-01T00:00:00-05:00,6067,2026,21.0,"{""<5"":23,""5-20"":947,""21-60"":815,""61-240"":159,"">240"":82}",88512.0,41.678841,-72.657477,452319.0,CT,9.0,9003.0,Hartford County,90034901003.0
16893,sg:899d4bbfb99447f6a476694436cc9461,Roxco Activities Program,CT,2019-01-01T00:00:00-05:00,2019-02-01T00:00:00-05:00,6902,229,52.0,"{""<5"":4,""5-20"":76,""21-60"":56,""61-240"":63,"">240"":30}",19909.5,41.089171,-73.564268,624410.0,CT,9.0,9001.0,Fairfield County,90010205001.0
16922,sg:8c7100bb12804d6eab7836e4c281d219,Panache Auto Werke,CT,2019-01-01T00:00:00-05:00,2019-02-01T00:00:00-05:00,6615,97,17.0,"{""<5"":3,""5-20"":51,""21-60"":14,""61-240"":21,"">240"":8}",6292.5,41.172464,-73.149867,811192.0,CT,9.0,9001.0,Fairfield County,90010804001.0
17006,sg:93aea2112e9e4fa79e850b0f65c09e4c,Holmes Insurance Group,CT,2019-01-01T00:00:00-05:00,2019-02-01T00:00:00-05:00,6382,10,65.0,"{""<5"":0,""5-20"":3,""21-60"":2,""61-240"":4,"">240"":1}",960.5,41.441533,-72.105368,524210.0,CT,9.0,9011.0,New London County,90118705021.0
17183,sg:a3e72357e9974edabdd968f951213704,Bruce Klein LCSW BCD,CT,2019-01-01T00:00:00-05:00,2019-02-01T00:00:00-05:00,6511,16,98.0,"{""<5"":0,""5-20"":3,""21-60"":2,""61-240"":6,"">240"":5}",2221.5,41.32077,-72.909863,621330.0,CT,9.0,9009.0,New Haven County,90091419003.0
17321,sg:b190b07e02254da08f5fcb814d2288de,Goldman Andrew R Dr,CT,2019-01-01T00:00:00-05:00,2019-02-01T00:00:00-05:00,6335,3,13.0,"{""<5"":0,""5-20"":3,""21-60"":0,""61-240"":0,"">240"":0}",37.5,41.414632,-72.073224,621210.0,CT,9.0,9011.0,New London County,90117012004.0
17408,sg:ba3df3f5fcd449e3bc14cab0f4f7a36f,Capitol Automotive,CT,2019-01-01T00:00:00-05:00,2019-02-01T00:00:00-05:00,6106,57,33.0,"{""<5"":1,""5-20"":19,""21-60"":17,""61-240"":11,"">240"":9}",4744.0,41.760177,-72.709096,811111.0,CT,9.0,9003.0,Hartford County,90035041001.0
17551,sg:ca168717feff47a895d2304bb8497d43,East Haddam Fire Company 1 Headquarters,CT,2019-01-01T00:00:00-05:00,2019-02-01T00:00:00-05:00,6423,113,61.0,"{""<5"":2,""5-20"":19,""21-60"":35,""61-240"":40,"">240"":17}",11760.0,41.472301,-72.443963,922160.0,CT,9.0,9007.0,Middlesex County,90075951022.0
17606,sg:d070be0784d74180a21a43e196dc1265,Yeladim Early Learning Center,CT,2019-01-01T00:00:00-05:00,2019-02-01T00:00:00-05:00,6525,815,66.0,"{""<5"":6,""5-20"":168,""21-60"":202,""61-240"":365,"">240"":74}",82988.5,41.350928,-72.991555,611110.0,,,,,
17722,sg:dcfcea6bfd0a4f05b3217a2c51950d8e,Avant Garde,CT,2019-01-01T00:00:00-05:00,2019-02-01T00:00:00-05:00,6405,12,9.0,"{""<5"":0,""5-20"":10,""21-60"":1,""61-240"":1,"">240"":0}",316.0,41.29231,-72.787195,812112.0,CT,9.0,9009.0,New Haven County,90091845001.0
17765,sg:e1a6891b2b8d401f9fcebfa9de29d0c7,Greenwich Urological Associates PC,CT,2019-01-01T00:00:00-05:00,2019-02-01T00:00:00-05:00,6830,15,58.0,"{""<5"":0,""5-20"":4,""21-60"":4,""61-240"":2,"">240"":5}",1713.0,41.034708,-73.631345,621111.0,CT,9.0,9001.0,Fairfield County,90010103003.0
17773,sg:e2a2dba9d91e4182952ff7d339e57bdb,Jon Lasse Piano Works,CT,2019-01-01T00:00:00-05:00,2019-02-01T00:00:00-05:00,6488,34,23.5,"{""<5"":1,""5-20"":14,""21-60"":11,""61-240"":4,"">240"":4}",2185.0,41.48656,-73.240087,451140.0,CT,9.0,9009.0,New Haven County,90093481252.0
17786,sg:e4471b799c064f2e8df2c3aab624fcba,CTGutterPro,CT,2019-01-01T00:00:00-05:00,2019-02-01T00:00:00-05:00,6489,1,7.0,"{""<5"":0,""5-20"":1,""21-60"":0,""61-240"":0,"">240"":0}",12.5,41.564698,-72.898226,811192.0,CT,9.0,9003.0,Hartford County,90034304002.0
17886,sg:f051b96b8a8d4eceb325a3d33ffe8f98,Gaelic American Club,CT,2019-01-01T00:00:00-05:00,2019-02-01T00:00:00-05:00,6824,287,67.0,"{""<5"":1,""5-20"":42,""21-60"":86,""61-240"":143,"">240"":15}",29132.0,41.143396,-73.252367,722511.0,CT,9.0,9001.0,Fairfield County,90010615003.0
17948,sg:f6fbb5106dbc4497b1131f54c6510a0b,Atomic Wings,CT,2019-01-01T00:00:00-05:00,2019-02-01T00:00:00-05:00,6906,47,35.0,"{""<5"":1,""5-20"":19,""21-60"":8,""61-240"":13,"">240"":6}",3960.5,41.070979,-73.520782,722511.0,CT,9.0,9001.0,Fairfield County,90010211002.0
18027,sg:01bb7393e9674e579c6b726251e41228,Roosevelt Middle School,CT,2019-01-01T00:00:00-05:00,2019-02-01T00:00:00-05:00,6051,477,145.0,"{""<5"":5,""5-20"":91,""21-60"":75,""61-240"":108,"">240"":198}",67961.5,41.665449,-72.761615,611110.0,CT,9.0,9003.0,Hartford County,90034154002.0
18217,sg:129bc3cbf13045de9722839efcc71266,Mystic River Cruises,CT,2019-01-01T00:00:00-05:00,2019-02-01T00:00:00-05:00,6355,140,63.5,"{""<5"":1,""5-20"":14,""21-60"":47,""61-240"":66,"">240"":12}",14894.0,41.350966,-71.970268,441222.0,CT,9.0,9011.0,New London County,90117053002.0
18267,sg:179c7b38c21a409c8dd0767a1fdd2d21,Colchester Backus Family Health Center,CT,2019-01-01T00:00:00-05:00,2019-02-01T00:00:00-05:00,6415,4,368.5,"{""<5"":0,""5-20"":0,""21-60"":0,""61-240"":1,"">240"":3}",870.5,41.57819,-72.33731800000001,621493.0,CT,9.0,9011.0,New London County,90117141011.0
18338,sg:1d580450f36e4b77953bb2fa7a898ccd,Pueblo Supermarket,CT,2019-01-01T00:00:00-05:00,2019-02-01T00:00:00-05:00,6608,408,78.0,"{""<5"":11,""5-20"":107,""21-60"":67,""61-240"":91,"">240"":132}",49454.0,41.18,-73.17903100000001,445110.0,CT,9.0,9001.0,Fairfield County,90010740002.0
18491,sg:2c94fe487f1647428ce839b01f4e4c6c,Del's Collision Center,CT,2019-01-01T00:00:00-05:00,2019-02-01T00:00:00-05:00,6401,19,90.0,"{""<5"":0,""5-20"":4,""21-60"":3,""61-240"":4,"">240"":8}",2693.5,41.339299,-73.082716,811121.0,CT,9.0,9009.0,New Haven County,90091253002.0
18699,sg:3f9350c3c8a44802976bf213c7155082,Matiste,CT,2019-01-01T00:00:00-05:00,2019-02-01T00:00:00-05:00,6518,106,41.5,"{""<5"":3,""5-20"":26,""21-60"":41,""61-240"":35,"">240"":1}",7500.5,41.415056,-72.902936,448120.0,CT,9.0,9009.0,New Haven County,90091660024.0
18724,sg:41907482f9f2453995d0be67405f9fac,Genesis HealthCare,CT,2019-01-01T00:00:00-05:00,2019-02-01T00:00:00-05:00,6107,228,46.5,"{""<5"":0,""5-20"":53,""21-60"":77,""61-240"":66,"">240"":32}",21394.0,41.742709000000005,-72.777451,621498.0,CT,9.0,9003.0,Hartford County,90034966001.0
18761,sg:44fdc71b292e43898087e427a566ae11,Northwestern Connecticut Community College,CT,2019-01-01T00:00:00-05:00,2019-02-01T00:00:00-05:00,6098,38,57.5,"{""<5"":0,""5-20"":9,""21-60"":10,""61-240"":14,"">240"":5}",3824.5,41.920941,-73.058976,611310.0,CT,9.0,9005.0,Litchfield County,90053201002.0
19033,sg:5e7f47c955324034be1ae5c210642e2b,The Edge Fitness Clubs,CT,2019-01-01T00:00:00-05:00,2019-02-01T00:00:00-05:00,6614,2490,59.0,"{""<5"":14,""5-20"":270,""21-60"":1007,""61-240"":1120,"">240"":79}",231713.5,41.201665000000006,-73.113928,713940.0,CT,9.0,9001.0,Fairfield County,90010808001.0
19097,sg:65980c9c67994c32981de76b237d5fc9,Cathedral of the Holy Spirit,CT,2019-01-01T00:00:00-05:00,2019-02-01T00:00:00-05:00,6607,3,65.0,"{""<5"":0,""5-20"":1,""21-60"":0,""61-240"":2,"">240"":0}",313.5,41.181931,-73.165409,813110.0,CT,9.0,9001.0,Fairfield County,90010743005.0
19124,sg:689b07902ec14903aac6382f0dba4c18,Stonington Frame Shoppe,CT,2019-01-01T00:00:00-05:00,2019-02-01T00:00:00-05:00,6378,10,5.5,"{""<5"":2,""5-20"":7,""21-60"":1,""61-240"":0,"">240"":0}",133.0,41.349513,-71.912991,442110.0,CT,9.0,9011.0,New London County,90117052001.0
19419,sg:88c4978bd4684d3d95eb5bd2323f46a2,Veronica's Restaurant & Deli,CT,2019-01-01T00:00:00-05:00,2019-02-01T00:00:00-05:00,6902,68,44.0,"{""<5"":4,""5-20"":25,""21-60"":8,""61-240"":19,"">240"":12}",6386.0,41.035882,-73.55185300000001,722511.0,CT,9.0,9001.0,Fairfield County,90010223001.0
19425,sg:8a56ab5332c147ac8eb03c9f5a69edbd,Scribners Kitchen & Bath Design,CT,2019-01-01T00:00:00-05:00,2019-02-01T00:00:00-05:00,6375,106,66.5,"{""<5"":5,""5-20"":39,""21-60"":6,""61-240"":24,"">240"":32}",12035.0,41.42465,-72.110387,442299.0,CT,9.0,9011.0,New London County,90116936001.0
19581,sg:97e431c8aa82496c8cbf46842643b074,United States Postal Service (USPS),CT,2019-01-01T00:00:00-05:00,2019-02-01T00:00:00-05:00,6511,426,22.0,"{""<5"":15,""5-20"":187,""21-60"":72,""61-240"":95,"">240"":57}",33268.5,41.299240000000005,-72.919953,491110.0,CT,9.0,9009.0,New Haven County,90091402001.0
19655,sg:a12c01c57c6643cc8ed990d486be8cbc,Momo Sushi,CT,2019-01-01T00:00:00-05:00,2019-02-01T00:00:00-05:00,6460,469,13.0,"{""<5"":22,""5-20"":257,""21-60"":98,""61-240"":78,"">240"":14}",22335.5,41.241371,-73.033342,722511.0,CT,9.0,9009.0,New Haven County,90091508003.0
19915,sg:bd955cd77d3a45579443ba445c123649,Patriot National Bank,CT,2019-01-01T00:00:00-05:00,2019-02-01T00:00:00-05:00,6825,21,23.0,"{""<5"":0,""5-20"":9,""21-60"":6,""61-240"":6,"">240"":0}",1258.5,41.179384000000006,-73.24586500000001,522110.0,CT,9.0,9001.0,Fairfield County,90010610002.0
19974,sg:c335e63b1fc34cc0a8af045ba00c9b18,The Place,CT,2019-01-01T00:00:00-05:00,2019-02-01T00:00:00-05:00,6437,112,10.0,"{""<5"":5,""5-20"":75,""21-60"":19,""61-240"":12,"">240"":1}",3765.5,41.288782,-72.67882900000001,722511.0,CT,9.0,9009.0,New Haven County,90091901002.0
20057,sg:cc4977bfc97b48eab9c3417550a1c689,Ansonia Fire Department Webster Hose Company 3,CT,2019-01-01T00:00:00-05:00,2019-02-01T00:00:00-05:00,6401,105,26.0,"{""<5"":1,""5-20"":44,""21-60"":22,""61-240"":25,"">240"":13}",8326.0,41.333642,-73.073365,922160.0,CT,9.0,9009.0,New Haven County,90091252002.0
20085,sg:cf79e5fbbfbc4a7097268e443cf7af48,Precision Dental Care,CT,2019-01-01T00:00:00-05:00,2019-02-01T00:00:00-05:00,6851,21,20.0,"{""<5"":0,""5-20"":11,""21-60"":5,""61-240"":1,"">240"":4}",1450.5,41.109598999999996,-73.405963,621210.0,CT,9.0,9001.0,Fairfield County,90010436002.0
20220,sg:db933dffbfa849439514912988131c9d,State Farm,CT,2019-01-01T00:00:00-05:00,2019-02-01T00:00:00-05:00,6902,18,8.5,"{""<5"":0,""5-20"":14,""21-60"":1,""61-240"":2,"">240"":1}",756.5,41.101861,-73.564722,524210.0,CT,9.0,9001.0,Fairfield County,90010206001.0
20247,sg:de897781ec114ca3b1a81164308b2f51,Connecticut Mental Health Center,CT,2019-01-01T00:00:00-05:00,2019-02-01T00:00:00-05:00,6519,611,38.0,"{""<5"":21,""5-20"":241,""21-60"":83,""61-240"":139,"">240"":127}",57826.0,41.30543,-72.936887,622210.0,,,,,
20290,sg:e2ede7197dad4d4496ec1bad4b9c2d05,Scores,CT,2019-01-01T00:00:00-05:00,2019-02-01T00:00:00-05:00,6511,172,81.5,"{""<5"":3,""5-20"":30,""21-60"":45,""61-240"":51,"">240"":43}",20200.5,41.306971999999995,-72.91229,722511.0,CT,9.0,9009.0,New Haven County,90091422001.0
20313,sg:e4c00a80cbd74b11a1d3a1c98efb83a3,Avon High School,CT,2019-01-01T00:00:00-05:00,2019-02-01T00:00:00-05:00,6001,1938,85.0,"{""<5"":25,""5-20"":362,""21-60"":370,""61-240"":825,"">240"":356}",229175.0,41.783046,-72.861889,611110.0,CT,9.0,9003.0,Hartford County,90034622012.0
20355,sg:e8ada55d7d3c45529b84da8876adf010,Car Biz Autobody,CT,2019-01-01T00:00:00-05:00,2019-02-01T00:00:00-05:00,6001,48,88.5,"{""<5"":0,""5-20"":10,""21-60"":11,""61-240"":11,"">240"":16}",6066.0,41.796589000000004,-72.837254,811121.0,CT,9.0,9003.0,Hartford County,90034622013.0
20441,sg:f1e1a894a76d4797a98ca5b73323e608,Energy Direct,CT,2019-01-01T00:00:00-05:00,2019-02-01T00:00:00-05:00,6035,14,185.0,"{""<5"":1,""5-20"":2,""21-60"":0,""61-240"":5,"">240"":6}",2220.0,41.996365000000004,-72.806139,532120.0,CT,9.0,9003.0,Hartford County,90034681011.0
20546,sg:fc3757de144b428a831b9f3ee51f9b21,Sugg P Michele Msw Lcsw,CT,2019-01-01T00:00:00-05:00,2019-02-01T00:00:00-05:00,6405,33,23.0,"{""<5"":0,""5-20"":14,""21-60"":8,""61-240"":10,"">240"":1}",2244.0,41.271497,-72.825305,621330.0,CT,9.0,9009.0,New Haven County,90091841004.0
20752,sg:12e3a5f4fa5c4e379230fc12dcc98af5,Alumni Wine & Spirits,CT,2019-01-01T00:00:00-05:00,2019-02-01T00:00:00-05:00,6339,565,13.0,"{""<5"":14,""5-20"":369,""21-60"":113,""61-240"":39,"">240"":30}",22293.5,41.440740999999996,-72.01693399999999,445310.0,CT,9.0,9011.0,New London County,90117011003.0
20858,sg:1bb7a67a099e4535ad4292019839604e,Bottle Shop of Unionville,CT,2019-01-01T00:00:00-05:00,2019-02-01T00:00:00-05:00,6085,111,9.0,"{""<5"":4,""5-20"":82,""21-60"":14,""61-240"":6,"">240"":5}",3705.0,41.757290000000005,-72.887254,445310.0,CT,9.0,9003.0,Hartford County,90034603022.0
20870,sg:1c81ce70b81c42afa122a61b31f343cb,U-Haul,CT,2019-01-01T00:00:00-05:00,2019-02-01T00:00:00-05:00,6053,64,236.0,"{""<5"":1,""5-20"":9,""21-60"":6,""61-240"":17,"">240"":31}",10356.5,41.667353000000006,-72.812912,532120.0,CT,9.0,9003.0,Hartford County,90034165005.0
21014,sg:291436522d2c4d72add226b4f84ffb93,Litchfield Montessori School,CT,2019-01-01T00:00:00-05:00,2019-02-01T00:00:00-05:00,6778,101,106.0,"{""<5"":1,""5-20"":17,""21-60"":13,""61-240"":38,"">240"":32}",14140.5,41.698094,-73.10601199999999,611110.0,CT,9.0,9005.0,Litchfield County,90053005001.0
21115,sg:315c938d37d34598adf76745b57a942f,Rainbow Center For Children And Families,CT,2019-01-01T00:00:00-05:00,2019-02-01T00:00:00-05:00,6109,69,7.0,"{""<5"":2,""5-20"":47,""21-60"":4,""61-240"":11,"">240"":5}",3610.0,41.709790999999996,-72.655934,624410.0,CT,9.0,9003.0,Hartford County,90034921002.0
21140,sg:334b9ef119bd43b5bd90a5ae3d7d4e8e,Fairways Restaurant,CT,2019-01-01T00:00:00-05:00,2019-02-01T00:00:00-05:00,6831,1,8.0,"{""<5"":0,""5-20"":1,""21-60"":0,""61-240"":0,"">240"":0}",12.5,41.07631,-73.703649,722511.0,CT,9.0,9001.0,Fairfield County,90010101014.0
21157,sg:34f4328357924cbb8412fc029b265feb,Autopart International,CT,2019-01-01T00:00:00-05:00,2019-02-01T00:00:00-05:00,6108,112,181.0,"{""<5"":2,""5-20"":22,""21-60"":12,""61-240"":22,"">240"":54}",17037.0,41.780155,-72.62043299999999,441310.0,CT,9.0,9003.0,Hartford County,90035104002.0
21247,sg:3cfe0f59ca3144958b7a5c991b8ae864,Starbucks,CT,2019-01-01T00:00:00-05:00,2019-02-01T00:00:00-05:00,6489,467,8.0,"{""<5"":37,""5-20"":342,""21-60"":62,""61-240"":23,"">240"":3}",11060.0,41.633308,-72.873307,722515.0,CT,9.0,9003.0,Hartford County,90034302011.0
21310,sg:42ec86db6b8a470ab09b70a05b844881,Bicron Electronics Company,CT,2019-01-01T00:00:00-05:00,2019-02-01T00:00:00-05:00,6790,128,429.0,"{""<5"":1,""5-20"":14,""21-60"":9,""61-240"":31,"">240"":73}",22727.5,41.821222999999996,-73.156112,443142.0,CT,9.0,9005.0,Litchfield County,90053108041.0
21360,sg:47af064b372846a7a156fd92c1766d33,International Institute Of Cosmetology Plainville Campus,CT,2019-01-01T00:00:00-05:00,2019-02-01T00:00:00-05:00,6062,196,238.5,"{""<5"":0,""5-20"":23,""21-60"":22,""61-240"":54,"">240"":97}",32585.5,41.668985,-72.867917,611511.0,CT,9.0,9003.0,Hartford County,90034205004.0
21445,sg:4fbedb1db25f458ba3f2cdccf8945d0e,Third Taxing District of Norwalk Norden 1 3 Power Plant,CT,2019-01-01T00:00:00-05:00,2019-02-01T00:00:00-05:00,6855,77,158.0,"{""<5"":2,""5-20"":23,""21-60"":4,""61-240"":22,"">240"":26}",10005.5,41.113071999999995,-73.388408,221112.0,CT,9.0,9001.0,Fairfield County,90010443001.0
21541,sg:5782bdc224834ad390b90adca91b5237,Jesters Coffee,CT,2019-01-01T00:00:00-05:00,2019-02-01T00:00:00-05:00,6804,108,29.5,"{""<5"":3,""5-20"":39,""21-60"":49,""61-240"":14,"">240"":3}",5306.5,41.450771,-73.401563,722515.0,CT,9.0,9001.0,Fairfield County,90012053002.0
21595,sg:5c9b1683c1dc41b9a52ba8125b11ed58,Michaels Stores,CT,2019-01-01T00:00:00-05:00,2019-02-01T00:00:00-05:00,6385,3,29.0,"{""<5"":0,""5-20"":0,""21-60"":3,""61-240"":0,"">240"":0}",121.5,41.381501,-72.149731,451120.0,CT,9.0,9011.0,New London County,90116937001.0
21729,sg:674ba66cded3493fbe45646e4ee2d8f4,The Dog Guy,CT,2019-01-01T00:00:00-05:00,2019-02-01T00:00:00-05:00,6752,1,8.0,"{""<5"":0,""5-20"":1,""21-60"":0,""61-240"":0,"">240"":0}",12.5,41.532034,-73.368143,812910.0,CT,9.0,9005.0,Litchfield County,90052501002.0
21752,sg:694b75046aba4ed090c83c5437b5c7fa,Mayflower Montessori School,CT,2019-01-01T00:00:00-05:00,2019-02-01T00:00:00-05:00,6360,91,178.0,"{""<5"":1,""5-20"":18,""21-60"":14,""61-240"":22,"">240"":36}",12745.5,41.505146,-72.091197,611110.0,CT,9.0,9011.0,New London County,90116967003.0
21862,sg:736f4d381e294165b46f5fda766e0be4,Body in Balance,CT,2019-01-01T00:00:00-05:00,2019-02-01T00:00:00-05:00,6415,218,23.5,"{""<5"":2,""5-20"":87,""21-60"":58,""61-240"":33,"">240"":38}",17528.0,41.572383,-72.331073,713940.0,CT,9.0,9011.0,New London County,90117141013.0
21966,sg:7e9075b990c147b0bec9cfee44d61f8f,New Heights Child Development Program,CT,2019-01-01T00:00:00-05:00,2019-02-01T00:00:00-05:00,6226,331,121.0,"{""<5"":6,""5-20"":66,""21-60"":48,""61-240"":86,"">240"":125}",45727.0,41.721421,-72.192769,624410.0,CT,9.0,9015.0,Windham County,90158005006.0
22344,sg:a26ec65f2cff48128d7893dcdec77df2,Fairfield Centre,CT,2019-01-01T00:00:00-05:00,2019-02-01T00:00:00-05:00,6824,1441,23.0,"{""<5"":21,""5-20"":577,""21-60"":595,""61-240"":193,"">240"":55}",73609.0,41.149215000000005,-73.247251,531120.0,CT,9.0,9001.0,Fairfield County,90010615001.0
22674,sg:c47781f5624a47678fbb4d1c52d3ce76,Dr. Dental,CT,2019-01-01T00:00:00-05:00,2019-02-01T00:00:00-05:00,6515,4,374.5,"{""<5"":0,""5-20"":1,""21-60"":0,""61-240"":0,"">240"":3}",732.5,41.336661,-72.982437,621210.0,CT,9.0,9009.0,New Haven County,90091412004.0
22791,sg:d06163dbea0b4f269a5622a389782f75,Ann's Massage,CT,2019-01-01T00:00:00-05:00,2019-02-01T00:00:00-05:00,6492,1,8.0,"{""<5"":0,""5-20"":1,""21-60"":0,""61-240"":0,"">240"":0}",12.5,41.473029,-72.76555400000001,812199.0,CT,9.0,9009.0,New Haven County,90091760001.0
22894,sg:dbe510f374d14f538d42327d1627caa2,Plainfield Pediatric Center,CT,2019-01-01T00:00:00-05:00,2019-02-01T00:00:00-05:00,6374,165,44.0,"{""<5"":1,""5-20"":47,""21-60"":48,""61-240"":30,"">240"":39}",16409.0,41.668696999999995,-71.912398,621610.0,CT,9.0,9015.0,Windham County,90159073001.0
23014,sg:e99e6d9263164f39bc3ed13409c3e3f9,Dunkin',CT,2019-01-01T00:00:00-05:00,2019-02-01T00:00:00-05:00,6510,41,86.0,"{""<5"":0,""5-20"":8,""21-60"":9,""61-240"":11,"">240"":13}",5240.0,41.312053999999996,-72.92235699999999,722515.0,CT,9.0,9009.0,New Haven County,90091420003.0
23023,sg:ea36e8220a9c460288d7df777123bc5c,Quinnipiac Physical Therapy & Sports Medicine,CT,2019-01-01T00:00:00-05:00,2019-02-01T00:00:00-05:00,6518,40,36.0,"{""<5"":0,""5-20"":13,""21-60"":14,""61-240"":12,"">240"":1}",2775.5,41.382366999999995,-72.90262299999999,621340.0,CT,9.0,9009.0,New Haven County,90091660013.0
23092,sg:f2069dc6e7d64085a0687fee39b51933,Fairfield Primary Health Care,CT,2019-01-01T00:00:00-05:00,2019-02-01T00:00:00-05:00,6824,28,38.5,"{""<5"":1,""5-20"":5,""21-60"":16,""61-240"":5,"">240"":1}",1705.5,41.144462,-73.251081,621111.0,CT,9.0,9001.0,Fairfield County,90010615003.0
23252,sg:01e534c95c3d4642aee95b7658afb37d,All Types Claims Adjusters LLC,CT,2019-01-01T00:00:00-05:00,2019-02-01T00:00:00-05:00,6604,54,86.0,"{""<5"":1,""5-20"":9,""21-60"":11,""61-240"":13,"">240"":20}",7317.0,41.180207,-73.217185,524210.0,CT,9.0,9001.0,Fairfield County,90010721003.0
23285,sg:04e7c9ab4f5f40b8916f52bd939d00e0,Burger King,CT,2019-01-01T00:00:00-05:00,2019-02-01T00:00:00-05:00,6492,261,10.0,"{""<5"":7,""5-20"":181,""21-60"":52,""61-240"":9,"">240"":12}",8620.5,41.481722,-72.809907,722513.0,CT,9.0,9009.0,New Haven County,90091754001.0
23391,sg:0f934f88c4994f3e8402d4efb2409bf6,Pizza Mike's Pizzeria,CT,2019-01-01T00:00:00-05:00,2019-02-01T00:00:00-05:00,6268,179,21.0,"{""<5"":13,""5-20"":76,""21-60"":21,""61-240"":55,"">240"":14}",13470.5,41.827715000000005,-72.26737,722511.0,CT,9.0,9013.0,Tolland County,90138813001.0
23550,sg:1e4a1a7b83424cd090660dce60170f7c,Bed Bath & Beyond,CT,2019-01-01T00:00:00-05:00,2019-02-01T00:00:00-05:00,6032,336,21.0,"{""<5"":15,""5-20"":142,""21-60"":111,""61-240"":50,"">240"":18}",18153.0,41.718527,-72.76061700000001,442299.0,CT,9.0,9003.0,Hartford County,90034962004.0
23560,sg:1f31e79e6b8b420d9d43a5043ab6f283,Mobil,CT,2019-01-01T00:00:00-05:00,2019-02-01T00:00:00-05:00,6241,508,8.0,"{""<5"":23,""5-20"":387,""21-60"":52,""61-240"":28,"">240"":18}",15535.0,41.843101000000004,-71.88129,447110.0,CT,9.0,9015.0,Windham County,90159044003.0
23731,sg:2d55ca9f6008478ba693c06367f03e40,Bear Hugs Child Care Center Inc,CT,2019-01-01T00:00:00-05:00,2019-02-01T00:00:00-05:00,6825,22,39.5,"{""<5"":0,""5-20"":6,""21-60"":8,""61-240"":7,"">240"":1}",1692.5,41.177252,-73.232302,624410.0,CT,9.0,9001.0,Fairfield County,90010613001.0
23822,sg:36bc92f67216460c88cc27a3f32c1635,University Of Hartford Magnet School,CT,2019-01-01T00:00:00-05:00,2019-02-01T00:00:00-05:00,6117,240,68.0,"{""<5"":7,""5-20"":90,""21-60"":21,""61-240"":27,"">240"":95}",28856.5,41.793534,-72.71287199999999,611110.0,CT,9.0,9003.0,Hartford County,90035038001.0
23919,sg:40de74c85f6146fba6d8fcceb314864c,Fuller J Barden DDS,CT,2019-01-01T00:00:00-05:00,2019-02-01T00:00:00-05:00,6479,11,20.0,"{""<5"":0,""5-20"":6,""21-60"":4,""61-240"":1,"">240"":0}",387.5,41.562886999999996,-72.882064,621210.0,CT,9.0,9009.0,New Haven County,90093431013.0
24042,sg:4d90254c496b405abde6f23ec138c4cd,Connecticut GI,CT,2019-01-01T00:00:00-05:00,2019-02-01T00:00:00-05:00,6002,159,63.0,"{""<5"":0,""5-20"":45,""21-60"":33,""61-240"":39,"">240"":42}",17848.5,41.816334000000005,-72.726804,621111.0,CT,9.0,9003.0,Hartford County,90034713002.0
24101,sg:542c8be63d204aacbecbfccda460cc66,Burrell's tax service,CT,2019-01-01T00:00:00-05:00,2019-02-01T00:00:00-05:00,6370,12,131.0,"{""<5"":0,""5-20"":1,""21-60"":2,""61-240"":4,"">240"":5}",1895.5,41.467197,-72.182783,541213.0,CT,9.0,9011.0,New London County,90116952023.0
24485,sg:7a60985799004c04a4e88b97c3f6a39d,Greenville Drug Store,CT,2019-01-01T00:00:00-05:00,2019-02-01T00:00:00-05:00,6360,226,93.0,"{""<5"":5,""5-20"":59,""21-60"":35,""61-240"":57,"">240"":70}",27546.0,41.533436,-72.05652099999999,446110.0,CT,9.0,9011.0,New London County,90116964003.0
24497,sg:7b4430598e7046d08f8f86ee4b0f8401,Sunoco,CT,2019-01-01T00:00:00-05:00,2019-02-01T00:00:00-05:00,6112,475,21.0,"{""<5"":11,""5-20"":226,""21-60"":90,""61-240"":74,"">240"":74}",35394.5,41.77823,-72.685843,447110.0,CT,9.0,9003.0,Hartford County,90035018003.0
24517,sg:7d3fe77494484f02a9facb3318a3941e,Diamond Gold Connection,CT,2019-01-01T00:00:00-05:00,2019-02-01T00:00:00-05:00,6120,14,12.0,"{""<5"":0,""5-20"":13,""21-60"":0,""61-240"":1,"">240"":0}",313.0,41.787124,-72.66272099999999,448310.0,CT,9.0,9003.0,Hartford County,90035007001.0
24783,sg:954f70ae2b7445178b35b466fdb0c7fb,J & G Restaurant & Lounge,CT,2019-01-01T00:00:00-05:00,2019-02-01T00:00:00-05:00,6026,256,56.5,"{""<5"":4,""5-20"":50,""21-60"":86,""61-240"":97,"">240"":19}",23276.5,41.940627,-72.727536,722511.0,CT,9.0,9003.0,Hartford County,90034701004.0
25024,sg:ad1d37782aad41ab9fd1699e8e8b52d2,Himalaya Restaurant,CT,2019-01-01T00:00:00-05:00,2019-02-01T00:00:00-05:00,6037,149,58.0,"{""<5"":4,""5-20"":28,""21-60"":49,""61-240"":51,"">240"":17}",14100.0,41.628361,-72.755271,722511.0,CT,9.0,9003.0,Hartford County,90034001001.0
25145,sg:b9aee8f704b449cf9f2ecf7851cb43bf,Amplisound Hearing Care Centers,CT,2019-01-01T00:00:00-05:00,2019-02-01T00:00:00-05:00,6066,2,39.0,"{""<5"":0,""5-20"":0,""21-60"":2,""61-240"":0,"">240"":0}",81.0,41.846374,-72.485287,621511.0,CT,9.0,9013.0,Tolland County,90135303023.0
25182,sg:be0f93c1f95345558ef939cc1a2b28a2,Midas,CT,2019-01-01T00:00:00-05:00,2019-02-01T00:00:00-05:00,6340,3,45.0,"{""<5"":0,""5-20"":1,""21-60"":1,""61-240"":1,"">240"":0}",203.5,41.367384,-72.068809,811111.0,CT,9.0,9011.0,New London County,90118702002.0
25263,sg:c5aeaf2a6105455492b2e5a5ebacbb9a,Country Paws Grooming,CT,2019-01-01T00:00:00-05:00,2019-02-01T00:00:00-05:00,6787,60,7.0,"{""<5"":8,""5-20"":43,""21-60"":2,""61-240"":2,"">240"":5}",2139.5,41.658081,-73.085341,453910.0,CT,9.0,9005.0,Litchfield County,90053491003.0
25286,sg:c85814f26ae543c28369a57c5aee703d,White Birch Nursery,CT,2019-01-01T00:00:00-05:00,2019-02-01T00:00:00-05:00,6611,6,168.5,"{""<5"":0,""5-20"":0,""21-60"":0,""61-240"":4,"">240"":2}",1082.0,41.287715999999996,-73.238863,811411.0,CT,9.0,9001.0,Fairfield County,90010901002.0
25301,sg:ca0b62bf3e0f4b4687d4a8808d617c60,Autism Program Environmental Sciences Magnet School At Ma,CT,2019-01-01T00:00:00-05:00,2019-02-01T00:00:00-05:00,6106,111,32.0,"{""<5"":4,""5-20"":39,""21-60"":23,""61-240"":24,"">240"":21}",10081.0,41.741108000000004,-72.702488,611110.0,CT,9.0,9003.0,Hartford County,90035045003.0
25316,sg:cb193e57f2364921861d7baa65c3476f,Hot Table,CT,2019-01-01T00:00:00-05:00,2019-02-01T00:00:00-05:00,6033,107,30.0,"{""<5"":1,""5-20"":37,""21-60"":29,""61-240"":20,"">240"":20}",9449.5,41.72177,-72.613866,722515.0,CT,9.0,9003.0,Hartford County,90035203022.0
25363,sg:ced2b57a19b840f6b4084b3d2bed7c05,New Britain Obstetrical & Gynecologicl Group,CT,2019-01-01T00:00:00-05:00,2019-02-01T00:00:00-05:00,6052,22,35.0,"{""<5"":0,""5-20"":7,""21-60"":6,""61-240"":1,"">240"":8}",2401.0,41.659549,-72.78510899999999,621111.0,CT,9.0,9003.0,Hartford County,90034157001.0
25368,sg:cfd67686108c4c8fb9f3f14f58d1a4bd,Grass Island Cruises,CT,2019-01-01T00:00:00-05:00,2019-02-01T00:00:00-05:00,6437,184,77.0,"{""<5"":0,""5-20"":33,""21-60"":43,""61-240"":79,"">240"":29}",21003.5,41.272415,-72.66654,451110.0,CT,9.0,9009.0,New Haven County,90091901003.0
25451,sg:d8b1e231aabd419c9398361b82b37e2c,Starr Auto,CT,2019-01-01T00:00:00-05:00,2019-02-01T00:00:00-05:00,6424,22,411.0,"{""<5"":0,""5-20"":2,""21-60"":3,""61-240"":3,"">240"":14}",3958.0,41.57697,-72.49979,811121.0,CT,9.0,9007.0,Middlesex County,90075502011.0
25483,sg:dd13fd36befd46649af705a91154eb1d,Pumpkin Patch,CT,2019-01-01T00:00:00-05:00,2019-02-01T00:00:00-05:00,6498,35,11.0,"{""<5"":0,""5-20"":24,""21-60"":7,""61-240"":4,"">240"":0}",1185.5,41.282754,-72.48740500000001,624410.0,CT,9.0,9007.0,Middlesex County,90076801003.0
25540,sg:e253e87b19b5487f918e12f4ce6de402,Waterbury Oxford Airport,CT,2019-01-01T00:00:00-05:00,2019-02-01T00:00:00-05:00,6478,7,27.0,"{""<5"":0,""5-20"":3,""21-60"":1,""61-240"":2,"">240"":1}",619.0,41.478252000000005,-73.13521899999999,488119.0,CT,9.0,9009.0,New Haven County,90093461022.0
25551,sg:e361c329f8a84ad181befe8fdbfaeefb,Slow Puffs,CT,2019-01-01T00:00:00-05:00,2019-02-01T00:00:00-05:00,6492,21,10.0,"{""<5"":1,""5-20"":15,""21-60"":0,""61-240"":1,"">240"":4}",1300.5,41.485723,-72.81438299999999,453310.0,CT,9.0,9009.0,New Haven County,90091754001.0
25716,sg:f434be697a1a48a1a15202ea56f697c9,Meadows Office Furniture,CT,2019-01-01T00:00:00-05:00,2019-02-01T00:00:00-05:00,6902,341,62.0,"{""<5"":5,""5-20"":93,""21-60"":69,""61-240"":98,"">240"":76}",36958.5,41.037958,-73.55756099999999,453210.0,CT,9.0,9001.0,Fairfield County,90010223003.0
25796,sg:fc8104298e5f486d8fa2c763b629d44e,Snap Fitness,CT,2019-01-01T00:00:00-05:00,2019-02-01T00:00:00-05:00,6371,104,40.5,"{""<5"":3,""5-20"":18,""21-60"":60,""61-240"":20,"">240"":3}",6392.5,41.323015000000005,-72.33519100000001,713940.0,CT,9.0,9011.0,New London County,90116601012.0
25806,sg:fd89a4a11b544dd4b959f920d7334961,New Haven Fire Department Engine Company 6,CT,2019-01-01T00:00:00-05:00,2019-02-01T00:00:00-05:00,6511,133,28.0,"{""<5"":7,""5-20"":45,""21-60"":33,""61-240"":34,"">240"":14}",10393.5,41.315757,-72.934325,922160.0,CT,9.0,9009.0,New Haven County,90091416003.0
25936,sg:095c3f71a1104d22895847621ca45f52,Wfc Dooley Child Development Center,CT,2019-01-01T00:00:00-05:00,2019-02-01T00:00:00-05:00,6451,25,13.0,"{""<5"":2,""5-20"":11,""21-60"":6,""61-240"":2,"">240"":4}",1646.5,41.542653,-72.799593,624410.0,CT,9.0,9009.0,New Haven County,90091702001.0
26110,sg:182fcd25cddd4f15a751b335ff170b90,Union Savings Bank,CT,2019-01-01T00:00:00-05:00,2019-02-01T00:00:00-05:00,6804,176,6.0,"{""<5"":14,""5-20"":141,""21-60"":18,""61-240"":2,"">240"":1}",3067.5,41.443893,-73.40515,522110.0,CT,9.0,9001.0,Fairfield County,90012053003.0
26215,sg:231cc4d54ef84525999e2126a4eaff61,Latin Cravings,CT,2019-01-01T00:00:00-05:00,2019-02-01T00:00:00-05:00,6010,228,45.0,"{""<5"":4,""5-20"":70,""21-60"":56,""61-240"":59,"">240"":39}",21392.5,41.678841,-72.9475,722511.0,CT,9.0,9003.0,Hartford County,90034061001.0
26249,sg:25ceebdf361d45dd9d3c528a904f58fa,Select Physical Therapy,CT,2019-01-01T00:00:00-05:00,2019-02-01T00:00:00-05:00,6010,61,46.0,"{""<5"":0,""5-20"":11,""21-60"":29,""61-240"":21,"">240"":0}",4472.5,41.677544,-72.947805,621399.0,CT,9.0,9003.0,Hartford County,90034061001.0
26268,sg:274c953fee7348649b750dac58801de4,NAPA Auto Parts,CT,2019-01-01T00:00:00-05:00,2019-02-01T00:00:00-05:00,6082,207,30.0,"{""<5"":4,""5-20"":67,""21-60"":80,""61-240"":35,"">240"":21}",14395.0,41.990108,-72.574883,441310.0,CT,9.0,9003.0,Hartford County,90034808004.0
26372,sg:319e49d2a1724e70b5e66aa61d863da1,The Little Green Tambourine,CT,2019-01-01T00:00:00-05:00,2019-02-01T00:00:00-05:00,6019,23,20.0,"{""<5"":0,""5-20"":13,""21-60"":7,""61-240"":3,"">240"":0}",897.5,41.823166,-72.89390300000001,713940.0,CT,9.0,9003.0,Hartford County,90034641023.0
26405,sg:34e48535d1d74297b3301216064a6156,Avon Chiropractic Health Center,CT,2019-01-01T00:00:00-05:00,2019-02-01T00:00:00-05:00,6001,34,41.5,"{""<5"":0,""5-20"":10,""21-60"":13,""61-240"":4,"">240"":7}",2933.5,41.780895,-72.864574,621310.0,CT,9.0,9003.0,Hartford County,90034621015.0
26465,sg:3a94910993db42aa90a15f003126953b,Spring Meadows Trumbull,CT,2019-01-01T00:00:00-05:00,2019-02-01T00:00:00-05:00,6611,195,116.0,"{""<5"":4,""5-20"":36,""21-60"":28,""61-240"":51,"">240"":76}",27509.5,41.287958,-73.241104,623312.0,CT,9.0,9001.0,Fairfield County,90010901002.0
26475,sg:3b929c9b96d1428e8e69279e0c18aa39,Andrew David Stephens Nationwide Insurance,CT,2019-01-01T00:00:00-05:00,2019-02-01T00:00:00-05:00,6437,15,10.0,"{""<5"":1,""5-20"":8,""21-60"":3,""61-240"":2,"">240"":1}",765.0,41.285901,-72.681536,524210.0,CT,9.0,9009.0,New Haven County,90091901001.0
26509,sg:3e70ca4c3845430fadc0190c6df31d5c,Grant Chiropractic Health Center,CT,2019-01-01T00:00:00-05:00,2019-02-01T00:00:00-05:00,6467,87,9.0,"{""<5"":10,""5-20"":48,""21-60"":7,""61-240"":18,"">240"":4}",4577.5,41.564816,-72.899869,621310.0,CT,9.0,9003.0,Hartford County,90034304002.0
26753,sg:56427abb660343ccba307d53a6fa3291,Elephant In the Room Boxing Club,CT,2019-01-01T00:00:00-05:00,2019-02-01T00:00:00-05:00,6511,299,75.0,"{""<5"":6,""5-20"":64,""21-60"":66,""61-240"":78,"">240"":85}",35627.0,41.32117,-72.936355,713940.0,CT,9.0,9009.0,New Haven County,90091416003.0
26766,sg:57406f0f3b1046f3b13bc50ed403223f,American Pie,CT,2019-01-01T00:00:00-05:00,2019-02-01T00:00:00-05:00,6468,3,6.0,"{""<5"":0,""5-20"":2,""21-60"":0,""61-240"":0,"">240"":1}",265.0,41.30461,-73.25407,722511.0,CT,9.0,9001.0,Fairfield County,90011001003.0
26818,sg:5bcec49b41e44b4c8035cce0c4f2d1f6,Eileen & Taylor,CT,2019-01-01T00:00:00-05:00,2019-02-01T00:00:00-05:00,6417,79,93.0,"{""<5"":0,""5-20"":25,""21-60"":11,""61-240"":8,"">240"":35}",10362.0,41.366467,-72.425738,451130.0,CT,9.0,9007.0,Middlesex County,90076201002.0
27166,sg:7cd1fda807e94fc5bb242a26fceaaa1c,Main Wah Kitchen,CT,2019-01-01T00:00:00-05:00,2019-02-01T00:00:00-05:00,6040,91,15.0,"{""<5"":1,""5-20"":53,""21-60"":30,""61-240"":6,"">240"":1}",3023.0,41.779398,-72.541009,722511.0,CT,9.0,9003.0,Hartford County,90035145002.0
27190,sg:7f3bc36632b4462eb04f92693001bfa7,Apgar Sales Co,CT,2019-01-01T00:00:00-05:00,2019-02-01T00:00:00-05:00,6810,54,47.5,"{""<5"":1,""5-20"":20,""21-60"":11,""61-240"":18,"">240"":4}",4367.0,41.366602,-73.486435,444130.0,CT,9.0,9001.0,Fairfield County,90012105004.0
27281,sg:88e20292229b42c99bf8410e70a4f5b1,Gary's Family Hair Salon,CT,2019-01-01T00:00:00-05:00,2019-02-01T00:00:00-05:00,6320,1,176.0,"{""<5"":0,""5-20"":0,""21-60"":0,""61-240"":1,"">240"":0}",150.5,41.354275,-72.110391,812112.0,CT,9.0,9011.0,New London County,90116904001.0
27494,sg:9d2cf78131764ae08134b1060a687646,Blue Hills Fire Department Station 3,CT,2019-01-01T00:00:00-05:00,2019-02-01T00:00:00-05:00,6002,39,295.0,"{""<5"":0,""5-20"":9,""21-60"":4,""61-240"":6,"">240"":20}",5977.5,41.809769,-72.695992,922160.0,CT,9.0,9003.0,Hartford County,90034712002.0
27509,sg:9e9f8412c4f9440e874f6174591c4d18,J & F Auto Wholesalers,CT,2019-01-01T00:00:00-05:00,2019-02-01T00:00:00-05:00,6706,19,10.0,"{""<5"":1,""5-20"":11,""21-60"":2,""61-240"":3,"">240"":2}",1152.5,41.539547999999996,-73.037323,,CT,9.0,9009.0,New Haven County,90093519002.0
27542,sg:a180a68a33b6476e8b01c8261cbcd306,Dunkin',CT,2019-01-01T00:00:00-05:00,2019-02-01T00:00:00-05:00,6013,238,7.0,"{""<5"":21,""5-20"":140,""21-60"":17,""61-240"":34,"">240"":26}",13848.0,41.770387,-72.971519,722515.0,CT,9.0,9003.0,Hartford County,90034101011.0
27643,sg:ac978487fd4e491ab3fe35e0dbb0485b,Primal Roots Midwifery,CT,2019-01-01T00:00:00-05:00,2019-02-01T00:00:00-05:00,6052,83,171.0,"{""<5"":2,""5-20"":15,""21-60"":3,""61-240"":29,"">240"":34}",12838.5,41.665036,-72.793047,621410.0,CT,9.0,9003.0,Hartford County,90034158001.0
27683,sg:afb8c45230a34ed1a608935d1026727a,Browne & co,CT,2019-01-01T00:00:00-05:00,2019-02-01T00:00:00-05:00,6820,50,21.0,"{""<5"":2,""5-20"":22,""21-60"":13,""61-240"":8,"">240"":5}",3210.5,41.078113,-73.46962099999999,445310.0,CT,9.0,9001.0,Fairfield County,90010302003.0
27698,sg:b167c3bc752d4ff4a9c30d5b92fa4d49,Faith and Grace Reiki,CT,2019-01-01T00:00:00-05:00,2019-02-01T00:00:00-05:00,6340,175,206.0,"{""<5"":3,""5-20"":13,""21-60"":19,""61-240"":61,"">240"":79}",29080.0,41.334081,-72.076887,812199.0,CT,9.0,9011.0,New London County,90117026001.0
27824,sg:c1206b0ebdd64dc6ac431a2930366a01,Maxbella salon,CT,2019-01-01T00:00:00-05:00,2019-02-01T00:00:00-05:00,6106,8,19.0,"{""<5"":0,""5-20"":4,""21-60"":1,""61-240"":2,"">240"":1}",631.5,41.734734,-72.69693000000001,812112.0,CT,9.0,9003.0,Hartford County,90035048004.0
27966,sg:cff808c8a57648708fff80c0d709a364,Conway's Auto Repair,CT,2019-01-01T00:00:00-05:00,2019-02-01T00:00:00-05:00,6825,160,31.0,"{""<5"":7,""5-20"":43,""21-60"":57,""61-240"":35,"">240"":18}",12451.0,41.183507,-73.255889,447110.0,CT,9.0,9001.0,Fairfield County,90010610003.0
28108,sg:dd4a599dd167458e9c581816f62bfe54,Hartford Adult Rehabilitation Center,CT,2019-01-01T00:00:00-05:00,2019-02-01T00:00:00-05:00,6112,264,106.5,"{""<5"":6,""5-20"":53,""21-60"":46,""61-240"":52,"">240"":107}",36046.5,41.779951000000004,-72.700683,621330.0,CT,9.0,9003.0,Hartford County,90035037002.0
28159,sg:e1ac5d3bcc3946b6a8fff716a65c3918,We Care Family Dental Center,CT,2019-01-01T00:00:00-05:00,2019-02-01T00:00:00-05:00,6112,6,17.5,"{""<5"":0,""5-20"":4,""21-60"":0,""61-240"":1,"">240"":1}",440.5,41.783393,-72.70073599999999,621210.0,CT,9.0,9003.0,Hartford County,90035037002.0
28330,sg:f3114265192b4be4b3cb89a47f148d0c,Cumberland Farms,CT,2019-01-01T00:00:00-05:00,2019-02-01T00:00:00-05:00,6468,707,6.0,"{""<5"":85,""5-20"":524,""21-60"":69,""61-240"":23,"">240"":6}",14458.5,41.323491,-73.266531,447110.0,CT,9.0,9001.0,Fairfield County,90011001001.0
28643,sg:11a31e51a5434f73ba9f7d5221106dc2,New Haven Postal Employees Federal Credit Union,CT,2019-01-01T00:00:00-05:00,2019-02-01T00:00:00-05:00,6492,32,88.5,"{""<5"":1,""5-20"":5,""21-60"":5,""61-240"":17,"">240"":4}",3786.0,41.494397,-72.76593299999999,522110.0,CT,9.0,9009.0,New Haven County,90091760001.0
28801,sg:2022deac99c141f6840818f7e4e7a455,Fair Haven School,CT,2019-01-01T00:00:00-05:00,2019-02-01T00:00:00-05:00,6513,470,144.5,"{""<5"":5,""5-20"":72,""21-60"":68,""61-240"":155,"">240"":170}",67794.0,41.308462,-72.893413,611110.0,CT,9.0,9009.0,New Haven County,90091423002.0
28976,sg:30c5cbfcac8644c29c15f4cb1240eba6,Giannini's Pizzeria & Ristorante,CT,2019-01-01T00:00:00-05:00,2019-02-01T00:00:00-05:00,6405,5,76.0,"{""<5"":0,""5-20"":2,""21-60"":0,""61-240"":1,"">240"":2}",655.5,41.283989,-72.809674,722511.0,CT,9.0,9009.0,New Haven County,90091841001.0
29022,sg:352549ee6eb4418ca22619b57956efd8,Cole Insurance Agency,CT,2019-01-01T00:00:00-05:00,2019-02-01T00:00:00-05:00,6475,5,5.0,"{""<5"":1,""5-20"":3,""21-60"":0,""61-240"":0,"">240"":1}",280.0,41.298604,-72.377431,524210.0,CT,9.0,9007.0,Middlesex County,90076702004.0
29044,sg:3694d0ac87624a7fb360c1da40e57726,Tom's Place,CT,2019-01-01T00:00:00-05:00,2019-02-01T00:00:00-05:00,6232,26,11.0,"{""<5"":2,""5-20"":16,""21-60"":8,""61-240"":0,"">240"":0}",529.0,41.756676,-72.400325,722511.0,CT,9.0,9013.0,Tolland County,90135281001.0
29110,sg:3b835afe7d8d419c90acd73eea4faf64,Epic Driving School,CT,2019-01-01T00:00:00-05:00,2019-02-01T00:00:00-05:00,6604,1083,69.0,"{""<5"":18,""5-20"":299,""21-60"":193,""61-240"":289,"">240"":284}",123253.5,41.188718,-73.217805,453310.0,CT,9.0,9001.0,Fairfield County,90010721001.0
29186,sg:43e30fc2872c4b66a1ebbdde6cae9695,Jim's Auto Repair,CT,2019-01-01T00:00:00-05:00,2019-02-01T00:00:00-05:00,6608,137,172.0,"{""<5"":1,""5-20"":19,""21-60"":27,""61-240"":31,"">240"":59}",20159.0,41.195586,-73.181535,811111.0,CT,9.0,9001.0,Fairfield County,90010735001.0
29496,sg:6105ff3156744afd9e6cbb0870a6cdde,Black Hatchet Tattoo,CT,2019-01-01T00:00:00-05:00,2019-02-01T00:00:00-05:00,6492,5,47.0,"{""<5"":0,""5-20"":2,""21-60"":1,""61-240"":2,"">240"":0}",366.5,41.432959000000004,-72.83447199999999,812199.0,CT,9.0,9009.0,New Haven County,90091753004.0
29538,sg:661a628222da46c79cc7469921670b58,Animal Welfare Society,CT,2019-01-01T00:00:00-05:00,2019-02-01T00:00:00-05:00,6776,55,24.0,"{""<5"":3,""5-20"":21,""21-60"":18,""61-240"":12,"">240"":1}",3045.0,41.552899,-73.41229,812910.0,CT,9.0,9005.0,Litchfield County,90052536001.0
29636,sg:6f49d8c161114c17b85810af8bd3b052,KFC,CT,2019-01-01T00:00:00-05:00,2019-02-01T00:00:00-05:00,6457,55,11.0,"{""<5"":2,""5-20"":35,""21-60"":10,""61-240"":3,"">240"":5}",2499.0,41.545823999999996,-72.65105,722513.0,CT,9.0,9007.0,Middlesex County,90075420003.0
29714,sg:76a6d7345c96498788ac640c10d4098d,Tower Nails,CT,2019-01-01T00:00:00-05:00,2019-02-01T00:00:00-05:00,6460,14,5.0,"{""<5"":4,""5-20"":7,""21-60"":0,""61-240"":3,"">240"":0}",549.0,41.206471,-73.092662,812113.0,CT,9.0,9009.0,New Haven County,90091503002.0
30064,sg:9a7a4f3feea343a881995b0a64976413,West Side Children's Center,CT,2019-01-01T00:00:00-05:00,2019-02-01T00:00:00-05:00,6810,31,251.0,"{""<5"":1,""5-20"":6,""21-60"":5,""61-240"":3,"">240"":16}",4571.5,41.378513,-73.463622,624410.0,CT,9.0,9001.0,Fairfield County,90012105002.0
30102,sg:9e8b5125788c462bbcfcba94109ee6ec,Wayback Burgers,CT,2019-01-01T00:00:00-05:00,2019-02-01T00:00:00-05:00,6418,92,17.5,"{""<5"":3,""5-20"":49,""21-60"":20,""61-240"":14,"">240"":6}",4977.0,41.331164,-73.083926,722513.0,CT,9.0,9009.0,New Haven County,90091202001.0
30193,sg:a8ad58f047024ab6a30cf677ccd888df,Match Burger Lobster,CT,2019-01-01T00:00:00-05:00,2019-02-01T00:00:00-05:00,6880,119,40.0,"{""<5"":3,""5-20"":37,""21-60"":40,""61-240"":36,"">240"":3}",8228.0,41.12162,-73.370659,722511.0,CT,9.0,9001.0,Fairfield County,90010504001.0
30215,sg:aa971160178649d7ab73dfc813176a57,Harbour Inne & Cottage,CT,2019-01-01T00:00:00-05:00,2019-02-01T00:00:00-05:00,6355,22,37.5,"{""<5"":0,""5-20"":3,""21-60"":12,""61-240"":6,"">240"":1}",1666.5,41.349743,-71.966217,721110.0,CT,9.0,9011.0,New London County,90117053002.0
30386,sg:bcd7b7d214a5453ca5a991d0302ff0d8,Silk Waxing Spa,CT,2019-01-01T00:00:00-05:00,2019-02-01T00:00:00-05:00,6037,45,42.0,"{""<5"":1,""5-20"":12,""21-60"":15,""61-240"":14,"">240"":3}",3587.0,41.628001,-72.755992,446120.0,CT,9.0,9003.0,Hartford County,90034001001.0
30405,sg:bee6c71bcd66470eac03ff60c97145b8,Adult & Pediatric Dermatology Specialists,CT,2019-01-01T00:00:00-05:00,2019-02-01T00:00:00-05:00,6418,16,21.0,"{""<5"":1,""5-20"":7,""21-60"":3,""61-240"":1,"">240"":4}",1322.0,41.33639,-73.089737,621111.0,CT,9.0,9009.0,New Haven County,90091202001.0
30437,sg:c33d188d13a044a786563bd5e78157d2,GLOW Airbrush Tan & Lash Lounge,CT,2019-01-01T00:00:00-05:00,2019-02-01T00:00:00-05:00,6511,51,87.0,"{""<5"":1,""5-20"":8,""21-60"":9,""61-240"":30,"">240"":3}",5702.0,41.311058,-72.919717,812199.0,CT,9.0,9009.0,New Haven County,90091420002.0
30589,sg:d300a4055dbc422abb3083b79204d9f2,Backcountry Wellness,CT,2019-01-01T00:00:00-05:00,2019-02-01T00:00:00-05:00,6830,48,51.5,"{""<5"":0,""5-20"":11,""21-60"":15,""61-240"":21,"">240"":1}",4145.5,41.029657,-73.62356899999999,713940.0,CT,9.0,9001.0,Fairfield County,90010106001.0
30608,sg:d5b89c17fc1b47cca25922e8d7b24f36,Anita's,CT,2019-01-01T00:00:00-05:00,2019-02-01T00:00:00-05:00,6114,99,22.0,"{""<5"":7,""5-20"":41,""21-60"":23,""61-240"":15,"">240"":13}",6839.0,41.743004,-72.676737,446120.0,CT,9.0,9003.0,Hartford County,90035024001.0
30645,sg:d9231adf83c54f088e6d52c4a2b793f9,Dream Vacuum,CT,2019-01-01T00:00:00-05:00,2019-02-01T00:00:00-05:00,6071,28,121.5,"{""<5"":1,""5-20"":2,""21-60"":8,""61-240"":8,"">240"":9}",3715.5,41.983294,-72.497927,442110.0,CT,9.0,9013.0,Tolland County,90135382014.0
30784,sg:e60e0e5d1113434487b2199339252a82,Stop &amp Shop Pharmacy,CT,2019-01-01T00:00:00-05:00,2019-02-01T00:00:00-05:00,6614,219,15.0,"{""<5"":1,""5-20"":154,""21-60"":54,""61-240"":6,"">240"":4}",5977.5,41.202781,-73.116313,446110.0,,,,,
30798,sg:e7accce3e89e48c8b96b9d9e6e65fe6a,Panera Bread,CT,2019-01-01T00:00:00-05:00,2019-02-01T00:00:00-05:00,6340,458,27.0,"{""<5"":13,""5-20"":170,""21-60"":160,""61-240"":83,"">240"":32}",28809.0,41.368928000000004,-72.068995,722515.0,CT,9.0,9011.0,New London County,90118702002.0
30821,sg:ea48dcf07a14416eba1a79912b77c5bf,The Shop Sound,CT,2019-01-01T00:00:00-05:00,2019-02-01T00:00:00-05:00,6770,88,157.0,"{""<5"":1,""5-20"":12,""21-60"":15,""61-240"":29,"">240"":31}",12564.5,41.494104,-73.083507,451140.0,CT,9.0,9009.0,New Haven County,90093454005.0
30843,sg:ed2fdb93cc7540748705b7c0dd7f4e65,Wild Orchid,CT,2019-01-01T00:00:00-05:00,2019-02-01T00:00:00-05:00,6457,62,44.0,"{""<5"":0,""5-20"":19,""21-60"":22,""61-240"":12,"">240"":9}",5094.5,41.561093,-72.64866500000001,453110.0,CT,9.0,9007.0,Middlesex County,90075416001.0
30966,sg:f95f189cbe824e67b2a8fa9c23821c5b,Old G Fox Building,CT,2019-01-01T00:00:00-05:00,2019-02-01T00:00:00-05:00,6103,924,94.0,"{""<5"":7,""5-20"":129,""21-60"":203,""61-240"":369,"">240"":216}",117226.0,41.768347,-72.672125,712120.0,CT,9.0,9003.0,Hartford County,90035021002.0
31194,sg:0f1d3aeb9fe043d6aea66cc78b5d43dd,Newington Pediatrics,CT,2019-01-01T00:00:00-05:00,2019-02-01T00:00:00-05:00,6111,14,13.0,"{""<5"":1,""5-20"":9,""21-60"":3,""61-240"":0,"">240"":1}",476.5,41.703845,-72.73517700000001,621111.0,CT,9.0,9003.0,Hartford County,90034946002.0
31273,sg:1771997f40564029aed67f21fee1ec8f,Trumbull Physical Therapy and Wellness,CT,2019-01-01T00:00:00-05:00,2019-02-01T00:00:00-05:00,6611,31,33.0,"{""<5"":2,""5-20"":9,""21-60"":7,""61-240"":13,"">240"":0}",2357.5,41.278022,-73.22921099999999,713940.0,CT,9.0,9001.0,Fairfield County,90010902004.0
31279,sg:17d1e2a165564d9f83bf814552be4a34,The Paper Store,CT,2019-01-01T00:00:00-05:00,2019-02-01T00:00:00-05:00,6615,81,17.0,"{""<5"":6,""5-20"":46,""21-60"":15,""61-240"":10,"">240"":4}",3662.5,41.197194,-73.123168,453220.0,CT,9.0,9001.0,Fairfield County,90010807001.0
31328,sg:1c82ba441e384992b130600c2a091d65,Park Playground 32,CT,2019-01-01T00:00:00-05:00,2019-02-01T00:00:00-05:00,6112,60,60.0,"{""<5"":0,""5-20"":16,""21-60"":17,""61-240"":22,"">240"":5}",5399.5,41.796104,-72.699917,713990.0,CT,9.0,9003.0,Hartford County,90035039002.0
31459,sg:288a46b3b4494342846e1723ae126f83,Michaels Stores,CT,2019-01-01T00:00:00-05:00,2019-02-01T00:00:00-05:00,6053,258,20.0,"{""<5"":10,""5-20"":120,""21-60"":84,""61-240"":17,"">240"":27}",13965.5,41.715001,-72.765902,451120.0,CT,9.0,9003.0,Hartford County,90034174001.0
31476,sg:29f8796d799442b3b09bc53b8daec327,Veterans Memorial Park,CT,2019-01-01T00:00:00-05:00,2019-02-01T00:00:00-05:00,6096,48,98.5,"{""<5"":0,""5-20"":13,""21-60"":6,""61-240"":16,"">240"":13}",5933.5,41.919546000000004,-72.655406,712120.0,CT,9.0,9003.0,Hartford County,90034763004.0
31709,sg:427d54b6dfe34de1b8bcfa7e3a202a33,CareMore Care Center,CT,2019-01-01T00:00:00-05:00,2019-02-01T00:00:00-05:00,6513,73,41.0,"{""<5"":3,""5-20"":25,""21-60"":15,""61-240"":17,"">240"":13}",6606.0,41.323614,-72.84168100000001,621111.0,CT,9.0,9009.0,New Haven County,90091806012.0
31783,sg:490c2b2d638d4ef0b51a7efde78c025e,Norwich Holistic Health Center,CT,2019-01-01T00:00:00-05:00,2019-02-01T00:00:00-05:00,6360,17,21.0,"{""<5"":1,""5-20"":6,""21-60"":4,""61-240"":5,"">240"":1}",1232.0,41.541253000000005,-72.08610999999999,621111.0,CT,9.0,9011.0,New London County,90116965003.0
31799,sg:4ae21f0810b045908d4747a0cdc4229d,Jiffy Lube,CT,2019-01-01T00:00:00-05:00,2019-02-01T00:00:00-05:00,6614,11,84.0,"{""<5"":0,""5-20"":1,""21-60"":2,""61-240"":8,"">240"":0}",1297.5,41.197811,-73.134766,811191.0,CT,9.0,9001.0,Fairfield County,90010807002.0
31929,sg:5674e44fcf374e7b94d6e93e8c1e70af,Center For Allergy Asthma & Immunology,CT,2019-01-01T00:00:00-05:00,2019-02-01T00:00:00-05:00,6708,1,10.0,"{""<5"":0,""5-20"":1,""21-60"":0,""61-240"":0,"">240"":0}",12.5,41.549503,-73.066253,621111.0,CT,9.0,9009.0,New Haven County,90093518002.0
31935,sg:5732277014324cafb992cb7a575c54c0,Olive Garden,CT,2019-01-01T00:00:00-05:00,2019-02-01T00:00:00-05:00,6473,539,49.0,"{""<5"":5,""5-20"":112,""21-60"":224,""61-240"":189,"">240"":9}",41089.0,41.355076000000004,-72.87235600000001,722511.0,CT,9.0,9009.0,New Haven County,90091672012.0
31956,sg:5955d198ac7042a5b4b0d66bb028a271,Duchess Family Restaurant of Orange,CT,2019-01-01T00:00:00-05:00,2019-02-01T00:00:00-05:00,6477,266,11.0,"{""<5"":9,""5-20"":162,""21-60"":62,""61-240"":31,"">240"":2}",9704.0,41.268431,-72.998852,722511.0,CT,9.0,9009.0,New Haven County,90091571001.0
32030,sg:603859121bc841fcab42bd1ecd8192d8,Devon Suozzi LCSW,CT,2019-01-01T00:00:00-05:00,2019-02-01T00:00:00-05:00,6840,6,15.0,"{""<5"":0,""5-20"":4,""21-60"":0,""61-240"":2,"">240"":0}",351.0,41.144282000000004,-73.497043,621330.0,CT,9.0,9001.0,Fairfield County,90010351004.0
32077,sg:636a5af409404550bfd57a19fe87d1c4,Alfredo's Deli,CT,2019-01-01T00:00:00-05:00,2019-02-01T00:00:00-05:00,6790,154,41.0,"{""<5"":3,""5-20"":47,""21-60"":31,""61-240"":37,"">240"":36}",16059.0,41.802273,-73.12603299999999,722511.0,CT,9.0,9005.0,Litchfield County,90053102002.0
32083,sg:6434decfb7f94275b1a2e5c953dfac96,Middletown Kenpo Karate School,CT,2019-01-01T00:00:00-05:00,2019-02-01T00:00:00-05:00,6457,130,19.0,"{""<5"":4,""5-20"":71,""21-60"":36,""61-240"":15,"">240"":4}",5573.0,41.547354,-72.6389,713940.0,CT,9.0,9007.0,Middlesex County,90075420001.0
32192,sg:6e39cf497d434c09974cf966d80ccc65,Lois Rae Massage & Bodywork,CT,2019-01-01T00:00:00-05:00,2019-02-01T00:00:00-05:00,6371,46,166.5,"{""<5"":0,""5-20"":3,""21-60"":9,""61-240"":32,"">240"":2}",5698.0,41.325244,-72.335616,812199.0,CT,9.0,9011.0,New London County,90116601012.0
32204,sg:6f19efa5b26f4e199d15c7f2ddf1e0b1,Planet Fitness,CT,2019-01-01T00:00:00-05:00,2019-02-01T00:00:00-05:00,6850,489,47.0,"{""<5"":6,""5-20"":85,""21-60"":218,""61-240"":148,"">240"":32}",39860.5,41.138839000000004,-73.427581,713940.0,CT,9.0,9001.0,Fairfield County,90010427002.0
