,safegraph_place_id,location_name,region,date_range_start,date_range_end,postal_code,raw_visit_counts,median_dwell,bucketed_dwell_times,est_total_dwell,latitude,longitude,naics_code,state,stateFIPS,countyFIPS,countyName,CBGFIPS
474,sg:2bdd9e2119444dd2a52e2803c3168605,Quonnie Bait and Tackle,RI,2019-12-01T00:00:00-05:00,2020-01-01T00:00:00-05:00,2813,17,32.0,"{""<5"":0,""5-20"":8,""21-60"":6,""61-240"":2,"">240"":1}",884.0,41.355756,-71.7186,451110.0,RI,44.0,44009.0,Washington County,440090511013.0
544,sg:32c80b7e04234d7dab8c35f7f53904b4,Subway,RI,2019-12-01T00:00:00-05:00,2020-01-01T00:00:00-05:00,2889,278,16.0,"{""<5"":4,""5-20"":163,""21-60"":71,""61-240"":27,"">240"":13}",12106.5,41.732815,-71.40901,722513.0,RI,44.0,44003.0,Kent County,440030214013.0
587,sg:3699ed80a9f14e2d9cca66062253e1f9,Annie's,RI,2019-12-01T00:00:00-05:00,2020-01-01T00:00:00-05:00,2840,158,27.5,"{""<5"":4,""5-20"":55,""21-60"":47,""61-240"":34,"">240"":18}",12038.0,41.483338,-71.30825,722513.0,RI,44.0,44005.0,Newport County,440050408001.0
949,sg:599cd790d38a4ccba183d68f18c78613,Koch Eye Associates,RI,2019-12-01T00:00:00-05:00,2020-01-01T00:00:00-05:00,2852,188,42.5,"{""<5"":5,""5-20"":55,""21-60"":54,""61-240"":32,"">240"":42}",17783.0,41.585869,-71.45889100000001,621111.0,RI,44.0,44009.0,Washington County,440090501022.0
1027,sg:619f9afdfbb241c5808fbb6b8e6af7bd,D Palmieri's Bakery,RI,2019-12-01T00:00:00-05:00,2020-01-01T00:00:00-05:00,2919,325,16.0,"{""<5"":10,""5-20"":170,""21-60"":45,""61-240"":26,"">240"":74}",25645.5,41.828801,-71.473062,722511.0,RI,44.0,44007.0,Providence County,440070124013.0
1222,sg:72ed1e1199b74dc1b3002565813e6105,The Children's Workshop,RI,2019-12-01T00:00:00-05:00,2020-01-01T00:00:00-05:00,2885,37,102.0,"{""<5"":0,""5-20"":13,""21-60"":3,""61-240"":13,"">240"":8}",4160.5,41.729763,-71.267742,624410.0,RI,44.0,44001.0,Bristol County,440010306011.0
2604,sg:fef902ca79f64b3286d4e83d1a4322c9,Uncle Sushi & Grill,RI,2019-12-01T00:00:00-05:00,2020-01-01T00:00:00-05:00,2910,384,23.0,"{""<5"":11,""5-20"":158,""21-60"":135,""61-240"":41,"">240"":39}",23000.5,41.783145000000005,-71.438237,722511.0,RI,44.0,44007.0,Providence County,440070140001.0
2645,sg:03facac022b94808ae2cf95fd458535e,Trombetti Al Music Center,RI,2019-12-01T00:00:00-05:00,2020-01-01T00:00:00-05:00,2889,165,50.0,"{""<5"":9,""5-20"":36,""21-60"":47,""61-240"":62,"">240"":11}",14347.0,41.70135,-71.397909,451140.0,RI,44.0,44003.0,Kent County,440030218002.0
2887,sg:1a6a3e0b49964b3ebf0688174cf726ec,Kodos Jewelry,RI,2019-12-01T00:00:00-05:00,2020-01-01T00:00:00-05:00,2904,117,33.0,"{""<5"":1,""5-20"":41,""21-60"":34,""61-240"":31,"">240"":10}",8957.5,41.854215,-71.446579,448310.0,RI,44.0,44007.0,Providence County,440070119012.0
3004,sg:257c5292d38e41d29f8a548678e4ff8e,Ryder,RI,2019-12-01T00:00:00-05:00,2020-01-01T00:00:00-05:00,2888,17,8.0,"{""<5"":1,""5-20"":13,""21-60"":2,""61-240"":1,"">240"":0}",396.5,41.75457,-71.438726,532120.0,RI,44.0,44003.0,Kent County,440030211002.0
3370,sg:47f206e483364073a0cdc10e4f58699f,Atbee,RI,2019-12-01T00:00:00-05:00,2020-01-01T00:00:00-05:00,2906,21,109.0,"{""<5"":0,""5-20"":5,""21-60"":4,""61-240"":10,"">240"":2}",2209.5,41.829137,-71.405326,611691.0,RI,44.0,44007.0,Providence County,440070036023.0
4337,sg:a0bd74cb4b8d4edfaf6ac6cb20c0f7dd,Tavern on Main,RI,2019-12-01T00:00:00-05:00,2020-01-01T00:00:00-05:00,2818,255,70.0,"{""<5"":2,""5-20"":30,""21-60"":73,""61-240"":122,"">240"":28}",28417.5,41.663268,-71.449774,722511.0,RI,44.0,44003.0,Kent County,440030209011.0
4338,sg:a0cea614995c4910a583073f54e4b37b,Medical Associates of Rhode Island,RI,2019-12-01T00:00:00-05:00,2020-01-01T00:00:00-05:00,2809,212,52.0,"{""<5"":3,""5-20"":43,""21-60"":74,""61-240"":41,"">240"":51}",21952.5,41.695347999999996,-71.278964,621111.0,RI,44.0,44001.0,Bristol County,440010309021.0
4647,sg:bbb35ce9b8f740b5af829261f570e18e,Ninigret Orthopedics,RI,2019-12-01T00:00:00-05:00,2020-01-01T00:00:00-05:00,2891,6,44.5,"{""<5"":0,""5-20"":2,""21-60"":1,""61-240"":3,"">240"":0}",517.0,41.361057,-71.829341,621111.0,RI,44.0,44009.0,Washington County,440090508022.0
4919,sg:d5eec556d3d345ca8bb3783bd181e1ab,Lincoln Central Elem,RI,2019-12-01T00:00:00-05:00,2020-01-01T00:00:00-05:00,2865,129,41.0,"{""<5"":2,""5-20"":49,""21-60"":18,""61-240"":21,"">240"":39}",13867.0,41.928717,-71.44569200000001,611110.0,RI,44.0,44007.0,Providence County,440070116001.0
5186,sg:eec7cc5d4f4b465e92cb9b9b66abcec0,Coastal Roasters,RI,2019-12-01T00:00:00-05:00,2020-01-01T00:00:00-05:00,2878,52,10.5,"{""<5"":1,""5-20"":29,""21-60"":10,""61-240"":9,"">240"":3}",2844.5,41.626948,-71.213077,722515.0,RI,44.0,44005.0,Newport County,440050416021.0
6045,sg:3ed67f65ca30493db32d8a5146f6fde0,Paolucci Dental Associates,RI,2019-12-01T00:00:00-05:00,2020-01-01T00:00:00-05:00,2911,13,45.0,"{""<5"":0,""5-20"":0,""21-60"":8,""61-240"":4,"">240"":1}",1166.0,41.850871999999995,-71.46270200000001,621210.0,RI,44.0,44007.0,Providence County,440070120001.0
6376,sg:5fdd0dcfc35641dbadc7f94bc2bd4dcf,South County Artificial Limb,RI,2019-12-01T00:00:00-05:00,2020-01-01T00:00:00-05:00,2879,82,80.0,"{""<5"":2,""5-20"":24,""21-60"":9,""61-240"":40,"">240"":7}",8369.5,41.440695,-71.494445,446199.0,RI,44.0,44009.0,Washington County,440090512021.0
6395,sg:617ab26b692a47b6bff38e4a19ff39d1,1020 1050 Tiogue Ave,RI,2019-12-01T00:00:00-05:00,2020-01-01T00:00:00-05:00,2816,201,14.0,"{""<5"":4,""5-20"":118,""21-60"":39,""61-240"":21,"">240"":19}",10785.0,41.679167,-71.577579,531120.0,RI,44.0,44003.0,Kent County,440030206033.0
6464,sg:66d804aee0f34c559257bcaed6ee5e74,Merengue Restaurant,RI,2019-12-01T00:00:00-05:00,2020-01-01T00:00:00-05:00,2907,187,21.0,"{""<5"":12,""5-20"":78,""21-60"":35,""61-240"":45,"">240"":17}",13275.0,41.810194,-71.432651,722511.0,RI,44.0,44007.0,Providence County,440070014001.0
6794,sg:87d9e377d27e4b5f919cab8b5a76eca9,Such A Bagel,RI,2019-12-01T00:00:00-05:00,2020-01-01T00:00:00-05:00,2917,5,59.0,"{""<5"":0,""5-20"":1,""21-60"":3,""61-240"":1,"">240"":0}",284.5,41.918784,-71.516378,722515.0,RI,44.0,44007.0,Providence County,440070126011.0
7600,sg:d6df5a045b85416b99c2023ec3de087b,Green Hill Park,RI,2019-12-01T00:00:00-05:00,2020-01-01T00:00:00-05:00,2879,3,33.0,"{""<5"":0,""5-20"":1,""21-60"":2,""61-240"":0,"">240"":0}",93.5,41.379205999999996,-71.602645,712190.0,RI,44.0,44009.0,Washington County,440090513025.0
7691,sg:e0c8aa1460714bc6ba6089a5f3257887,Sig's Place,RI,2019-12-01T00:00:00-05:00,2020-01-01T00:00:00-05:00,2842,32,10.5,"{""<5"":1,""5-20"":19,""21-60"":0,""61-240"":1,"">240"":11}",3030.5,41.519371,-71.282865,722511.0,RI,44.0,44005.0,Newport County,440050404002.0
8147,sg:0ecb8a5dda9743d2b139fa6c7e2c6500,Kay's Restaurant,RI,2019-12-01T00:00:00-05:00,2020-01-01T00:00:00-05:00,2895,381,50.0,"{""<5"":6,""5-20"":73,""21-60"":144,""61-240"":120,"">240"":38}",33939.5,42.003935999999996,-71.480694,722511.0,RI,44.0,44007.0,Providence County,440070185001.0
8254,sg:1892b001b4d943f8a4518a3b1ddb9788,Four Corners Community Chapel,RI,2019-12-01T00:00:00-05:00,2020-01-01T00:00:00-05:00,2864,74,72.0,"{""<5"":1,""5-20"":22,""21-60"":12,""61-240"":21,"">240"":18}",8244.0,41.946782,-71.403909,813110.0,RI,44.0,44007.0,Providence County,440070114012.0
8684,sg:401a87862d5149f4a58a8a6a80e76563,Stop & Shop,RI,2019-12-01T00:00:00-05:00,2020-01-01T00:00:00-05:00,2889,1919,18.0,"{""<5"":58,""5-20"":1042,""21-60"":667,""61-240"":99,"">240"":53}",67803.0,41.710240999999996,-71.397266,445110.0,RI,44.0,44003.0,Kent County,440030218001.0
9046,sg:612180922b39486281a9eb5c296800a3,Teixeira Gilbert M DO,RI,2019-12-01T00:00:00-05:00,2020-01-01T00:00:00-05:00,2914,32,38.5,"{""<5"":2,""5-20"":11,""21-60"":10,""61-240"":8,"">240"":1}",1991.5,41.809497,-71.34236800000001,621111.0,RI,44.0,44007.0,Providence County,440070103002.0
9133,sg:6b030d41c45a4113928dc4e4141c1b3c,Blue Dragonfly Wellness,RI,2019-12-01T00:00:00-05:00,2020-01-01T00:00:00-05:00,2852,7,14.0,"{""<5"":0,""5-20"":4,""21-60"":2,""61-240"":1,"">240"":0}",281.5,41.612327,-71.456329,713940.0,RI,44.0,44009.0,Washington County,440090501031.0
9778,sg:a9f3175d18034fb5830e166bf407b1b9,Pettis Frank C III Boat Yard,RI,2019-12-01T00:00:00-05:00,2020-01-01T00:00:00-05:00,2888,14,234.5,"{""<5"":0,""5-20"":5,""21-60"":0,""61-240"":2,"">240"":7}",2043.5,41.758963,-71.387587,441222.0,RI,44.0,44003.0,Kent County,440030210022.0
9788,sg:aadf54a7acd54b799313030a88efe689,Station 1,RI,2019-12-01T00:00:00-05:00,2020-01-01T00:00:00-05:00,2909,231,21.0,"{""<5"":4,""5-20"":111,""21-60"":35,""61-240"":47,"">240"":34}",18048.5,41.825695,-71.458081,447110.0,RI,44.0,44007.0,Providence County,440070020003.0
10039,sg:c43ff5267bfb4625978d1650129fd165,Providence Fire Department Engine Company 10 Ladder Company 5 Rescue 1,RI,2019-12-01T00:00:00-05:00,2020-01-01T00:00:00-05:00,2907,212,119.5,"{""<5"":0,""5-20"":30,""21-60"":34,""61-240"":85,"">240"":63}",29664.5,41.800715000000004,-71.418283,922160.0,RI,44.0,44007.0,Providence County,440070003004.0
10156,sg:cfa78d1df32d48669adfd1013c5581aa,Planet Fitness,RI,2019-12-01T00:00:00-05:00,2020-01-01T00:00:00-05:00,2852,607,45.0,"{""<5"":1,""5-20"":96,""21-60"":320,""61-240"":174,"">240"":16}",44189.5,41.63065,-71.46690600000001,713940.0,RI,44.0,44009.0,Washington County,440090501035.0
10281,sg:dc651162a1214c9b8e52714030b2da7e,Resolute Wealth Management,RI,2019-12-01T00:00:00-05:00,2020-01-01T00:00:00-05:00,2906,22,62.5,"{""<5"":1,""5-20"":5,""21-60"":5,""61-240"":9,"">240"":2}",2102.0,41.835684,-71.39846899999999,523930.0,RI,44.0,44007.0,Providence County,440070034004.0
10602,sg:fdc5f7812bd84aacbf4b814de4d0a4bf,R and D Donuts,RI,2019-12-01T00:00:00-05:00,2020-01-01T00:00:00-05:00,2889,117,5.0,"{""<5"":17,""5-20"":98,""21-60"":2,""61-240"":0,"">240"":0}",1348.5,41.705076,-71.419397,722515.0,RI,44.0,44003.0,Kent County,440030219022.0
10844,sg:146c1e49e28c4c48a2944928ff24d210,Conimicut Point Park,RI,2019-12-01T00:00:00-05:00,2020-01-01T00:00:00-05:00,2889,88,14.5,"{""<5"":0,""5-20"":49,""21-60"":30,""61-240"":9,"">240"":0}",3182.0,41.715847,-71.360866,712190.0,RI,44.0,44003.0,Kent County,440030215014.0
11145,sg:33655fc28eb34ccca3c5724fdac6f266,Andrade's Catch & Wholesale Shellfish,RI,2019-12-01T00:00:00-05:00,2020-01-01T00:00:00-05:00,2809,80,28.5,"{""<5"":1,""5-20"":33,""21-60"":19,""61-240"":15,"">240"":12}",6322.0,41.666146999999995,-71.26895999999999,445220.0,RI,44.0,44001.0,Bristol County,440010308002.0
11786,sg:7220ccfba0854e8c9d98bad73520eb00,Sticky Rice Restaurant,RI,2019-12-01T00:00:00-05:00,2020-01-01T00:00:00-05:00,2909,101,16.0,"{""<5"":7,""5-20"":49,""21-60"":19,""61-240"":14,"">240"":12}",6386.5,41.809202,-71.454939,722511.0,RI,44.0,44007.0,Providence County,440070017001.0
11903,sg:7d460c97d81548a2904f718dc6ee53e5,RI Neuropathy Relief,RI,2019-12-01T00:00:00-05:00,2020-01-01T00:00:00-05:00,2914,74,107.5,"{""<5"":0,""5-20"":12,""21-60"":12,""61-240"":27,"">240"":23}",10219.5,41.817882,-71.369223,621310.0,RI,44.0,44007.0,Providence County,440070102006.0
12036,sg:89e1f47e14c74573b27aaa25017c670e,ROUTE 146A Auto Repair & Sales,RI,2019-12-01T00:00:00-05:00,2020-01-01T00:00:00-05:00,2896,16,13.0,"{""<5"":0,""5-20"":11,""21-60"":3,""61-240"":1,"">240"":1}",649.5,41.999999,-71.555204,441120.0,RI,44.0,44007.0,Providence County,440070128013.0
12279,sg:a1fbb5680e30499380938d4e90af3e30,Ace Hardware,RI,2019-12-01T00:00:00-05:00,2020-01-01T00:00:00-05:00,2864,18,14.0,"{""<5"":1,""5-20"":12,""21-60"":1,""61-240"":1,"">240"":3}",1063.5,41.950479,-71.44211899999999,444130.0,RI,44.0,44007.0,Providence County,440070114034.0
12425,sg:b1f1514f35e945a8982351b0338fab31,Father Lennon Park,RI,2019-12-01T00:00:00-05:00,2020-01-01T00:00:00-05:00,2908,271,61.0,"{""<5"":3,""5-20"":70,""21-60"":61,""61-240"":81,"">240"":56}",28983.5,41.838026,-71.427177,712190.0,RI,44.0,44007.0,Providence County,440070026003.0
12445,sg:b39158c267804b639170d431a40a882f,Leroy Thompson Memorial Park,RI,2019-12-01T00:00:00-05:00,2020-01-01T00:00:00-05:00,2882,116,65.5,"{""<5"":2,""5-20"":32,""21-60"":20,""61-240"":32,"">240"":30}",13231.0,41.424966999999995,-71.459629,712190.0,RI,44.0,44009.0,Washington County,440090515032.0
12448,sg:b3d9173b03c0440b9e520b0204c1632e,DMK Sports,RI,2019-12-01T00:00:00-05:00,2020-01-01T00:00:00-05:00,2917,200,64.0,"{""<5"":2,""5-20"":39,""21-60"":53,""61-240"":77,"">240"":29}",21187.5,41.872919,-71.531917,451110.0,RI,44.0,44007.0,Providence County,440070127023.0
12494,sg:b8972ec7d0204f4abba1c0cbb919c5d6,Ginger's Car Wash,RI,2019-12-01T00:00:00-05:00,2020-01-01T00:00:00-05:00,2891,1,267.0,"{""<5"":0,""5-20"":0,""21-60"":0,""61-240"":0,"">240"":1}",240.0,41.38418,-71.812247,811192.0,RI,44.0,44009.0,Washington County,440090509013.0
12545,sg:be8dcde0242644fa8dc52a2e30073587,Icon Tax Services,RI,2019-12-01T00:00:00-05:00,2020-01-01T00:00:00-05:00,2886,47,37.0,"{""<5"":1,""5-20"":16,""21-60"":12,""61-240"":16,"">240"":2}",3576.5,41.682732,-71.45063,541213.0,RI,44.0,44003.0,Kent County,440030220003.0
12604,sg:c4d63ced032244aebf81b1749688e67e,United States Postal Service (USPS),RI,2019-12-01T00:00:00-05:00,2020-01-01T00:00:00-05:00,2889,54,77.0,"{""<5"":0,""5-20"":15,""21-60"":11,""61-240"":10,"">240"":18}",6458.0,41.722915,-71.38117700000001,491110.0,RI,44.0,44003.0,Kent County,440030215011.0
13526,sg:1c04929d204d4db19aa3912e8b1ecb39,Agway,RI,2019-12-01T00:00:00-05:00,2020-01-01T00:00:00-05:00,2871,59,13.0,"{""<5"":2,""5-20"":33,""21-60"":9,""61-240"":7,"">240"":8}",3755.5,41.570236,-71.251793,444220.0,RI,44.0,44005.0,Newport County,440050401036.0
13544,sg:1d4b632d4f2c4e9488c11c245534e7b9,Jersey Mike's,RI,2019-12-01T00:00:00-05:00,2020-01-01T00:00:00-05:00,2919,367,12.0,"{""<5"":14,""5-20"":223,""21-60"":81,""61-240"":43,"">240"":6}",14014.5,41.820736,-71.49846,722513.0,RI,44.0,44007.0,Providence County,440070124015.0
13818,sg:362bed5bc7504e7f8ed88fea10c77637,The Cheese Wheel Village Market,RI,2019-12-01T00:00:00-05:00,2020-01-01T00:00:00-05:00,2878,45,26.0,"{""<5"":2,""5-20"":16,""21-60"":14,""61-240"":7,"">240"":6}",3265.5,41.572748,-71.18770699999999,453220.0,RI,44.0,44005.0,Newport County,440050417022.0
13855,sg:39af88abc0e94df9a3625064b7092b2e,Dr Day Care's Child Dev Center,RI,2019-12-01T00:00:00-05:00,2020-01-01T00:00:00-05:00,2825,50,288.0,"{""<5"":1,""5-20"":7,""21-60"":2,""61-240"":7,"">240"":33}",9144.5,41.855201,-71.75174,624410.0,RI,44.0,44007.0,Providence County,440070133001.0
14572,sg:7a814d34a8df48e3899f9a0d76fdbed0,B & E Gasand Service,RI,2019-12-01T00:00:00-05:00,2020-01-01T00:00:00-05:00,2915,205,98.0,"{""<5"":7,""5-20"":53,""21-60"":28,""61-240"":36,"">240"":81}",26672.0,41.781363,-71.3636,447110.0,RI,44.0,44007.0,Providence County,440070105021.0
14694,sg:85ca79513d734e1fa963c39afd8194c5,Forte Fashion Inc,RI,2019-12-01T00:00:00-05:00,2020-01-01T00:00:00-05:00,2886,102,134.0,"{""<5"":0,""5-20"":19,""21-60"":18,""61-240"":33,"">240"":32}",13613.0,41.709821999999996,-71.42292900000001,448120.0,RI,44.0,44003.0,Kent County,440030219021.0
15019,sg:a5a1de7d033d4fe1ba169aa9edd359fe,Creative Impressions by Jeanne's,RI,2019-12-01T00:00:00-05:00,2020-01-01T00:00:00-05:00,2838,71,140.0,"{""<5"":5,""5-20"":12,""21-60"":9,""61-240"":19,"">240"":26}",9626.5,41.973106,-71.477327,812113.0,RI,44.0,44007.0,Providence County,440070115004.0
15032,sg:a6b94bfa62964386bba370d0f6297b89,Skinsational Laser Center,RI,2019-12-01T00:00:00-05:00,2020-01-01T00:00:00-05:00,2904,19,49.0,"{""<5"":0,""5-20"":5,""21-60"":6,""61-240"":4,"">240"":4}",1867.5,41.836944,-71.410427,621111.0,RI,44.0,44007.0,Providence County,440070031005.0
15108,sg:aeb4e1e1deca48b19c82da20f2e09994,Lakewood Ice Cream,RI,2019-12-01T00:00:00-05:00,2020-01-01T00:00:00-05:00,2888,38,30.5,"{""<5"":1,""5-20"":16,""21-60"":6,""61-240"":6,"">240"":9}",3508.5,41.755247,-71.412402,722515.0,RI,44.0,44003.0,Kent County,440030210012.0
15174,sg:b4144280ac094068a502ae78a34afcff,All Your Need,RI,2019-12-01T00:00:00-05:00,2020-01-01T00:00:00-05:00,2910,37,30.0,"{""<5"":2,""5-20"":11,""21-60"":12,""61-240"":11,"">240"":1}",2524.0,41.761717,-71.434043,621610.0,RI,44.0,44007.0,Providence County,440070138002.0
15212,sg:b844e3d7a01d4802bb2633c4323fe2b8,Provencal Bakery & Cafe,RI,2019-12-01T00:00:00-05:00,2020-01-01T00:00:00-05:00,2840,47,37.0,"{""<5"":1,""5-20"":19,""21-60"":9,""61-240"":10,"">240"":8}",4029.5,41.498915000000004,-71.30666,722515.0,RI,44.0,44005.0,Newport County,440050406002.0
15323,sg:c2e789bed3684f6ab8e33a63531c1824,University Gastroenterology,RI,2019-12-01T00:00:00-05:00,2020-01-01T00:00:00-05:00,2871,11,9.0,"{""<5"":0,""5-20"":9,""21-60"":0,""61-240"":2,"">240"":0}",413.5,41.624542,-71.24262,621111.0,RI,44.0,44005.0,Newport County,440050401012.0
15328,sg:c381b36e6e1e44c18fbc894f40af50ef,Anchor Toffee,RI,2019-12-01T00:00:00-05:00,2020-01-01T00:00:00-05:00,2885,114,30.0,"{""<5"":2,""5-20"":41,""21-60"":49,""61-240"":21,"">240"":1}",5902.5,41.726461,-71.28129799999999,445292.0,RI,44.0,44001.0,Bristol County,440010305002.0
15593,sg:e0987764d8fb4edd946c13f8f2c76e98,Apple Blossom Preschool Elc,RI,2019-12-01T00:00:00-05:00,2020-01-01T00:00:00-05:00,2806,62,73.0,"{""<5"":3,""5-20"":9,""21-60"":14,""61-240"":34,"">240"":2}",6284.0,41.735831,-71.301963,624410.0,RI,44.0,44001.0,Bristol County,440010304001.0
15618,sg:e2c9393b479143ad86897b8aa368d4f9,Sprague Farm,RI,2019-12-01T00:00:00-05:00,2020-01-01T00:00:00-05:00,2814,4,14.0,"{""<5"":0,""5-20"":2,""21-60"":1,""61-240"":1,"">240"":0}",216.0,41.90525,-71.692477,712190.0,RI,44.0,44007.0,Providence County,440070131013.0
15874,sg:ff36f96d290e495fbd4b92f0e2867ace,Art Cafe,RI,2019-12-01T00:00:00-05:00,2020-01-01T00:00:00-05:00,2837,24,23.0,"{""<5"":0,""5-20"":10,""21-60"":5,""61-240"":1,"">240"":8}",2398.0,41.508549,-71.171115,722511.0,RI,44.0,44005.0,Newport County,440050414001.0
15956,sg:0657c023b8404357b8749e2525451e4e,Fortunato's Hair Salon,RI,2019-12-01T00:00:00-05:00,2020-01-01T00:00:00-05:00,2914,2,20.0,"{""<5"":0,""5-20"":1,""21-60"":1,""61-240"":0,"">240"":0}",53.0,41.812181,-71.36239300000001,812112.0,RI,44.0,44007.0,Providence County,440070105012.0
16103,sg:1314eaed83ec4fa299e52e239d93b608,Christy&amp Son Associates,RI,2019-12-01T00:00:00-05:00,2020-01-01T00:00:00-05:00,2886,14,18.5,"{""<5"":0,""5-20"":7,""21-60"":5,""61-240"":2,"">240"":0}",591.0,41.699877,-71.443675,561740.0,RI,44.0,44003.0,Kent County,440030219033.0
16505,sg:38c416793e494f459d31e24f55c0458e,Mr Nice Guy Handyman Services,RI,2019-12-01T00:00:00-05:00,2020-01-01T00:00:00-05:00,2911,55,120.0,"{""<5"":1,""5-20"":10,""21-60"":7,""61-240"":17,"">240"":20}",7769.5,41.855828,-71.471843,444130.0,RI,44.0,44007.0,Providence County,440070120005.0
16733,sg:4eedbd4413534a62996c491f209f514f,Calmar Pain Relief Therapy,RI,2019-12-01T00:00:00-05:00,2020-01-01T00:00:00-05:00,2893,50,100.5,"{""<5"":1,""5-20"":13,""21-60"":8,""61-240"":8,"">240"":20}",6493.0,41.690476000000004,-71.50170200000001,621111.0,RI,44.0,44003.0,Kent County,440030201021.0
17429,sg:907093cb1dba46b5b722310f7b18940b,Highlander Charter,RI,2019-12-01T00:00:00-05:00,2020-01-01T00:00:00-05:00,2907,76,64.0,"{""<5"":1,""5-20"":15,""21-60"":17,""61-240"":28,"">240"":15}",8692.5,41.799301,-71.418286,611110.0,RI,44.0,44007.0,Providence County,440070002001.0
17768,sg:b419223004ee48e3a2f9a0870809a6ee,Whole Home Solutions,RI,2019-12-01T00:00:00-05:00,2020-01-01T00:00:00-05:00,2816,2,46.0,"{""<5"":0,""5-20"":1,""21-60"":0,""61-240"":1,"">240"":0}",163.0,41.697554,-71.544962,621610.0,RI,44.0,44003.0,Kent County,440030206041.0
17780,sg:b5380c159f434f78bb6584a170cff349,Psychological Associates of Warwick,RI,2019-12-01T00:00:00-05:00,2020-01-01T00:00:00-05:00,2886,8,57.0,"{""<5"":0,""5-20"":3,""21-60"":1,""61-240"":4,"">240"":0}",680.0,41.697528999999996,-71.49318199999999,621330.0,RI,44.0,44003.0,Kent County,440030222021.0
17985,sg:c8a6b6d50db04d7b9d05c2fe02653623,Parkside Rotisserie & Bar,RI,2019-12-01T00:00:00-05:00,2020-01-01T00:00:00-05:00,2903,173,105.0,"{""<5"":1,""5-20"":35,""21-60"":33,""61-240"":59,"">240"":45}",21456.0,41.82492,-71.40690699999999,722511.0,RI,44.0,44007.0,Providence County,440070036021.0
18484,sg:faf0567ae66d4e4fa8b5a6e3ae20808e,Episcopal Church Studies,RI,2019-12-01T00:00:00-05:00,2020-01-01T00:00:00-05:00,2915,6,44.0,"{""<5"":0,""5-20"":1,""21-60"":3,""61-240"":1,"">240"":1}",524.5,41.771190000000004,-71.360781,813110.0,RI,44.0,44007.0,Providence County,440070106002.0
18497,sg:fc2d59a513794d99b98558bc0b025da3,Advance Auto Parts,RI,2019-12-01T00:00:00-05:00,2020-01-01T00:00:00-05:00,2888,67,10.0,"{""<5"":4,""5-20"":45,""21-60"":8,""61-240"":7,"">240"":3}",2670.0,41.741188,-71.406688,441310.0,RI,44.0,44003.0,Kent County,440030213004.0
18809,sg:1a6198263b3b4ea5815aa9fdc7e26c39,Brookdale,RI,2019-12-01T00:00:00-05:00,2020-01-01T00:00:00-05:00,2816,298,52.5,"{""<5"":2,""5-20"":80,""21-60"":70,""61-240"":92,"">240"":54}",30646.0,41.662096999999996,-71.559832,623110.0,RI,44.0,44003.0,Kent County,440030206033.0
19734,sg:6cc765010fe74223b183b01476e35d4f,Salon Trio,RI,2019-12-01T00:00:00-05:00,2020-01-01T00:00:00-05:00,2809,1,222.0,"{""<5"":0,""5-20"":0,""21-60"":0,""61-240"":1,"">240"":0}",150.5,41.687055,-71.261503,812113.0,RI,44.0,44001.0,Bristol County,440010309012.0
20125,sg:90b9c5b82c594cb38d13a0bd6213db35,Threading Queen,RI,2019-12-01T00:00:00-05:00,2020-01-01T00:00:00-05:00,2904,40,21.5,"{""<5"":0,""5-20"":19,""21-60"":12,""61-240"":9,"">240"":0}",2078.0,41.860774,-71.464445,446120.0,RI,44.0,44007.0,Providence County,440070120005.0
20274,sg:a00ac31f6ae44c15a20e761db61a7c61,Temple Beth El,RI,2019-12-01T00:00:00-05:00,2020-01-01T00:00:00-05:00,2906,58,67.0,"{""<5"":2,""5-20"":10,""21-60"":15,""61-240"":24,"">240"":7}",6029.5,41.832296,-71.384861,813110.0,RI,44.0,44007.0,Providence County,440070035004.0
20897,sg:e0fd527dc4cc41ec8dc7191f6267a471,La Matraka Fonda and Tavern,RI,2019-12-01T00:00:00-05:00,2020-01-01T00:00:00-05:00,2860,120,20.0,"{""<5"":0,""5-20"":61,""21-60"":20,""61-240"":25,"">240"":14}",8695.0,41.87873,-71.41555699999999,722511.0,,,,,
21279,sg:087808e2dc4d4390a75f3e3c41548cb0,Hallmark Cards,RI,2019-12-01T00:00:00-05:00,2020-01-01T00:00:00-05:00,2879,246,21.0,"{""<5"":0,""5-20"":120,""21-60"":106,""61-240"":12,"">240"":8}",9519.0,41.44359,-71.48269300000001,453220.0,RI,44.0,44009.0,Washington County,440090512024.0
21645,sg:282a5a81979b4dff83937b0e02976dc5,Anthony's Italian Deli,RI,2019-12-01T00:00:00-05:00,2020-01-01T00:00:00-05:00,2908,233,49.0,"{""<5"":5,""5-20"":67,""21-60"":54,""61-240"":53,"">240"":54}",23973.5,41.849656,-71.440365,722511.0,RI,44.0,44007.0,Providence County,440070024002.0
22245,sg:6189acba74a74271925a72c1137bd95f,Auto & Home Insurance,RI,2019-12-01T00:00:00-05:00,2020-01-01T00:00:00-05:00,2909,12,31.0,"{""<5"":0,""5-20"":4,""21-60"":7,""61-240"":1,"">240"":0}",484.0,41.82548,-71.448001,524210.0,RI,44.0,44007.0,Providence County,440070021023.0
22567,sg:82ad8449ffe54aec9693f0c7f6fba640,Odaltino Auto Body,RI,2019-12-01T00:00:00-05:00,2020-01-01T00:00:00-05:00,2885,33,21.0,"{""<5"":0,""5-20"":16,""21-60"":11,""61-240"":3,"">240"":3}",1817.0,41.72611,-71.270624,811121.0,RI,44.0,44001.0,Bristol County,440010305002.0
22589,sg:83f8a3aebd1d4d23ab9f8e772a064676,Fernandez Liquors,RI,2019-12-01T00:00:00-05:00,2020-01-01T00:00:00-05:00,2907,120,15.0,"{""<5"":7,""5-20"":67,""21-60"":15,""61-240"":22,"">240"":9}",6933.5,41.803348,-71.425579,445310.0,RI,44.0,44007.0,Providence County,440070003003.0
22778,sg:9644f624b91045ef9f43717ef6554ecd,United States Postal Service (USPS),RI,2019-12-01T00:00:00-05:00,2020-01-01T00:00:00-05:00,2842,43,20.0,"{""<5"":0,""5-20"":22,""21-60"":7,""61-240"":12,"">240"":2}",2844.5,41.515904,-71.299161,491110.0,RI,44.0,44005.0,Newport County,440050403021.0
22801,sg:985b0fe570c34f09801e89bf3507a581,Caldas A Auto Sales & Collision,RI,2019-12-01T00:00:00-05:00,2020-01-01T00:00:00-05:00,2860,25,51.0,"{""<5"":1,""5-20"":10,""21-60"":4,""61-240"":5,"">240"":5}",2242.0,41.877349,-71.409616,811121.0,RI,44.0,44007.0,Providence County,440070150001.0
23029,sg:ae9d18b9edc8423d9ac1a6c1cc822482,Tiverton Fire Department Station 3,RI,2019-12-01T00:00:00-05:00,2020-01-01T00:00:00-05:00,2878,28,15.0,"{""<5"":0,""5-20"":16,""21-60"":6,""61-240"":6,"">240"":0}",1346.0,41.624275,-71.14706,922160.0,RI,44.0,44005.0,Newport County,440050417021.0
23180,sg:be0c367d220648d8b20c34aa42f8820c,Boys & Girls Clubs of America,RI,2019-12-01T00:00:00-05:00,2020-01-01T00:00:00-05:00,2907,184,107.5,"{""<5"":1,""5-20"":44,""21-60"":20,""61-240"":60,"">240"":59}",24552.5,41.795086,-71.43007800000001,624110.0,RI,44.0,44007.0,Providence County,440070015001.0
23186,sg:be7034a28feb44edbcddb647c344819a,Grande Joseph DO,RI,2019-12-01T00:00:00-05:00,2020-01-01T00:00:00-05:00,2888,69,43.0,"{""<5"":2,""5-20"":22,""21-60"":17,""61-240"":15,"">240"":13}",6346.0,41.745992,-71.42749599999999,621111.0,RI,44.0,44003.0,Kent County,440030211002.0
23447,sg:da701d828a3c4c9287d58c52e3123025,Windmill Auto Sales,RI,2019-12-01T00:00:00-05:00,2020-01-01T00:00:00-05:00,2911,154,79.5,"{""<5"":1,""5-20"":31,""21-60"":34,""61-240"":40,"">240"":48}",19307.0,41.845211,-71.475425,,RI,44.0,44007.0,Providence County,440070121022.0
24247,sg:2434022523574a5aacf70c26e22db15a,Mccormacks Pub,RI,2019-12-01T00:00:00-05:00,2020-01-01T00:00:00-05:00,2904,363,64.0,"{""<5"":7,""5-20"":103,""21-60"":65,""61-240"":99,"">240"":89}",40197.0,41.85355,-71.43530600000001,722511.0,RI,44.0,44007.0,Providence County,440070028002.0
24939,sg:645aabaa2bf54428af1a19add2bed2e0,Midas,RI,2019-12-01T00:00:00-05:00,2020-01-01T00:00:00-05:00,2910,9,30.0,"{""<5"":0,""5-20"":4,""21-60"":3,""61-240"":1,"">240"":1}",562.0,41.784751,-71.43678,811111.0,RI,44.0,44007.0,Providence County,440070140002.0
25319,sg:883851fdc9754d6f9586e32a36ee715c,Cifuentes Upholstery,RI,2019-12-01T00:00:00-05:00,2020-01-01T00:00:00-05:00,2908,79,99.0,"{""<5"":0,""5-20"":24,""21-60"":9,""61-240"":15,"">240"":31}",10362.0,41.832877,-71.450415,448210.0,RI,44.0,44007.0,Providence County,440070021011.0
25404,sg:8fcab6086cb64dafa6a20b66d721492e,Shore 's Food Market,RI,2019-12-01T00:00:00-05:00,2020-01-01T00:00:00-05:00,2920,591,15.0,"{""<5"":16,""5-20"":341,""21-60"":139,""61-240"":50,"">240"":45}",28257.0,41.787809,-71.471756,445110.0,RI,44.0,44007.0,Providence County,440070147006.0
25605,sg:a34aa0eac38f49bd81bf320facad1133,Harley Davidson,RI,2019-12-01T00:00:00-05:00,2020-01-01T00:00:00-05:00,2822,14,21.0,"{""<5"":0,""5-20"":6,""21-60"":6,""61-240"":2,"">240"":0}",619.0,41.572787,-71.656926,441228.0,RI,44.0,44009.0,Washington County,440090505001.0
25849,sg:bddcc6e40d104944bb6bf559bbd199f9,Bittersweet & Ivy,RI,2019-12-01T00:00:00-05:00,2020-01-01T00:00:00-05:00,2857,182,24.0,"{""<5"":6,""5-20"":67,""21-60"":55,""61-240"":29,"">240"":25}",13444.5,41.832778000000005,-71.58979000000001,453220.0,RI,44.0,44007.0,Providence County,440070132012.0
25889,sg:c322981c1d4248a499783317d53cf43b,West River Cafe,RI,2019-12-01T00:00:00-05:00,2020-01-01T00:00:00-05:00,2904,5,540.0,"{""<5"":0,""5-20"":0,""21-60"":0,""61-240"":0,"">240"":5}",1200.0,41.843785,-71.414715,722515.0,RI,44.0,44007.0,Providence County,440070029004.0
26228,sg:e59a433395904edc90c2f72ff61f3b84,Wave Federal Credit Union,RI,2019-12-01T00:00:00-05:00,2020-01-01T00:00:00-05:00,2886,100,8.0,"{""<5"":4,""5-20"":63,""21-60"":14,""61-240"":12,"">240"":7}",4850.5,41.723245,-71.467506,522110.0,RI,44.0,44003.0,Kent County,440030223004.0
26403,sg:f6b14b63a53844188a023168ded37472,Tesla Motors,RI,2019-12-01T00:00:00-05:00,2020-01-01T00:00:00-05:00,2886,22,33.5,"{""<5"":0,""5-20"":7,""21-60"":8,""61-240"":7,"">240"":0}",1465.0,41.726858,-71.481534,441110.0,RI,44.0,44003.0,Kent County,440030223003.0
27177,sg:3d3f23496f0844d08058335aa92efef4,Chopmist Charlie's,RI,2019-12-01T00:00:00-05:00,2020-01-01T00:00:00-05:00,2835,135,102.0,"{""<5"":3,""5-20"":29,""21-60"":24,""61-240"":46,"">240"":33}",16185.0,41.496441,-71.370132,722511.0,RI,44.0,44005.0,Newport County,440050413004.0
28318,sg:af7fafe3b8c24db8806fb4068531d558,GameStop,RI,2019-12-01T00:00:00-05:00,2020-01-01T00:00:00-05:00,2919,396,15.5,"{""<5"":17,""5-20"":229,""21-60"":114,""61-240"":11,"">240"":25}",15177.5,41.820285999999996,-71.500194,451120.0,RI,44.0,44007.0,Providence County,440070122001.0
28468,sg:bf5c1da19f9642b99d948a42f1b08299,360 Face Mind Body,RI,2019-12-01T00:00:00-05:00,2020-01-01T00:00:00-05:00,2816,24,21.5,"{""<5"":3,""5-20"":9,""21-60"":7,""61-240"":2,"">240"":3}",1424.5,41.664013,-71.544811,811121.0,RI,44.0,44003.0,Kent County,440030206033.0
28482,sg:c12fa81642b541009cccaf2be1c30c9b,Headquarters,RI,2019-12-01T00:00:00-05:00,2020-01-01T00:00:00-05:00,2914,6,31.5,"{""<5"":0,""5-20"":2,""21-60"":2,""61-240"":2,"">240"":0}",407.0,41.819624,-71.380012,812112.0,RI,44.0,44007.0,Providence County,440070102007.0
28493,sg:c21f238b7d824b0db0d68c6a4384cd60,A Straw in the Raw,RI,2019-12-01T00:00:00-05:00,2020-01-01T00:00:00-05:00,2886,4,160.5,"{""<5"":0,""5-20"":2,""21-60"":0,""61-240"":0,"">240"":2}",505.0,41.699973,-71.494742,722515.0,RI,44.0,44003.0,Kent County,440030222021.0
28590,sg:cbba8b70d4a5435d87d51e3067c96cc9,East Greenwich Fire District Station 1,RI,2019-12-01T00:00:00-05:00,2020-01-01T00:00:00-05:00,2818,4,130.0,"{""<5"":0,""5-20"":0,""21-60"":0,""61-240"":3,"">240"":1}",691.5,41.660011,-71.44963800000001,922160.0,RI,44.0,44003.0,Kent County,440030209011.0
28901,sg:ea0ffd95640645599bbecbeb56018d36,Vision Care Coventry,RI,2019-12-01T00:00:00-05:00,2020-01-01T00:00:00-05:00,2816,96,40.5,"{""<5"":0,""5-20"":29,""21-60"":36,""61-240"":30,"">240"":1}",6575.5,41.691691,-71.565831,446130.0,RI,44.0,44003.0,Kent County,440030206021.0
29028,sg:f5dbd6549593439b843840b26603f18d,Country Tire Shop,RI,2019-12-01T00:00:00-05:00,2020-01-01T00:00:00-05:00,2905,74,24.0,"{""<5"":1,""5-20"":28,""21-60"":24,""61-240"":6,"">240"":15}",5827.5,41.794222999999995,-71.404377,441310.0,RI,44.0,44007.0,Providence County,440070001021.0
29299,sg:0f6b4f363e6346d08e5deb5ea88bae10,Word of Life Covenant Church,RI,2019-12-01T00:00:00-05:00,2020-01-01T00:00:00-05:00,2921,4,5.0,"{""<5"":0,""5-20"":3,""21-60"":0,""61-240"":1,"">240"":0}",188.0,41.755457,-71.497497,813110.0,RI,44.0,44007.0,Providence County,440070145012.0
29679,sg:32ac834b2c0844cb88861ca969c1edf4,The Haven Express,RI,2019-12-01T00:00:00-05:00,2020-01-01T00:00:00-05:00,2891,1,9.0,"{""<5"":0,""5-20"":1,""21-60"":0,""61-240"":0,"">240"":0}",12.5,41.330065000000005,-71.764059,722511.0,RI,44.0,44009.0,Washington County,440090510004.0
29894,sg:432cb4aab1de4f209b0f36b061c03071,Blackstone Wine & Spirits,RI,2019-12-01T00:00:00-05:00,2020-01-01T00:00:00-05:00,2861,24,6.5,"{""<5"":1,""5-20"":23,""21-60"":0,""61-240"":0,"">240"":0}",290.0,41.865362,-71.35385600000001,445310.0,RI,44.0,44007.0,Providence County,440070170002.0
30175,sg:5db5285d510649efbcc712d1a538c99f,Breeze Hill Lamps and Lampshades,RI,2019-12-01T00:00:00-05:00,2020-01-01T00:00:00-05:00,2915,9,14.0,"{""<5"":1,""5-20"":5,""21-60"":1,""61-240"":1,"">240"":1}",496.0,41.774842,-71.32736,444130.0,RI,44.0,44007.0,Providence County,440070107011.0
30337,sg:6cd4bb6b403e4829a8b44e7886384120,Sunrise Cafe,RI,2019-12-01T00:00:00-05:00,2020-01-01T00:00:00-05:00,2889,99,52.0,"{""<5"":7,""5-20"":22,""21-60"":21,""61-240"":12,"">240"":37}",11829.0,41.715154999999996,-71.37671,722511.0,RI,44.0,44003.0,Kent County,440030215012.0
30541,sg:832c13c4581846a6afaa8e912a0a0632,Sherwin-Williams,RI,2019-12-01T00:00:00-05:00,2020-01-01T00:00:00-05:00,2842,228,13.0,"{""<5"":5,""5-20"":156,""21-60"":59,""61-240"":8,"">240"":0}",5556.0,41.527321,-71.298591,444120.0,RI,44.0,44005.0,Newport County,440050403032.0
30738,sg:946eb7aefb8949f5b7dbfa315b6a9023,Fete Music Hall,RI,2019-12-01T00:00:00-05:00,2020-01-01T00:00:00-05:00,2909,316,82.0,"{""<5"":1,""5-20"":49,""21-60"":73,""61-240"":155,"">240"":38}",36019.0,41.816303000000005,-71.443352,451140.0,RI,44.0,44007.0,Providence County,440070016002.0
31561,sg:e421721370434a4a842f023073fd77e1,Ferry Orthodontics,RI,2019-12-01T00:00:00-05:00,2020-01-01T00:00:00-05:00,2910,133,61.0,"{""<5"":0,""5-20"":22,""21-60"":41,""61-240"":26,"">240"":44}",16408.5,41.770334000000005,-71.43808100000001,621210.0,RI,44.0,44007.0,Providence County,440070138004.0
32493,sg:3c03b8abd70945e5b0cbff5b7aae26d8,Stateside Auto Sales,RI,2019-12-01T00:00:00-05:00,2020-01-01T00:00:00-05:00,2816,24,6.5,"{""<5"":3,""5-20"":16,""21-60"":2,""61-240"":3,"">240"":0}",740.0,41.690853999999995,-71.55909399999999,441120.0,RI,44.0,44003.0,Kent County,440030206021.0
32551,sg:416d8b86cc1f4998bd24f8f02eabb5e2,J B Liquors,RI,2019-12-01T00:00:00-05:00,2020-01-01T00:00:00-05:00,2895,125,39.0,"{""<5"":4,""5-20"":46,""21-60"":24,""61-240"":18,"">240"":33}",12186.0,42.016098,-71.49969,445310.0,RI,44.0,44007.0,Providence County,440070181002.0
32718,sg:50f89480c60f4b289d75345661f03c17,Asia Grille,RI,2019-12-01T00:00:00-05:00,2020-01-01T00:00:00-05:00,2865,789,36.0,"{""<5"":19,""5-20"":238,""21-60"":327,""61-240"":191,"">240"":14}",48371.5,41.936514,-71.479744,722511.0,RI,44.0,44007.0,Providence County,440070116004.0
32741,sg:52f21d2ce8c340c69bfd209ad7002055,Sunoco,RI,2019-12-01T00:00:00-05:00,2020-01-01T00:00:00-05:00,2830,150,5.0,"{""<5"":25,""5-20"":115,""21-60"":5,""61-240"":2,"">240"":3}",2723.5,41.968532,-71.68793000000001,447110.0,RI,44.0,44007.0,Providence County,440070129001.0
33219,sg:7e4773ec773b4afdba8dd31020de7fbc,Woonsocket DMV,RI,2019-12-01T00:00:00-05:00,2020-01-01T00:00:00-05:00,2895,121,54.0,"{""<5"":2,""5-20"":24,""21-60"":39,""61-240"":38,"">240"":18}",11923.5,42.008818,-71.51082099999999,926120.0,RI,44.0,44007.0,Providence County,440070180001.0
33483,sg:9821966d8ac249c4ac450c6a4acb5866,City Dental,RI,2019-12-01T00:00:00-05:00,2020-01-01T00:00:00-05:00,2909,12,68.5,"{""<5"":0,""5-20"":4,""21-60"":1,""61-240"":3,"">240"":4}",1502.0,41.806231,-71.456952,621210.0,RI,44.0,44007.0,Providence County,440070017001.0
33572,sg:9f6f54d313cb492081c102204a32be14,Shannon Motors Woonsocket,RI,2019-12-01T00:00:00-05:00,2020-01-01T00:00:00-05:00,2895,198,27.5,"{""<5"":4,""5-20"":74,""21-60"":68,""61-240"":28,"">240"":24}",13663.0,41.990901,-71.484183,441120.0,RI,44.0,44007.0,Providence County,440070185003.0
33741,sg:b1be16036137457d9f68d4f1be607559,WED Plainfield LLC,RI,2019-12-01T00:00:00-05:00,2020-01-01T00:00:00-05:00,2919,38,22.0,"{""<5"":0,""5-20"":17,""21-60"":17,""61-240"":4,"">240"":0}",1503.0,41.793890999999995,-71.53506,221112.0,RI,44.0,44007.0,Providence County,440070122003.0
33825,sg:b879176f470841fea852774875997f94,Aqua Star Inn,RI,2019-12-01T00:00:00-05:00,2020-01-01T00:00:00-05:00,2891,34,52.5,"{""<5"":0,""5-20"":16,""21-60"":3,""61-240"":10,"">240"":5}",3026.5,41.35255,-71.79044300000001,721110.0,RI,44.0,44009.0,Washington County,440090509012.0
34423,sg:f24a0331a4a6429f986a15a3d6f03dfc,Providence Marine Corps Of Artillery Museum Of Rhode Island,RI,2019-12-01T00:00:00-05:00,2020-01-01T00:00:00-05:00,2904,141,203.0,"{""<5"":1,""5-20"":20,""21-60"":15,""61-240"":41,"">240"":64}",22390.5,41.8644,-71.462129,712110.0,RI,44.0,44007.0,Providence County,440070119021.0
34561,sg:feef2c9809544159b2b1ed585388e918,Fundamental Play,RI,2019-12-01T00:00:00-05:00,2020-01-01T00:00:00-05:00,2907,100,79.5,"{""<5"":3,""5-20"":15,""21-60"":24,""61-240"":41,"">240"":17}",11417.5,41.806146000000005,-71.423202,713940.0,RI,44.0,44007.0,Providence County,440070003003.0
34613,sg:03b58cee42654b87aee480b321fa0bdb,On the Ropes Boxing and Fitness,RI,2019-12-01T00:00:00-05:00,2020-01-01T00:00:00-05:00,2886,160,114.5,"{""<5"":4,""5-20"":19,""21-60"":35,""61-240"":47,"">240"":55}",21938.5,41.72708,-71.470288,713940.0,RI,44.0,44003.0,Kent County,440030223004.0
34841,sg:184cca01d2c5459daa10e00aeeb6f0d2,L.L.Bean,RI,2019-12-01T00:00:00-05:00,2020-01-01T00:00:00-05:00,2920,942,20.0,"{""<5"":15,""5-20"":463,""21-60"":387,""61-240"":77,"">240"":0}",33087.0,41.758008000000004,-71.457516,448140.0,RI,44.0,44007.0,Providence County,440070139003.0
35118,sg:3286c45c79a24900a76e2a2b67c61f25,Carroll Park,RI,2019-12-01T00:00:00-05:00,2020-01-01T00:00:00-05:00,2876,100,21.0,"{""<5"":3,""5-20"":43,""21-60"":17,""61-240"":25,"">240"":12}",7876.0,42.000278,-71.578817,712190.0,RI,44.0,44007.0,Providence County,440070128013.0
35349,sg:48c1d390ce6b46f69121869d3aa905cf,Balise Toyota of Warwick,RI,2019-12-01T00:00:00-05:00,2020-01-01T00:00:00-05:00,2888,364,83.5,"{""<5"":5,""5-20"":76,""21-60"":58,""61-240"":123,"">240"":102}",46303.0,41.741631,-71.42919,441110.0,RI,44.0,44003.0,Kent County,440030211003.0
35544,sg:5a72bc802b1047f5a249302ebb61709b,Wakefield Hills El School,RI,2019-12-01T00:00:00-05:00,2020-01-01T00:00:00-05:00,2893,172,51.0,"{""<5"":2,""5-20"":53,""21-60"":42,""61-240"":36,"">240"":39}",17146.5,41.72395,-71.50536600000001,611110.0,RI,44.0,44003.0,Kent County,440030205002.0
35771,sg:721438c3af2c4eb2a448ba92c84311b4,Mount Zion Church of God,RI,2019-12-01T00:00:00-05:00,2020-01-01T00:00:00-05:00,2905,133,106.0,"{""<5"":4,""5-20"":23,""21-60"":25,""61-240"":44,"">240"":37}",16812.0,41.803783,-71.40884100000001,813110.0,RI,44.0,44007.0,Providence County,440070006002.0
35887,sg:7d5d0e1e38324b6abd62eb9cfdaa01b3,Prete Metcalf Field,RI,2019-12-01T00:00:00-05:00,2020-01-01T00:00:00-05:00,2904,400,33.0,"{""<5"":10,""5-20"":151,""21-60"":94,""61-240"":81,"">240"":64}",33270.0,41.849078000000006,-71.421141,713940.0,RI,44.0,44007.0,Providence County,440070029004.0
36549,sg:c01546f2a0f84c9799a9aad2ee785e71,Randstad,RI,2019-12-01T00:00:00-05:00,2020-01-01T00:00:00-05:00,2895,9,548.0,"{""<5"":0,""5-20"":0,""21-60"":2,""61-240"":0,"">240"":7}",1761.0,42.008539,-71.52943,561311.0,RI,44.0,44007.0,Providence County,440070174001.0
36618,sg:c7305c696c2d4d2fab5458697c54b16d,Island House,RI,2019-12-01T00:00:00-05:00,2020-01-01T00:00:00-05:00,2903,548,40.0,"{""<5"":7,""5-20"":149,""21-60"":217,""61-240"":165,"">240"":10}",37901.0,41.815946000000004,-71.419714,722511.0,RI,44.0,44007.0,Providence County,440070007003.0
36661,sg:caf13ae49301455db19b074970529d6b,Cabral Gourmet Chicken,RI,2019-12-01T00:00:00-05:00,2020-01-01T00:00:00-05:00,2809,30,14.5,"{""<5"":3,""5-20"":13,""21-60"":0,""61-240"":5,"">240"":9}",3082.5,41.692959,-71.263676,722513.0,RI,44.0,44001.0,Bristol County,440010309024.0
36776,sg:d7f2b19d6a3b4e1d95cb488c7c71df7a,Salon Karizzma,RI,2019-12-01T00:00:00-05:00,2020-01-01T00:00:00-05:00,2904,2,76.0,"{""<5"":0,""5-20"":0,""21-60"":1,""61-240"":1,"">240"":0}",191.0,41.864703999999996,-71.446154,812112.0,RI,44.0,44007.0,Providence County,440070119011.0
37058,sg:f6e53b197450471ba8ecee44261de2f1,Pawtucket Credit Union,RI,2019-12-01T00:00:00-05:00,2020-01-01T00:00:00-05:00,2916,30,7.5,"{""<5"":2,""5-20"":14,""21-60"":1,""61-240"":3,"">240"":10}",3072.0,41.84969,-71.354885,522110.0,RI,44.0,44007.0,Providence County,440070101011.0
37118,sg:fd2649bb9ea84878aad1d0268501e574,Arnold Art Store & Gallery,RI,2019-12-01T00:00:00-05:00,2020-01-01T00:00:00-05:00,2840,240,20.0,"{""<5"":6,""5-20"":126,""21-60"":68,""61-240"":30,"">240"":10}",11259.0,41.487671999999996,-71.314886,453920.0,RI,44.0,44005.0,Newport County,440050410001.0
37190,sg:0414724942b64adb82f09ce0e6bee205,Atlantic Furniture of Pawtucket,RI,2019-12-01T00:00:00-05:00,2020-01-01T00:00:00-05:00,2860,102,28.5,"{""<5"":1,""5-20"":40,""21-60"":22,""61-240"":17,"">240"":22}",9232.0,41.876964,-71.389957,442110.0,RI,44.0,44007.0,Providence County,440070161001.0
37891,sg:449a476a1e974e20aea2fede5caf4ec6,Field of Screams,RI,2019-12-01T00:00:00-05:00,2020-01-01T00:00:00-05:00,2817,27,10.0,"{""<5"":1,""5-20"":16,""21-60"":9,""61-240"":0,"">240"":1}",807.0,41.646113,-71.70768299999999,713950.0,RI,44.0,44003.0,Kent County,440030208003.0
37996,sg:4e5bfdf5b8984a32ac78fa66042b86ca,Seaview Lanes,RI,2019-12-01T00:00:00-05:00,2020-01-01T00:00:00-05:00,2841,437,59.0,"{""<5"":1,""5-20"":98,""21-60"":123,""61-240"":135,"">240"":80}",45726.5,41.518907,-71.317881,713950.0,RI,44.0,44005.0,Newport County,440050412001.0
38186,sg:61cfa6526ad74d02b352ec0c3d711fcd,Metrocom Telephones,RI,2019-12-01T00:00:00-05:00,2020-01-01T00:00:00-05:00,2909,193,41.0,"{""<5"":8,""5-20"":62,""21-60"":37,""61-240"":45,"">240"":41}",18906.0,41.815271,-71.459539,621111.0,RI,44.0,44007.0,Providence County,440070018005.0
38378,sg:73a4a866811b4872a63aa6276332a105,Advanced Dental Care,RI,2019-12-01T00:00:00-05:00,2020-01-01T00:00:00-05:00,2906,9,25.0,"{""<5"":0,""5-20"":3,""21-60"":2,""61-240"":2,"">240"":2}",899.5,41.834138,-71.390056,621210.0,RI,44.0,44007.0,Providence County,440070035001.0
38929,sg:a7ee252414cf4a45bfbb5f6e9ae746c7,Speedway,RI,2019-12-01T00:00:00-05:00,2020-01-01T00:00:00-05:00,2889,629,13.0,"{""<5"":32,""5-20"":346,""21-60"":107,""61-240"":91,"">240"":53}",35154.0,41.703410999999996,-71.409666,447110.0,RI,44.0,44003.0,Kent County,440030217005.0
39058,sg:b4738de2c3644520be93e84c0b8b0be6,Post Road Guns,RI,2019-12-01T00:00:00-05:00,2020-01-01T00:00:00-05:00,2921,54,16.5,"{""<5"":1,""5-20"":28,""21-60"":11,""61-240"":13,"">240"":1}",2994.5,41.787818,-71.513832,451110.0,RI,44.0,44007.0,Providence County,440070146002.0
39068,sg:b5b461d88654484e96c83ee6ce74b987,La Vida Dance & Fitness,RI,2019-12-01T00:00:00-05:00,2020-01-01T00:00:00-05:00,2809,55,8.0,"{""<5"":5,""5-20"":37,""21-60"":3,""61-240"":9,"">240"":1}",2191.0,41.700155,-71.266325,713940.0,RI,44.0,44001.0,Bristol County,440010309021.0
39307,sg:cebe1243245a4ff497d79708a4206e46,Pizza Vita,RI,2019-12-01T00:00:00-05:00,2020-01-01T00:00:00-05:00,2891,84,11.0,"{""<5"":2,""5-20"":49,""21-60"":20,""61-240"":12,"">240"":1}",3473.5,41.3646,-71.830425,722511.0,RI,44.0,44009.0,Washington County,440090508021.0
39392,sg:d6c80caf96b342fb99a348ee64a48a8e,The BOSS Thai 2,RI,2019-12-01T00:00:00-05:00,2020-01-01T00:00:00-05:00,2806,44,10.0,"{""<5"":4,""5-20"":22,""21-60"":4,""61-240"":8,"">240"":6}",3091.0,41.738681,-71.307264,722511.0,RI,44.0,44001.0,Bristol County,440010302003.0
40219,sg:2ae7518fc5fd42058d7b9d3f74f28ef7,Sunset Cafe,RI,2019-12-01T00:00:00-05:00,2020-01-01T00:00:00-05:00,2809,161,34.0,"{""<5"":4,""5-20"":58,""21-60"":69,""61-240"":27,"">240"":3}",8313.0,41.670891,-71.276885,722515.0,RI,44.0,44001.0,Bristol County,440010307004.0
40253,sg:2e6f09be88804df2867c0363ba494395,HUB International,RI,2019-12-01T00:00:00-05:00,2020-01-01T00:00:00-05:00,2886,84,21.0,"{""<5"":1,""5-20"":40,""21-60"":13,""61-240"":16,"">240"":14}",6797.0,41.711240999999994,-71.470332,524210.0,RI,44.0,44003.0,Kent County,440030221003.0
40257,sg:2eacf2097ce848a9afd649bb08543615,McDonald's,RI,2019-12-01T00:00:00-05:00,2020-01-01T00:00:00-05:00,2904,659,8.0,"{""<5"":48,""5-20"":470,""21-60"":73,""61-240"":44,"">240"":24}",21333.5,41.853408,-71.42871,722513.0,RI,44.0,44007.0,Providence County,440070027001.0
40439,sg:3e00cb9d6f4346db86ffbbf73a557a3f,D & H Collision Center,RI,2019-12-01T00:00:00-05:00,2020-01-01T00:00:00-05:00,2888,10,55.5,"{""<5"":0,""5-20"":4,""21-60"":1,""61-240"":3,"">240"":2}",1022.0,41.759138,-71.424961,811121.0,RI,44.0,44003.0,Kent County,440030211001.0
40737,sg:58818cbbb3694829ab383d2cfde0de18,Autoland,RI,2019-12-01T00:00:00-05:00,2020-01-01T00:00:00-05:00,2816,79,82.0,"{""<5"":1,""5-20"":23,""21-60"":13,""61-240"":26,"">240"":16}",8569.5,41.684225,-71.556793,441120.0,RI,44.0,44003.0,Kent County,440030206021.0
40855,sg:6406accd045e475692043b23c371a409,Blackstone Valley Prep E 2,RI,2019-12-01T00:00:00-05:00,2020-01-01T00:00:00-05:00,2864,55,427.0,"{""<5"":0,""5-20"":2,""21-60"":4,""61-240"":5,"">240"":44}",11499.5,41.905687,-71.387558,611110.0,RI,44.0,44007.0,Providence County,440070112002.0
41020,sg:722e847a43b84abdb1a1bca5ed9a847c,Seaplane Diner,RI,2019-12-01T00:00:00-05:00,2020-01-01T00:00:00-05:00,2905,282,31.0,"{""<5"":13,""5-20"":76,""21-60"":134,""61-240"":30,"">240"":29}",17884.5,41.804721,-71.402426,722511.0,RI,44.0,44007.0,Providence County,440070006001.0
41358,sg:923ed81133e84514a1682732df713638,Alibi Cafe,RI,2019-12-01T00:00:00-05:00,2020-01-01T00:00:00-05:00,2903,47,32.0,"{""<5"":3,""5-20"":15,""21-60"":11,""61-240"":9,"">240"":9}",4155.0,41.817899,-71.410895,722511.0,RI,44.0,44007.0,Providence County,440070006001.0
41416,sg:96dfc2d46c554d69b545ac7ec862b46e,Glacier Ice,RI,2019-12-01T00:00:00-05:00,2020-01-01T00:00:00-05:00,2885,3,847.0,"{""<5"":0,""5-20"":0,""21-60"":0,""61-240"":0,"">240"":3}",720.0,41.733243,-71.27409399999999,722515.0,RI,44.0,44001.0,Bristol County,440010305001.0
41982,sg:cdd4be1c65384d20a8e3d48af9236ddd,Peter U Wolff DMD,RI,2019-12-01T00:00:00-05:00,2020-01-01T00:00:00-05:00,2818,32,47.5,"{""<5"":0,""5-20"":9,""21-60"":11,""61-240"":6,"">240"":6}",2901.0,41.626265000000004,-71.49215,621210.0,RI,44.0,44003.0,Kent County,440030209032.0
42524,sg:03c596d51b5e4390acfe8ba121e9339a,Barrington Music,RI,2019-12-01T00:00:00-05:00,2020-01-01T00:00:00-05:00,2806,11,30.0,"{""<5"":0,""5-20"":4,""21-60"":5,""61-240"":2,"">240"":0}",553.5,41.752932,-71.295172,451140.0,RI,44.0,44001.0,Bristol County,440010303002.0
42885,sg:21951e25df004b199bdee851112096ac,Long Wharf General Store,RI,2019-12-01T00:00:00-05:00,2020-01-01T00:00:00-05:00,2840,251,28.0,"{""<5"":6,""5-20"":93,""21-60"":86,""61-240"":44,"">240"":22}",16562.5,41.490035999999996,-71.316335,453220.0,RI,44.0,44005.0,Newport County,440050411003.0
42897,sg:226ad1a6026e4140b5f916cb5b0b1268,Fred's Place,RI,2019-12-01T00:00:00-05:00,2020-01-01T00:00:00-05:00,2920,30,91.0,"{""<5"":1,""5-20"":7,""21-60"":4,""61-240"":8,"">240"":10}",3856.0,41.783569,-71.46491800000001,812112.0,RI,44.0,44007.0,Providence County,440070147005.0
43064,sg:325b33e1ec7949a79247fd1e52878b1e,Ocean State Credit Union,RI,2019-12-01T00:00:00-05:00,2020-01-01T00:00:00-05:00,2816,167,12.0,"{""<5"":11,""5-20"":95,""21-60"":28,""61-240"":17,"">240"":16}",8747.5,41.673959,-71.59350699999999,522110.0,RI,44.0,44003.0,Kent County,440030207032.0
43335,sg:49d51adceb354f26aceb830c81631eea,Allstate Insurance,RI,2019-12-01T00:00:00-05:00,2020-01-01T00:00:00-05:00,2904,36,83.5,"{""<5"":1,""5-20"":5,""21-60"":8,""61-240"":15,"">240"":7}",4326.5,41.869706,-71.42103,524210.0,RI,44.0,44007.0,Providence County,440070118001.0
43763,sg:71e9f4b421f94f7cb895a1c8b432c9a0,Adeline's Speakeasy Kitchen Bar,RI,2019-12-01T00:00:00-05:00,2020-01-01T00:00:00-05:00,2864,31,77.0,"{""<5"":0,""5-20"":1,""21-60"":9,""61-240"":20,"">240"":1}",3627.0,41.957378999999996,-71.443722,722511.0,RI,44.0,44007.0,Providence County,440070114034.0
44068,sg:8d3b8c91da9847b8b51885132e61c881,City Girl Cupcake,RI,2019-12-01T00:00:00-05:00,2020-01-01T00:00:00-05:00,2903,92,56.5,"{""<5"":0,""5-20"":29,""21-60"":21,""61-240"":23,"">240"":19}",9234.5,41.823274,-71.410945,311811.0,RI,44.0,44007.0,Providence County,440070008003.0
44237,sg:9c26a3f9c39f4481a47d9f194d83637e,147 Market And Deli,RI,2019-12-01T00:00:00-05:00,2020-01-01T00:00:00-05:00,2860,152,27.5,"{""<5"":4,""5-20"":65,""21-60"":26,""61-240"":35,"">240"":22}",12423.0,41.870746000000004,-71.378529,722511.0,RI,44.0,44007.0,Providence County,440070167002.0
44439,sg:b218858b97fa479094e08f063dee64de,The Charlestown Rathskeller,RI,2019-12-01T00:00:00-05:00,2020-01-01T00:00:00-05:00,2813,309,68.0,"{""<5"":1,""5-20"":24,""21-60"":104,""61-240"":150,"">240"":30}",34289.5,41.424076,-71.613175,722511.0,RI,44.0,44009.0,Washington County,440090511021.0
44900,sg:e3139e8498a84f13817eeba68a843544,Marcie's Pet Grooming,RI,2019-12-01T00:00:00-05:00,2020-01-01T00:00:00-05:00,2896,112,34.5,"{""<5"":3,""5-20"":32,""21-60"":54,""61-240"":20,"">240"":3}",6324.5,41.997706,-71.561952,812910.0,RI,44.0,44007.0,Providence County,440070128013.0
45017,sg:f02262ca908d4851966951842067c1b4,Village Collision Center,RI,2019-12-01T00:00:00-05:00,2020-01-01T00:00:00-05:00,2893,40,183.0,"{""<5"":0,""5-20"":5,""21-60"":7,""61-240"":14,"">240"":14}",5813.0,41.724552,-71.489756,811121.0,RI,44.0,44003.0,Kent County,440030205001.0
45028,sg:f12cf9a6ada848e79dc664614bec46bb,Supreme Cheese Pizzeria & Ristorante,RI,2019-12-01T00:00:00-05:00,2020-01-01T00:00:00-05:00,2891,220,20.5,"{""<5"":13,""5-20"":97,""21-60"":70,""61-240"":33,"">240"":7}",10726.5,41.368463,-71.819721,722511.0,RI,44.0,44009.0,Washington County,440090508021.0
45123,sg:facb2b40fcc248f18bc812d44137e4d4,The Mediator Fellowship,RI,2019-12-01T00:00:00-05:00,2020-01-01T00:00:00-05:00,2907,181,133.0,"{""<5"":0,""5-20"":34,""21-60"":27,""61-240"":45,"">240"":75}",26291.0,41.787516,-71.425111,813110.0,RI,44.0,44007.0,Providence County,440070015003.0
45497,sg:1ccaed6548404b7db68f76c9ee3e856a,Bridge To Fitness,RI,2019-12-01T00:00:00-05:00,2020-01-01T00:00:00-05:00,2842,322,45.0,"{""<5"":9,""5-20"":67,""21-60"":142,""61-240"":89,"">240"":15}",23605.5,41.51397,-71.28209100000001,713940.0,RI,44.0,44005.0,Newport County,440050404002.0
45780,sg:373a29840eea4de79f635ff32cf13710,Gilded,RI,2019-12-01T00:00:00-05:00,2020-01-01T00:00:00-05:00,2840,64,37.0,"{""<5"":2,""5-20"":18,""21-60"":20,""61-240"":10,"">240"":14}",5905.0,41.488052,-71.30808499999999,721110.0,RI,44.0,44005.0,Newport County,440050407002.0
45889,sg:42045b5d64a045199902968221e84476,Bulldog Stadium,RI,2019-12-01T00:00:00-05:00,2020-01-01T00:00:00-05:00,2917,264,30.0,"{""<5"":4,""5-20"":104,""21-60"":75,""61-240"":73,"">240"":8}",17254.0,41.924813,-71.538618,711211.0,RI,44.0,44007.0,Providence County,440070126011.0
46073,sg:53acc4dd32b8423c91857632bb81ac1f,Lawrence P Stephenson DDS,RI,2019-12-01T00:00:00-05:00,2020-01-01T00:00:00-05:00,2904,173,61.0,"{""<5"":3,""5-20"":31,""21-60"":51,""61-240"":45,"">240"":43}",19553.0,41.861383000000004,-71.461727,621210.0,RI,44.0,44007.0,Providence County,440070120001.0
46161,sg:5ad1c6349b6c4b0ca18b5e2e3b52783d,The Y At Blackstone Valley Prep,RI,2019-12-01T00:00:00-05:00,2020-01-01T00:00:00-05:00,2864,17,20.0,"{""<5"":0,""5-20"":9,""21-60"":4,""61-240"":2,"">240"":2}",1055.5,41.906051,-71.392276,624410.0,RI,44.0,44007.0,Providence County,440070112002.0
46618,sg:89fb41afa40845f690a39b901924586c,Kohl's,RI,2019-12-01T00:00:00-05:00,2020-01-01T00:00:00-05:00,2852,1388,24.0,"{""<5"":15,""5-20"":507,""21-60"":696,""61-240"":165,"">240"":5}",60595.5,41.607079,-71.451402,452210.0,RI,44.0,44009.0,Washington County,440090501032.0
46761,sg:9783ea572b814c55b6107bb1f2828ba4,Subway,RI,2019-12-01T00:00:00-05:00,2020-01-01T00:00:00-05:00,2893,59,11.0,"{""<5"":0,""5-20"":37,""21-60"":15,""61-240"":4,"">240"":3}",2392.0,41.71763,-71.524512,722513.0,RI,44.0,44003.0,Kent County,440030204002.0
46829,sg:9d2b171d30c54c5490afa475bfdd68e1,Bagel Express on Broadway,RI,2019-12-01T00:00:00-05:00,2020-01-01T00:00:00-05:00,2903,131,28.0,"{""<5"":3,""5-20"":54,""21-60"":39,""61-240"":31,"">240"":4}",7887.5,41.820406,-71.42610400000001,722515.0,RI,44.0,44007.0,Providence County,440070011003.0
47047,sg:b37dc228075045c9be8c176a2928ad49,Leaders in Ear Nose & Throat Health,RI,2019-12-01T00:00:00-05:00,2020-01-01T00:00:00-05:00,2886,50,290.0,"{""<5"":0,""5-20"":5,""21-60"":6,""61-240"":8,"">240"":31}",8949.5,41.693121000000005,-71.456071,621111.0,RI,44.0,44003.0,Kent County,440030220003.0
47172,sg:c06cf8adf80a411faac5b75aa083e72b,Capital Auto Sales,RI,2019-12-01T00:00:00-05:00,2020-01-01T00:00:00-05:00,2909,172,16.0,"{""<5"":7,""5-20"":90,""21-60"":18,""61-240"":26,"">240"":31}",13224.5,41.833473,-71.46633800000001,,RI,44.0,44007.0,Providence County,440070020002.0
47207,sg:c41d1f830b5b47e08b24d3d38be1365b,Dive On It Scuba,RI,2019-12-01T00:00:00-05:00,2020-01-01T00:00:00-05:00,2864,38,25.0,"{""<5"":0,""5-20"":17,""21-60"":12,""61-240"":8,"">240"":1}",2142.5,41.928902,-71.42126800000001,451110.0,RI,44.0,44007.0,Providence County,440070113012.0
47455,sg:de384467c94f43f1b3fc9cfb52a03274,Walmart,RI,2019-12-01T00:00:00-05:00,2020-01-01T00:00:00-05:00,2891,3279,22.0,"{""<5"":64,""5-20"":1372,""21-60"":1364,""61-240"":404,"">240"":75}",151354.0,41.354306,-71.76683,452319.0,RI,44.0,44009.0,Washington County,440090509022.0
47682,sg:f454163e98e547ada23de04fae3f61ae,Friskie Fries,RI,2019-12-01T00:00:00-05:00,2020-01-01T00:00:00-05:00,2903,317,43.0,"{""<5"":7,""5-20"":95,""21-60"":79,""61-240"":100,"">240"":36}",28094.5,41.823181,-71.41440300000001,722511.0,RI,44.0,44007.0,Providence County,440070008003.0
47689,sg:f5376ee449b540228d7870184785cfc0,Bagel Express Deli & Cafe in the Village,RI,2019-12-01T00:00:00-05:00,2020-01-01T00:00:00-05:00,2905,114,53.0,"{""<5"":0,""5-20"":14,""21-60"":53,""61-240"":40,"">240"":7}",10021.5,41.765409999999996,-71.390365,722515.0,RI,44.0,44007.0,Providence County,440070134003.0
47881,sg:05e6889283c14b15bf19b817bb72a188,Bonetown Burgers & BBQ,RI,2019-12-01T00:00:00-05:00,2020-01-01T00:00:00-05:00,2920,68,52.0,"{""<5"":0,""5-20"":18,""21-60"":20,""61-240"":24,"">240"":6}",6087.0,41.78241,-71.466747,722511.0,RI,44.0,44007.0,Providence County,440070147005.0
48329,sg:2d6711eaa3a64aac96569a1024d15d01,Kingston Congregational Church,RI,2019-12-01T00:00:00-05:00,2020-01-01T00:00:00-05:00,2881,143,59.0,"{""<5"":3,""5-20"":41,""21-60"":29,""61-240"":49,"">240"":21}",14109.0,41.480059999999995,-71.525512,813110.0,RI,44.0,44009.0,Washington County,440090513063.0
48476,sg:3a5b3a05ed584d5b9617d28956b87b6f,Bay Marina,RI,2019-12-01T00:00:00-05:00,2020-01-01T00:00:00-05:00,2889,7,24.0,"{""<5"":1,""5-20"":2,""21-60"":3,""61-240"":1,"">240"":0}",299.5,41.698153000000005,-71.38810500000001,441222.0,RI,44.0,44003.0,Kent County,440030217001.0
48657,sg:48bbaa8444844dcb84ec6e090a96a87f,YMCA,RI,2019-12-01T00:00:00-05:00,2020-01-01T00:00:00-05:00,2816,2,14.0,"{""<5"":0,""5-20"":2,""21-60"":0,""61-240"":0,"">240"":0}",25.0,41.679024,-71.671625,624190.0,RI,44.0,44003.0,Kent County,440030207022.0
48708,sg:4bed263254494b708e71e821dac6bf6c,Jeff Allen's Latin and Ballroom Dance Studio,RI,2019-12-01T00:00:00-05:00,2020-01-01T00:00:00-05:00,2920,253,42.0,"{""<5"":4,""5-20"":57,""21-60"":99,""61-240"":49,"">240"":44}",22666.5,41.784886,-71.473382,713940.0,RI,44.0,44007.0,Providence County,440070148003.0
48837,sg:58cb52622ebd4cc79ad069f39fa4c0a5,Oop,RI,2019-12-01T00:00:00-05:00,2020-01-01T00:00:00-05:00,2906,63,40.0,"{""<5"":1,""5-20"":19,""21-60"":18,""61-240"":18,"">240"":7}",5358.0,41.827464,-71.39263100000001,452319.0,RI,44.0,44007.0,Providence County,440070036012.0
48876,sg:5c7a19dacad7496e92c0c0a81c15f9dc,Cranston Fire Department Station 2,RI,2019-12-01T00:00:00-05:00,2020-01-01T00:00:00-05:00,2910,273,89.0,"{""<5"":6,""5-20"":72,""21-60"":42,""61-240"":88,"">240"":65}",31460.0,41.779683,-71.43509399999999,922160.0,RI,44.0,44007.0,Providence County,440070140001.0
49048,sg:6cc36a6a86a64b28b3fc9a8f7bbbaf0a,Wally's Tap House,RI,2019-12-01T00:00:00-05:00,2020-01-01T00:00:00-05:00,2878,120,39.5,"{""<5"":4,""5-20"":42,""21-60"":26,""61-240"":47,"">240"":1}",8901.5,41.624887,-71.146982,722511.0,RI,44.0,44005.0,Newport County,440050417021.0
49461,sg:91eec752a4b8422687ba342f03f8362c,1 Alpha And Omega Cleaning Services,RI,2019-12-01T00:00:00-05:00,2020-01-01T00:00:00-05:00,2886,243,87.0,"{""<5"":2,""5-20"":57,""21-60"":40,""61-240"":86,"">240"":58}",29200.5,41.720009999999995,-71.47284300000001,561740.0,RI,44.0,44003.0,Kent County,440030223003.0
49635,sg:a3409a431fa34dcba83d5ef9431fc86a,Olympic Physical Therapy & Foot Orthotics,RI,2019-12-01T00:00:00-05:00,2020-01-01T00:00:00-05:00,2809,6,33.0,"{""<5"":0,""5-20"":2,""21-60"":2,""61-240"":2,"">240"":0}",407.0,41.670056,-71.27620999999999,446199.0,RI,44.0,44001.0,Bristol County,440010307004.0
49701,sg:a9c4aef88b2a46ca986489e2a0060d30,Ardente Supply Co Inc,RI,2019-12-01T00:00:00-05:00,2020-01-01T00:00:00-05:00,2908,133,15.0,"{""<5"":3,""5-20"":72,""21-60"":28,""61-240"":22,"">240"":8}",7272.5,41.827901000000004,-71.436596,444130.0,RI,44.0,44007.0,Providence County,440070022002.0
49759,sg:af4fa215b8ff47eca34f07c0cab30695,Robin Hollow Farm,RI,2019-12-01T00:00:00-05:00,2020-01-01T00:00:00-05:00,2874,4,34.5,"{""<5"":0,""5-20"":2,""21-60"":0,""61-240"":2,"">240"":0}",326.0,41.517711,-71.451385,453110.0,RI,44.0,44009.0,Washington County,440090504023.0
50047,sg:c910cb9ab39149438846530bc597f053,El Paso Restaurant,RI,2019-12-01T00:00:00-05:00,2020-01-01T00:00:00-05:00,2863,253,41.0,"{""<5"":9,""5-20"":91,""21-60"":46,""61-240"":50,"">240"":57}",24228.0,41.896822,-71.388819,722511.0,RI,44.0,44007.0,Providence County,440070109003.0
50208,sg:d8c5b89fa43f4a83997bca8a71a10a98,Nicholas A Ferri Middle,RI,2019-12-01T00:00:00-05:00,2020-01-01T00:00:00-05:00,2919,249,356.0,"{""<5"":0,""5-20"":3,""21-60"":4,""61-240"":65,"">240"":177}",52462.0,41.829582,-71.502307,611110.0,RI,44.0,44007.0,Providence County,440070124014.0
50328,sg:e5cdb024c1e44e0a982f910b86439ab7,J's Deli,RI,2019-12-01T00:00:00-05:00,2020-01-01T00:00:00-05:00,2864,5,70.0,"{""<5"":0,""5-20"":0,""21-60"":2,""61-240"":3,"">240"":0}",532.5,41.954081,-71.402109,722511.0,RI,44.0,44007.0,Providence County,440070114013.0
51075,sg:2c166622de574b4391b83337d8ad51f7,South Kingstown Dog Park,RI,2019-12-01T00:00:00-05:00,2020-01-01T00:00:00-05:00,2879,512,44.0,"{""<5"":8,""5-20"":90,""21-60"":261,""61-240"":152,"">240"":1}",34831.5,41.45228,-71.481829,712190.0,RI,44.0,44009.0,Washington County,440090512024.0
51190,sg:35d4e4302f9b40878eb0f529eaf74438,Brookdale,RI,2019-12-01T00:00:00-05:00,2020-01-01T00:00:00-05:00,2889,55,68.0,"{""<5"":4,""5-20"":13,""21-60"":8,""61-240"":20,"">240"":10}",5906.5,41.703924,-71.4225,623110.0,RI,44.0,44003.0,Kent County,440030219022.0
51604,sg:5c0b60459b2f48b4b04fab3d52477db0,Sunshine Creamery,RI,2019-12-01T00:00:00-05:00,2020-01-01T00:00:00-05:00,2916,84,10.0,"{""<5"":5,""5-20"":47,""21-60"":1,""61-240"":17,"">240"":14}",6559.0,41.833037,-71.360782,722515.0,RI,44.0,44007.0,Providence County,440070102001.0
51989,sg:7f37cb2392ba42a3b3a76d2fba987c3a,The Aesthetic Dental Studio of RI,RI,2019-12-01T00:00:00-05:00,2020-01-01T00:00:00-05:00,2911,156,74.5,"{""<5"":5,""5-20"":28,""21-60"":38,""61-240"":28,"">240"":57}",19795.5,41.858534000000006,-71.478871,621210.0,RI,44.0,44007.0,Providence County,440070121041.0
52363,sg:a318a9faad9446ca8fd07ac8b648821f,Manton Liquors,RI,2019-12-01T00:00:00-05:00,2020-01-01T00:00:00-05:00,2909,61,16.0,"{""<5"":3,""5-20"":28,""21-60"":9,""61-240"":11,"">240"":10}",4777.5,41.823402,-71.45151899999999,445310.0,RI,44.0,44007.0,Providence County,440070019003.0
52618,sg:bcc19e9895844421ac9ee10fdc65e75d,Culinary Art Museum And Archives,RI,2019-12-01T00:00:00-05:00,2020-01-01T00:00:00-05:00,2903,2103,89.0,"{""<5"":19,""5-20"":279,""21-60"":420,""61-240"":1180,"">240"":205}",247335.0,41.819894,-71.412757,712110.0,RI,44.0,44007.0,Providence County,440070008003.0
52731,sg:c7c61292cc384347bc57433fe8e6662f,Grandma's Library Little Free Library Charter 34034,RI,2019-12-01T00:00:00-05:00,2020-01-01T00:00:00-05:00,2864,46,65.5,"{""<5"":0,""5-20"":8,""21-60"":15,""61-240"":11,"">240"":12}",5243.0,41.949141,-71.397584,451211.0,RI,44.0,44007.0,Providence County,440070114012.0
52924,sg:dadf15207b0547f2b9694bc1e6bdc8be,Final Gift Cremation Service,RI,2019-12-01T00:00:00-05:00,2020-01-01T00:00:00-05:00,2921,88,186.5,"{""<5"":1,""5-20"":19,""21-60"":8,""61-240"":25,"">240"":35}",12726.5,41.783953000000004,-71.52348,812910.0,RI,44.0,44007.0,Providence County,440070146002.0
53836,sg:2fa9eee8d3b142eebb51de6bdc5ade85,Royal Flush Havanese,RI,2019-12-01T00:00:00-05:00,2020-01-01T00:00:00-05:00,2813,24,202.0,"{""<5"":0,""5-20"":5,""21-60"":1,""61-240"":8,"">240"":10}",3707.0,41.399901,-71.622485,812910.0,RI,44.0,44009.0,Washington County,440090511021.0
53958,sg:3b935f4ee7814733b835fd20bdbb695a,Ocean State Pain Management,RI,2019-12-01T00:00:00-05:00,2020-01-01T00:00:00-05:00,2895,82,24.0,"{""<5"":3,""5-20"":34,""21-60"":19,""61-240"":18,"">240"":8}",5831.0,42.005062,-71.494681,621111.0,RI,44.0,44007.0,Providence County,440070185001.0
54225,sg:53a0f7414c43407c93002986dffb14ac,Subway,RI,2019-12-01T00:00:00-05:00,2020-01-01T00:00:00-05:00,2886,123,13.0,"{""<5"":8,""5-20"":69,""21-60"":24,""61-240"":19,"">240"":3}",5434.0,41.718654,-71.486285,722513.0,RI,44.0,44003.0,Kent County,440030223002.0
54855,sg:916311f17bd74bb2b99b023831e0fafa,Pawtucket,RI,2019-12-01T00:00:00-05:00,2020-01-01T00:00:00-05:00,2861,91,20.0,"{""<5"":3,""5-20"":43,""21-60"":12,""61-240"":9,"">240"":24}",8145.5,41.893716999999995,-71.37197900000001,441110.0,RI,44.0,44007.0,Providence County,440070153001.0
55089,sg:a93c5112f00f413488fd273623552b84,Asian Gourmet,RI,2019-12-01T00:00:00-05:00,2020-01-01T00:00:00-05:00,2878,169,22.0,"{""<5"":2,""5-20"":77,""21-60"":58,""61-240"":31,"">240"":1}",8222.0,41.626503,-71.147374,722511.0,RI,44.0,44005.0,Newport County,440050417011.0
55255,sg:b7b2d501892144bcbd0411a5e9ce3cfc,Midville Golf Club,RI,2019-12-01T00:00:00-05:00,2020-01-01T00:00:00-05:00,2893,214,70.0,"{""<5"":3,""5-20"":43,""21-60"":52,""61-240"":62,"">240"":54}",24942.0,41.722849,-71.50104300000001,713910.0,RI,44.0,44003.0,Kent County,440030205002.0
55329,sg:bfead523b4e1440daaeef5725484b023,La Nuova Pizzeria,RI,2019-12-01T00:00:00-05:00,2020-01-01T00:00:00-05:00,2919,98,22.0,"{""<5"":2,""5-20"":45,""21-60"":39,""61-240"":9,"">240"":3}",4221.5,41.819219,-71.49699100000001,722511.0,RI,44.0,44007.0,Providence County,440070124015.0
55360,sg:c32fc6d5080d4ea8a8604b4397215659,Social Security,RI,2019-12-01T00:00:00-05:00,2020-01-01T00:00:00-05:00,2895,3,109.0,"{""<5"":0,""5-20"":1,""21-60"":0,""61-240"":1,"">240"":1}",403.0,42.014839,-71.46564599999999,921190.0,RI,44.0,44007.0,Providence County,440070184003.0
55796,sg:ee2668883d0a447a86dcaa45c338e8ac,St Andrews School,RI,2019-12-01T00:00:00-05:00,2020-01-01T00:00:00-05:00,2806,911,106.0,"{""<5"":8,""5-20"":146,""21-60"":167,""61-240"":369,"">240"":221}",117183.0,41.749981,-71.324158,611110.0,RI,44.0,44001.0,Bristol County,440010302001.0
55835,sg:f260d6f8aedd4e2b8f3b86503e46419a,Hackman Edmund T Jr Optmtrst,RI,2019-12-01T00:00:00-05:00,2020-01-01T00:00:00-05:00,2888,56,20.5,"{""<5"":1,""5-20"":27,""21-60"":17,""61-240"":8,"">240"":3}",2952.5,41.738838,-71.40786700000001,446130.0,RI,44.0,44003.0,Kent County,440030213004.0
55984,sg:015c7e51eaf442ba903261833d91fd31,Little Caesars,RI,2019-12-01T00:00:00-05:00,2020-01-01T00:00:00-05:00,2910,171,24.0,"{""<5"":4,""5-20"":77,""21-60"":19,""61-240"":40,"">240"":31}",15202.0,41.779422,-71.444193,722513.0,RI,44.0,44007.0,Providence County,440070140005.0
56159,sg:0efea47f828f4a1dbcfa84209db582fe,McCarthy's Auto Repair & Service,RI,2019-12-01T00:00:00-05:00,2020-01-01T00:00:00-05:00,2809,9,55.0,"{""<5"":0,""5-20"":2,""21-60"":3,""61-240"":1,"">240"":3}",1017.0,41.674189,-71.259507,811111.0,RI,44.0,44001.0,Bristol County,440010308001.0
56310,sg:1d8e1846f6b74732a0178824c4e58757,BrewGrindz,RI,2019-12-01T00:00:00-05:00,2020-01-01T00:00:00-05:00,2904,173,23.0,"{""<5"":6,""5-20"":72,""21-60"":56,""61-240"":30,"">240"":9}",9858.0,41.862372,-71.45841,722515.0,RI,44.0,44007.0,Providence County,440070119021.0
56621,sg:3bcde52faf3e489b9f539f32eb259d3f,Wendy's,RI,2019-12-01T00:00:00-05:00,2020-01-01T00:00:00-05:00,2852,401,8.0,"{""<5"":25,""5-20"":280,""21-60"":53,""61-240"":24,"">240"":19}",13881.0,41.631214,-71.468968,722513.0,RI,44.0,44009.0,Washington County,440090501035.0
57162,sg:6bf10d5bcac64968ad17f6834616ae6a,Happy Garden,RI,2019-12-01T00:00:00-05:00,2020-01-01T00:00:00-05:00,2888,1,11.0,"{""<5"":0,""5-20"":1,""21-60"":0,""61-240"":0,"">240"":0}",12.5,41.741981,-71.406599,722511.0,RI,44.0,44003.0,Kent County,440030213004.0
57517,sg:8b09c87db1954986bb9487e53726d25c,The Chicken Coop on Smith Hill,RI,2019-12-01T00:00:00-05:00,2020-01-01T00:00:00-05:00,2908,118,143.5,"{""<5"":3,""5-20"":36,""21-60"":12,""61-240"":23,"">240"":44}",14965.0,41.834876,-71.42435400000001,722511.0,RI,44.0,44007.0,Providence County,440070026001.0
57709,sg:9bf4e0cccb274b639b8b84de51618f89,Dunkin',RI,2019-12-01T00:00:00-05:00,2020-01-01T00:00:00-05:00,2874,230,7.0,"{""<5"":21,""5-20"":189,""21-60"":16,""61-240"":2,"">240"":2}",3844.0,41.494968,-71.457321,722515.0,RI,44.0,44009.0,Washington County,440090513051.0
58101,sg:c19fd4d5fb7247409270b929580de59d,Smithfield Dental Associates,RI,2019-12-01T00:00:00-05:00,2020-01-01T00:00:00-05:00,2917,13,300.0,"{""<5"":0,""5-20"":0,""21-60"":0,""61-240"":2,"">240"":11}",2941.0,41.865029,-71.532985,621210.0,RI,44.0,44007.0,Providence County,440070127021.0
58358,sg:dc7283ec2b814c519fa8fceece8867ce,Providence Country Day School,RI,2019-12-01T00:00:00-05:00,2020-01-01T00:00:00-05:00,2914,1002,59.0,"{""<5"":14,""5-20"":221,""21-60"":286,""61-240"":373,"">240"":108}",96437.0,41.816731,-71.354381,611110.0,RI,44.0,44007.0,Providence County,440070103002.0
58901,sg:112c314a7a40465bb8eccd812af3f53c,Rangoon Chinese & Japanese Restaurant,RI,2019-12-01T00:00:00-05:00,2020-01-01T00:00:00-05:00,2917,205,101.0,"{""<5"":2,""5-20"":35,""21-60"":41,""61-240"":82,"">240"":45}",25244.0,41.873028999999995,-71.495144,722511.0,RI,44.0,44007.0,Providence County,440070126024.0
59034,sg:1c14b1dcd44c40b0a5610fcc258b42c8,Tot Lot,RI,2019-12-01T00:00:00-05:00,2020-01-01T00:00:00-05:00,2906,61,142.0,"{""<5"":0,""5-20"":12,""21-60"":11,""61-240"":17,"">240"":21}",8194.0,41.843709999999994,-71.396007,713940.0,RI,44.0,44007.0,Providence County,440070032001.0
59865,sg:67c7d74572e14d4c8acb418ca206e80a,Just Fabric,RI,2019-12-01T00:00:00-05:00,2020-01-01T00:00:00-05:00,2920,29,15.0,"{""<5"":2,""5-20"":18,""21-60"":7,""61-240"":0,"">240"":2}",993.5,41.784439,-71.473389,451130.0,RI,44.0,44007.0,Providence County,440070148003.0
59910,sg:6b98fdefdcc7403aa6dab8a3c6d4610b,NBX Bikes of Narragansett,RI,2019-12-01T00:00:00-05:00,2020-01-01T00:00:00-05:00,2882,74,48.0,"{""<5"":3,""5-20"":21,""21-60"":15,""61-240"":18,"">240"":17}",7666.5,41.476768,-71.435743,451110.0,RI,44.0,44009.0,Washington County,440090515024.0
59970,sg:723284e8c2f94968a5e1336ba83f6637,Agape,RI,2019-12-01T00:00:00-05:00,2020-01-01T00:00:00-05:00,2906,48,42.0,"{""<5"":0,""5-20"":9,""21-60"":22,""61-240"":5,"">240"":12}",4636.0,41.827319,-71.386422,621111.0,RI,44.0,44007.0,Providence County,440070035003.0
60033,sg:7999123275f444aa94b6b5fbd1744478,Sarto,RI,2019-12-01T00:00:00-05:00,2020-01-01T00:00:00-05:00,2903,425,68.0,"{""<5"":3,""5-20"":74,""21-60"":114,""61-240"":198,"">240"":36}",43988.5,41.823143,-71.410607,722511.0,RI,44.0,44007.0,Providence County,440070008003.0
60182,sg:89dca73cf89b4dafa4a1cd0877e35af3,Papa Sam's Pizza,RI,2019-12-01T00:00:00-05:00,2020-01-01T00:00:00-05:00,2914,49,636.0,"{""<5"":5,""5-20"":12,""21-60"":3,""61-240"":3,"">240"":26}",6975.5,41.813367,-71.370182,722511.0,RI,44.0,44007.0,Providence County,440070104001.0
60538,sg:ad0440644b5a4b4898d9e876a65ed3df,Boilermakers,RI,2019-12-01T00:00:00-05:00,2020-01-01T00:00:00-05:00,2895,130,108.5,"{""<5"":1,""5-20"":32,""21-60"":20,""61-240"":34,"">240"":43}",16649.5,42.001095,-71.513786,722511.0,RI,44.0,44007.0,Providence County,440070180003.0
60920,sg:d3fc77d0ab4046588d405c000a1b9a2b,Providence Jewelry Museum,RI,2019-12-01T00:00:00-05:00,2020-01-01T00:00:00-05:00,2904,135,25.0,"{""<5"":5,""5-20"":57,""21-60"":26,""61-240"":22,"">240"":25}",11089.0,41.851999,-71.414052,712110.0,RI,44.0,44007.0,Providence County,440070029003.0
61592,sg:1451878c176e436a9b5e05052199984b,Petco,RI,2019-12-01T00:00:00-05:00,2020-01-01T00:00:00-05:00,2904,733,21.0,"{""<5"":14,""5-20"":334,""21-60"":175,""61-240"":106,"">240"":104}",52210.5,41.837684,-71.40852,453910.0,RI,44.0,44007.0,Providence County,440070031003.0
61658,sg:1b18ed9fd82a4197a5cd11478e2a6b49,West Warwick Cell,RI,2019-12-01T00:00:00-05:00,2020-01-01T00:00:00-05:00,2893,6,104.0,"{""<5"":0,""5-20"":2,""21-60"":0,""61-240"":3,"">240"":1}",716.5,41.707856,-71.53134,517312.0,RI,44.0,44003.0,Kent County,440030203003.0
61827,sg:2a1fa2dba1fc4329b11d2ef23729f4cf,The Men's Wearhouse,RI,2019-12-01T00:00:00-05:00,2020-01-01T00:00:00-05:00,2886,25,12.0,"{""<5"":3,""5-20"":15,""21-60"":7,""61-240"":0,"">240"":0}",478.5,41.719437,-71.485587,448110.0,RI,44.0,44003.0,Kent County,440030223002.0
62870,sg:8eb6fe940208477485342f24356ae223,Catanzaro Food Products,RI,2019-12-01T00:00:00-05:00,2020-01-01T00:00:00-05:00,2860,102,124.5,"{""<5"":0,""5-20"":14,""21-60"":11,""61-240"":44,"">240"":33}",15162.5,41.867554999999996,-71.403133,445110.0,RI,44.0,44007.0,Providence County,440070163001.0
63007,sg:9c681f2ac24a4ece837f53d8ad2ba7f6,Abbe Lassow Ameriprise Financial Services,RI,2019-12-01T00:00:00-05:00,2020-01-01T00:00:00-05:00,2886,9,515.0,"{""<5"":0,""5-20"":0,""21-60"":3,""61-240"":1,"">240"":5}",1472.0,41.725462,-71.45450699999999,523930.0,RI,44.0,44003.0,Kent County,440030221001.0
63296,sg:b999f350679645ee91b698ecfa84953e,White Horse Vapor,RI,2019-12-01T00:00:00-05:00,2020-01-01T00:00:00-05:00,2904,115,61.0,"{""<5"":2,""5-20"":36,""21-60"":19,""61-240"":33,"">240"":25}",12191.0,41.865765,-71.44480899999999,444120.0,RI,44.0,44007.0,Providence County,440070119023.0
63448,sg:c9c8a0a632e54652acf92e31b7469b2e,Acupuncture Integrative Body Therapy,RI,2019-12-01T00:00:00-05:00,2020-01-01T00:00:00-05:00,2852,7,157.0,"{""<5"":1,""5-20"":0,""21-60"":1,""61-240"":2,"">240"":3}",1064.0,41.560796,-71.44718,621111.0,RI,44.0,44009.0,Washington County,440090503021.0
63655,sg:de5da0bf57f34964aec40a65b04196da,Cumberland Hill Alphabest,RI,2019-12-01T00:00:00-05:00,2020-01-01T00:00:00-05:00,2864,115,22.0,"{""<5"":1,""5-20"":49,""21-60"":28,""61-240"":21,"">240"":16}",8749.5,41.975572,-71.459448,624410.0,RI,44.0,44007.0,Providence County,440070114033.0
64011,sg:03a7b6cbd27f48cfb026feac88fe483d,West Warwick Fire Department Station 1 Headquarters,RI,2019-12-01T00:00:00-05:00,2020-01-01T00:00:00-05:00,2893,61,89.0,"{""<5"":1,""5-20"":8,""21-60"":12,""61-240"":33,"">240"":7}",7235.0,41.706540000000004,-71.522786,922160.0,RI,44.0,44003.0,Kent County,440030203003.0
64251,sg:179d1cb9329b4c6e83272a2e20643b91,Hair Designs,RI,2019-12-01T00:00:00-05:00,2020-01-01T00:00:00-05:00,2886,10,10.5,"{""<5"":0,""5-20"":8,""21-60"":2,""61-240"":0,"">240"":0}",181.0,41.722121,-71.441643,812112.0,RI,44.0,44003.0,Kent County,440030211004.0
64342,sg:215e6619b16b4e0bacc9b6ce3dbd23e2,L'atelier Hair Salon,RI,2019-12-01T00:00:00-05:00,2020-01-01T00:00:00-05:00,2885,4,138.0,"{""<5"":0,""5-20"":2,""21-60"":0,""61-240"":0,"">240"":2}",505.0,41.729704999999996,-71.278852,812112.0,RI,44.0,44001.0,Bristol County,440010305002.0
64648,sg:3bebd51d8b7d413ba576aacf42dddf2a,Petro Home Services,RI,2019-12-01T00:00:00-05:00,2020-01-01T00:00:00-05:00,2895,7,10.0,"{""<5"":0,""5-20"":6,""21-60"":0,""61-240"":1,"">240"":0}",225.5,42.009027,-71.529609,221210.0,RI,44.0,44007.0,Providence County,440070174001.0
65249,sg:70780cd2eac944f7818872f3375ac04e,Universe Bar & Cafe,RI,2019-12-01T00:00:00-05:00,2020-01-01T00:00:00-05:00,2904,130,42.0,"{""<5"":0,""5-20"":33,""21-60"":47,""61-240"":33,"">240"":17}",11362.5,41.869026,-71.423787,722511.0,RI,44.0,44007.0,Providence County,440070118001.0
65556,sg:8d02d428e05c4f4f88fec7f72459ae53,Advance America Cash Advance Center,RI,2019-12-01T00:00:00-05:00,2020-01-01T00:00:00-05:00,2919,9,7.0,"{""<5"":1,""5-20"":8,""21-60"":0,""61-240"":0,"">240"":0}",102.5,41.825585,-71.499976,522291.0,RI,44.0,44007.0,Providence County,440070124014.0
66016,sg:b71f5bd32cf742dcafdc516e83c62521,White Dog Distilling,RI,2019-12-01T00:00:00-05:00,2020-01-01T00:00:00-05:00,2860,1,55.0,"{""<5"":0,""5-20"":0,""21-60"":1,""61-240"":0,"">240"":0}",40.5,41.872713,-71.407493,722515.0,RI,44.0,44007.0,Providence County,440070163001.0
66024,sg:b82b2eb234ff49c4b0348de95ceb90d5,Magniventris,RI,2019-12-01T00:00:00-05:00,2020-01-01T00:00:00-05:00,2905,134,101.0,"{""<5"":3,""5-20"":27,""21-60"":26,""61-240"":44,"">240"":34}",16180.0,41.787158000000005,-71.39695,448140.0,RI,44.0,44007.0,Providence County,440070001013.0
66231,sg:cb4c659565974e8e983503bc2219b6b8,Caribe Super Market,RI,2019-12-01T00:00:00-05:00,2020-01-01T00:00:00-05:00,2904,404,30.0,"{""<5"":7,""5-20"":160,""21-60"":103,""61-240"":86,"">240"":48}",30652.0,41.853419,-71.420053,445110.0,RI,44.0,44007.0,Providence County,440070029002.0
66535,sg:e7b2753e11fb40b096190ddb42fd9751,United Brothers Synagogue,RI,2019-12-01T00:00:00-05:00,2020-01-01T00:00:00-05:00,2809,8,138.0,"{""<5"":0,""5-20"":2,""21-60"":2,""61-240"":1,"">240"":3}",976.5,41.668913,-71.273425,813110.0,RI,44.0,44001.0,Bristol County,440010307004.0
67215,sg:25d4e839328245baba696ff09da3687f,Big Lots Stores,RI,2019-12-01T00:00:00-05:00,2020-01-01T00:00:00-05:00,2889,610,19.0,"{""<5"":15,""5-20"":323,""21-60"":200,""61-240"":59,"">240"":13}",24174.5,41.709881,-71.399136,452319.0,RI,44.0,44003.0,Kent County,440030218002.0
67232,sg:27279833b2d84b0d9990fe201c207926,Cox Store,RI,2019-12-01T00:00:00-05:00,2020-01-01T00:00:00-05:00,2865,110,277.0,"{""<5"":0,""5-20"":16,""21-60"":6,""61-240"":27,"">240"":61}",19146.5,41.93461,-71.481311,517312.0,RI,44.0,44007.0,Providence County,440070116004.0
67702,sg:562392ffb9324c8da727885cb461d3a0,CVS,RI,2019-12-01T00:00:00-05:00,2020-01-01T00:00:00-05:00,2859,439,10.0,"{""<5"":19,""5-20"":320,""21-60"":76,""61-240"":10,"">240"":14}",11990.5,41.955158000000004,-71.704053,446110.0,RI,44.0,44007.0,Providence County,440070129004.0
68188,sg:846e1343a2774935bf318284d3161d1e,US Air Force Recruiting,RI,2019-12-01T00:00:00-05:00,2020-01-01T00:00:00-05:00,2909,7,61.0,"{""<5"":0,""5-20"":0,""21-60"":3,""61-240"":1,"">240"":3}",992.0,41.826087,-71.436128,921190.0,RI,44.0,44007.0,Providence County,440070025002.0
68209,sg:866526d8942c4f5ba82a9f2dfeab9873,Innovative Office Interiors,RI,2019-12-01T00:00:00-05:00,2020-01-01T00:00:00-05:00,2822,9,16.0,"{""<5"":0,""5-20"":7,""21-60"":0,""61-240"":2,"">240"":0}",388.5,41.567775,-71.540432,453210.0,RI,44.0,44009.0,Washington County,440090505001.0
68283,sg:8e4d62fe25f346539bffd9b9d86cd33e,West Broadway Middle School,RI,2019-12-01T00:00:00-05:00,2020-01-01T00:00:00-05:00,2909,324,360.0,"{""<5"":0,""5-20"":37,""21-60"":23,""61-240"":34,"">240"":230}",61711.0,41.817240000000005,-71.435965,611110.0,RI,44.0,44007.0,Providence County,440070010002.0
69169,sg:e5f9d368e8c54cb2a3fd8bcebf67977b,Kristina Grande Residential Properties,RI,2019-12-01T00:00:00-05:00,2020-01-01T00:00:00-05:00,2909,1,827.0,"{""<5"":0,""5-20"":0,""21-60"":0,""61-240"":0,"">240"":1}",240.0,41.819342,-71.43028000000001,531210.0,RI,44.0,44007.0,Providence County,440070011003.0
69175,sg:e65794c0d94441539a461c4c77fb9ee5,Darlington Early Childhood Center,RI,2019-12-01T00:00:00-05:00,2020-01-01T00:00:00-05:00,2861,24,29.0,"{""<5"":0,""5-20"":11,""21-60"":4,""61-240"":8,"">240"":1}",1743.5,41.875026,-71.35470699999999,624410.0,RI,44.0,44007.0,Providence County,440070168002.0
69681,sg:169a730916ff4057a6daadfa092bb1fd,Sunoco,RI,2019-12-01T00:00:00-05:00,2020-01-01T00:00:00-05:00,2830,165,8.0,"{""<5"":20,""5-20"":99,""21-60"":33,""61-240"":11,"">240"":2}",4759.5,41.977711,-71.61455699999999,447110.0,RI,44.0,44007.0,Providence County,440070130021.0
69775,sg:1ced765d7af14df1b805c9515f97863d,Subway,RI,2019-12-01T00:00:00-05:00,2020-01-01T00:00:00-05:00,2860,172,17.5,"{""<5"":4,""5-20"":88,""21-60"":28,""61-240"":33,"">240"":19}",11770.5,41.871697,-71.413117,722513.0,RI,44.0,44007.0,Providence County,440070150001.0
69878,sg:255e50b9eb1a4013a3ec7bbfc9b2b4f6,Cozy Quarters Pet Inn,RI,2019-12-01T00:00:00-05:00,2020-01-01T00:00:00-05:00,2896,21,74.0,"{""<5"":1,""5-20"":4,""21-60"":5,""61-240"":6,"">240"":5}",2358.0,41.953886,-71.490997,453910.0,RI,44.0,44007.0,Providence County,440070128032.0
70188,sg:3f6845dabca740b2b2f7e0786c682283,Coastway Bank,RI,2019-12-01T00:00:00-05:00,2020-01-01T00:00:00-05:00,2921,3,27.0,"{""<5"":0,""5-20"":1,""21-60"":2,""61-240"":0,"">240"":0}",93.5,41.783482,-71.515013,522110.0,RI,44.0,44007.0,Providence County,440070146002.0
70713,sg:6f5338ae61bf452ebdac1f5b83e71b8c,NBX Bikes of East Providence,RI,2019-12-01T00:00:00-05:00,2020-01-01T00:00:00-05:00,2914,134,32.0,"{""<5"":4,""5-20"":53,""21-60"":27,""61-240"":28,"">240"":22}",11260.0,41.813227000000005,-71.366654,451110.0,RI,44.0,44007.0,Providence County,440070104001.0
70910,sg:83c10f58332e4e41855ccf1405954d72,Studio101,RI,2019-12-01T00:00:00-05:00,2020-01-01T00:00:00-05:00,2903,15,125.0,"{""<5"":0,""5-20"":4,""21-60"":0,""61-240"":6,"">240"":5}",2153.0,41.822537,-71.4094,812112.0,RI,44.0,44007.0,Providence County,440070008003.0
71247,sg:a231d01c3ff34a18a59d49bdf208b8ba,Dear Hearts Iii,RI,2019-12-01T00:00:00-05:00,2020-01-01T00:00:00-05:00,2889,20,12.0,"{""<5"":2,""5-20"":10,""21-60"":4,""61-240"":4,"">240"":0}",894.0,41.703033000000005,-71.406222,722515.0,RI,44.0,44003.0,Kent County,440030218002.0
71613,sg:c6f1167fd8024bfe822a97d571559dd9,New York Style Pizza Boulevard,RI,2019-12-01T00:00:00-05:00,2020-01-01T00:00:00-05:00,2910,47,40.0,"{""<5"":1,""5-20"":13,""21-60"":18,""61-240"":10,"">240"":5}",3599.0,41.785768,-71.451173,722511.0,RI,44.0,44007.0,Providence County,440070140003.0
71711,sg:d2a625c5579149459019d8b610fd6d47,Applebee's,RI,2019-12-01T00:00:00-05:00,2020-01-01T00:00:00-05:00,2816,646,47.0,"{""<5"":4,""5-20"":106,""21-60"":324,""61-240"":209,"">240"":3}",46631.5,41.662063,-71.546425,722511.0,RI,44.0,44003.0,Kent County,440030206033.0
71896,sg:e6e77247fee74565b1b106bf518b096d,Advance Auto Parts,RI,2019-12-01T00:00:00-05:00,2020-01-01T00:00:00-05:00,2861,25,11.0,"{""<5"":1,""5-20"":17,""21-60"":7,""61-240"":0,"">240"":0}",498.5,41.889109000000005,-71.367778,441310.0,RI,44.0,44007.0,Providence County,440070155003.0
72470,sg:1a812176c4614fe3ad93a8a12cb0f6e1,South County Nursing and Subacute Center,RI,2019-12-01T00:00:00-05:00,2020-01-01T00:00:00-05:00,2852,48,221.5,"{""<5"":0,""5-20"":1,""21-60"":9,""61-240"":17,"">240"":21}",7975.5,41.558822,-71.487905,621340.0,RI,44.0,44009.0,Washington County,440090503013.0
72907,sg:3eac9d1b77d64dc4a37c3ccf07f0cdd2,Shell Oil,RI,2019-12-01T00:00:00-05:00,2020-01-01T00:00:00-05:00,2905,86,6.0,"{""<5"":14,""5-20"":55,""21-60"":12,""61-240"":4,"">240"":1}",2050.5,41.786184999999996,-71.39474200000001,447110.0,RI,44.0,44007.0,Providence County,440070001011.0
73212,sg:59a4b39d412e4be49036add5e1b5142a,Slate Hill Park,RI,2019-12-01T00:00:00-05:00,2020-01-01T00:00:00-05:00,2920,153,26.0,"{""<5"":7,""5-20"":52,""21-60"":36,""61-240"":30,"">240"":28}",13360.5,41.756726,-71.463042,712190.0,RI,44.0,44007.0,Providence County,440070144001.0
73887,sg:9aa2e4ed9c6747378d95917afc66e3a6,Children's Dentistry of Westerly & Wakefield,RI,2019-12-01T00:00:00-05:00,2020-01-01T00:00:00-05:00,2891,1,503.0,"{""<5"":0,""5-20"":0,""21-60"":0,""61-240"":0,"">240"":1}",240.0,41.370517,-71.819643,621210.0,RI,44.0,44009.0,Washington County,440090508021.0
74315,sg:c747d50dcdad444bab583656c4b2395b,Smithfield High School,RI,2019-12-01T00:00:00-05:00,2020-01-01T00:00:00-05:00,2917,2412,227.5,"{""<5"":14,""5-20"":273,""21-60"":324,""61-240"":626,"">240"":1175}",392782.5,41.880657,-71.543948,611110.0,RI,44.0,44007.0,Providence County,440070127013.0
75041,sg:0c46523b61be4777b5112b564c42a632,Eden Park School,RI,2019-12-01T00:00:00-05:00,2020-01-01T00:00:00-05:00,2910,251,51.0,"{""<5"":0,""5-20"":84,""21-60"":50,""61-240"":39,"">240"":78}",27664.5,41.772403000000004,-71.446072,611110.0,RI,44.0,44007.0,Providence County,440070137023.0
75658,sg:4467eea3ea964b73902c3075210f5681,Papi's Tacos,RI,2019-12-01T00:00:00-05:00,2020-01-01T00:00:00-05:00,2889,109,37.0,"{""<5"":1,""5-20"":34,""21-60"":35,""61-240"":21,"">240"":18}",9325.5,41.724138,-71.382548,722511.0,RI,44.0,44003.0,Kent County,440030215011.0
75695,sg:476ea91a5ac24515b556c360d5077e36,Sandy Lane Auto Sales & Repairs,RI,2019-12-01T00:00:00-05:00,2020-01-01T00:00:00-05:00,2889,40,20.0,"{""<5"":0,""5-20"":21,""21-60"":14,""61-240"":5,"">240"":0}",1582.0,41.704776,-71.418227,441120.0,RI,44.0,44003.0,Kent County,440030219031.0
75915,sg:5bd1fa20a730401dba99beda14bb35cf,Sakonnet Greenway Trail,RI,2019-12-01T00:00:00-05:00,2020-01-01T00:00:00-05:00,2832,9,15.0,"{""<5"":0,""5-20"":6,""21-60"":1,""61-240"":2,"">240"":0}",416.5,41.541034,-71.696512,712190.0,RI,44.0,44009.0,Washington County,440090507001.0
76344,sg:84d70d937aa049eeb2959d2c53f0a89d,Dialysis Center Of Pawtucket,RI,2019-12-01T00:00:00-05:00,2020-01-01T00:00:00-05:00,2860,38,23.5,"{""<5"":0,""5-20"":17,""21-60"":8,""61-240"":4,"">240"":9}",3298.5,41.87975,-71.368375,621492.0,RI,44.0,44007.0,Providence County,440070171002.0
76710,sg:a78d909083e14ad2ad7e630263341901,Verizon Wireless,RI,2019-12-01T00:00:00-05:00,2020-01-01T00:00:00-05:00,2852,207,21.0,"{""<5"":4,""5-20"":95,""21-60"":58,""61-240"":24,"">240"":26}",13398.5,41.581185999999995,-71.500341,517312.0,RI,44.0,44009.0,Washington County,440090503011.0
76970,sg:c247e8921f4b4e98afa5ab9f3e12a3c8,3 Amigos Taqueria,RI,2019-12-01T00:00:00-05:00,2020-01-01T00:00:00-05:00,2863,141,42.0,"{""<5"":5,""5-20"":40,""21-60"":42,""61-240"":25,"">240"":29}",12936.0,41.887189,-71.39726800000001,722511.0,RI,44.0,44007.0,Providence County,440070110003.0
77581,sg:ff305bdb56184ac38531878e7f8d5e3d,Coventry Pines Country Club,RI,2019-12-01T00:00:00-05:00,2020-01-01T00:00:00-05:00,2816,22,11.5,"{""<5"":3,""5-20"":11,""21-60"":3,""61-240"":5,"">240"":0}",1019.0,41.669672,-71.630027,713910.0,RI,44.0,44003.0,Kent County,440030207022.0
77775,sg:0f87f5f7a03346f1ac1a93d4a6c883c2,Edwards Garage,RI,2019-12-01T00:00:00-05:00,2020-01-01T00:00:00-05:00,2832,10,37.5,"{""<5"":0,""5-20"":4,""21-60"":2,""61-240"":4,"">240"":0}",733.0,41.492703999999996,-71.731617,811111.0,RI,44.0,44009.0,Washington County,440090507003.0
78304,sg:3dd1fb92dc544d9bbf282141b7db1318,SmokeZone Smoke Shop,RI,2019-12-01T00:00:00-05:00,2020-01-01T00:00:00-05:00,2903,48,54.0,"{""<5"":1,""5-20"":14,""21-60"":11,""61-240"":10,"">240"":12}",5008.0,41.819990999999995,-71.39518699999999,444120.0,RI,44.0,44007.0,Providence County,440070037003.0
78361,sg:430a8cc4270247d2b827294b7a8ba49d,Cardi's Furniture,RI,2019-12-01T00:00:00-05:00,2020-01-01T00:00:00-05:00,2893,261,36.0,"{""<5"":2,""5-20"":77,""21-60"":104,""61-240"":52,"">240"":26}",19245.5,41.669889000000005,-71.501019,442110.0,RI,44.0,44003.0,Kent County,440030201012.0
78512,sg:50d44eb6bc624148a9dc89b575a353b2,Rhode Is State of Donley Dr John E Jr Rehblttn Ctr,RI,2019-12-01T00:00:00-05:00,2020-01-01T00:00:00-05:00,2906,49,172.0,"{""<5"":1,""5-20"":12,""21-60"":5,""61-240"":21,"">240"":10}",5915.5,41.842146,-71.385079,524210.0,RI,44.0,44007.0,Providence County,440070034002.0
78894,sg:762a80ca3f1f4f5a89b5114c1b02ec3a,Mount St Charles Academy,RI,2019-12-01T00:00:00-05:00,2020-01-01T00:00:00-05:00,2895,3615,110.0,"{""<5"":23,""5-20"":556,""21-60"":636,""61-240"":1642,"">240"":758}",461806.5,41.995911,-71.502309,611110.0,RI,44.0,44007.0,Providence County,440070178001.0
79138,sg:906e8368bbbc4d3d9284aafad59a7b3e,Gold's Auto Salvage,RI,2019-12-01T00:00:00-05:00,2020-01-01T00:00:00-05:00,2842,23,16.0,"{""<5"":1,""5-20"":13,""21-60"":5,""61-240"":2,"">240"":2}",1148.5,41.504084999999996,-71.297969,441310.0,RI,44.0,44005.0,Newport County,440050403022.0
80088,sg:f345f1a55e8a468a9255b412aa5fe40e,United States Golf Association,RI,2019-12-01T00:00:00-05:00,2020-01-01T00:00:00-05:00,2882,7,23.0,"{""<5"":0,""5-20"":3,""21-60"":3,""61-240"":1,"">240"":0}",309.5,41.4381,-71.458624,713910.0,RI,44.0,44009.0,Washington County,440090515031.0
80263,sg:055f137990884ffcbea5bd14a8fdbc1a,Mobil,RI,2019-12-01T00:00:00-05:00,2020-01-01T00:00:00-05:00,2914,299,8.0,"{""<5"":26,""5-20"":220,""21-60"":33,""61-240"":14,"">240"":6}",7698.5,41.811481,-71.358441,447110.0,RI,44.0,44007.0,Providence County,440070105011.0
80531,sg:1d465058feee4c67ba9b37de50756201,Joyful Bliss Yoga,RI,2019-12-01T00:00:00-05:00,2020-01-01T00:00:00-05:00,2919,442,43.0,"{""<5"":11,""5-20"":104,""21-60"":167,""61-240"":136,"">240"":24}",34319.0,41.816015,-71.495558,713940.0,RI,44.0,44007.0,Providence County,440070124021.0
80873,sg:3d0a1abd05a0472bb07f3d4d88c858cf,Stony Lane Baptist Church,RI,2019-12-01T00:00:00-05:00,2020-01-01T00:00:00-05:00,2852,66,122.5,"{""<5"":1,""5-20"":6,""21-60"":8,""61-240"":43,"">240"":8}",8793.0,41.592295,-71.49168,813110.0,RI,44.0,44009.0,Washington County,440090503011.0
80937,sg:42e8b170a0d14548880add0fb60a4850,Labels For Less,RI,2019-12-01T00:00:00-05:00,2020-01-01T00:00:00-05:00,2842,278,26.0,"{""<5"":15,""5-20"":107,""21-60"":79,""61-240"":68,"">240"":9}",16968.5,41.50976,-71.282921,452319.0,RI,44.0,44005.0,Newport County,440050404002.0
81076,sg:4ee23861205049dbbc3883f3af418aeb,Gazebo Park,RI,2019-12-01T00:00:00-05:00,2020-01-01T00:00:00-05:00,2905,218,19.0,"{""<5"":1,""5-20"":115,""21-60"":58,""61-240"":33,"">240"":11}",11395.5,41.431401,-71.456702,712190.0,RI,44.0,44009.0,Washington County,440090515032.0
81506,sg:75ee2c2776514a74a138191e15d9bc68,Dunkin',RI,2019-12-01T00:00:00-05:00,2020-01-01T00:00:00-05:00,2909,260,19.0,"{""<5"":12,""5-20"":127,""21-60"":48,""61-240"":44,"">240"":29}",17143.5,41.824709000000006,-71.43597199999999,722515.0,RI,44.0,44007.0,Providence County,440070025002.0
82028,sg:ad06ed3bef7c4d22b0337274e8519f05,Adler's Design Center & Hardware,RI,2019-12-01T00:00:00-05:00,2020-01-01T00:00:00-05:00,2903,53,37.0,"{""<5"":1,""5-20"":16,""21-60"":17,""61-240"":6,"">240"":13}",4914.0,41.819064000000004,-71.399762,444130.0,RI,44.0,44007.0,Providence County,440070037002.0
82278,sg:c3663936b3d24bbfa52c3ec76a9e9b7b,Cellar Stories,RI,2019-12-01T00:00:00-05:00,2020-01-01T00:00:00-05:00,2903,151,33.0,"{""<5"":2,""5-20"":45,""21-60"":64,""61-240"":33,"">240"":7}",9806.0,41.822734999999994,-71.414806,451211.0,RI,44.0,44007.0,Providence County,440070008003.0
82292,sg:c4a84a91b9fa4716a7a7fe10c506ef1c,Detroit Collision Center,RI,2019-12-01T00:00:00-05:00,2020-01-01T00:00:00-05:00,2904,28,12.0,"{""<5"":1,""5-20"":16,""21-60"":4,""61-240"":5,"">240"":2}",1597.0,41.858395,-71.445246,811111.0,RI,44.0,44007.0,Providence County,440070119011.0
82711,sg:ee2270660e5a4059b54ea9a1dc043f5c,Atlantic Auto Center,RI,2019-12-01T00:00:00-05:00,2020-01-01T00:00:00-05:00,2920,39,18.0,"{""<5"":2,""5-20"":21,""21-60"":12,""61-240"":3,"">240"":1}",1445.0,41.792621000000004,-71.473433,,RI,44.0,44007.0,Providence County,440070148001.0
83533,sg:39f6e77593e74f1a975e8ff0af549b96,The Golden Rose Wig Shoppe,RI,2019-12-01T00:00:00-05:00,2020-01-01T00:00:00-05:00,2920,1,8.0,"{""<5"":0,""5-20"":1,""21-60"":0,""61-240"":0,"">240"":0}",12.5,41.755307,-71.476714,446120.0,RI,44.0,44007.0,Providence County,440070144002.0
83778,sg:52285eb65de34962974aa15d7d159a5e,Campus Fine Wines,RI,2019-12-01T00:00:00-05:00,2020-01-01T00:00:00-05:00,2906,72,23.0,"{""<5"":0,""5-20"":33,""21-60"":18,""61-240"":11,"">240"":10}",5197.0,41.820174,-71.398176,445310.0,RI,44.0,44007.0,Providence County,440070037003.0
83933,sg:5f4365e386254535a1838e5a09b28b9f,Wicked Awesome Pet Care,RI,2019-12-01T00:00:00-05:00,2020-01-01T00:00:00-05:00,2904,29,97.0,"{""<5"":0,""5-20"":10,""21-60"":2,""61-240"":11,"">240"":6}",3301.5,41.863512,-71.45007,453910.0,RI,44.0,44007.0,Providence County,440070119011.0
84226,sg:7868da717ef24585aa6212b7213ed944,Jamestown Museum,RI,2019-12-01T00:00:00-05:00,2020-01-01T00:00:00-05:00,2835,30,13.5,"{""<5"":1,""5-20"":16,""21-60"":5,""61-240"":3,"">240"":5}",2056.5,41.496351000000004,-71.374039,712110.0,RI,44.0,44005.0,Newport County,440050413004.0
84296,sg:7ee1385a12304a41b9c51ed9b1414537,Bianell's Hair Salon Barber Shop,RI,2019-12-01T00:00:00-05:00,2020-01-01T00:00:00-05:00,2904,2,152.5,"{""<5"":0,""5-20"":0,""21-60"":0,""61-240"":2,"">240"":0}",301.0,41.850553999999995,-71.421047,812112.0,RI,44.0,44007.0,Providence County,440070029004.0
84600,sg:9df34f6bc5594ba5968e5649fbdc6eb2,The Learning Garden Inc,RI,2019-12-01T00:00:00-05:00,2020-01-01T00:00:00-05:00,2889,29,29.0,"{""<5"":0,""5-20"":11,""21-60"":7,""61-240"":5,"">240"":6}",2613.5,41.696308,-71.379451,624410.0,RI,44.0,44003.0,Kent County,440030215024.0
84736,sg:a9b64c507090467ea5eed9d5bc9569bf,Boost Mobile,RI,2019-12-01T00:00:00-05:00,2020-01-01T00:00:00-05:00,2909,11,36.0,"{""<5"":0,""5-20"":5,""21-60"":2,""61-240"":2,"">240"":2}",924.5,41.822534000000005,-71.450183,517312.0,RI,44.0,44007.0,Providence County,440070019003.0
85521,sg:f88cbcefa6ae40cda96d6fdf5a1712a6,St David's on the Hill Episcopal Church,RI,2019-12-01T00:00:00-05:00,2020-01-01T00:00:00-05:00,2920,106,74.5,"{""<5"":1,""5-20"":16,""21-60"":26,""61-240"":50,"">240"":13}",11900.5,41.767874,-71.466318,813110.0,RI,44.0,44007.0,Providence County,440070143004.0
85845,sg:185179de365e4f9eb36015f441395a45,Caterpillar,RI,2019-12-01T00:00:00-05:00,2020-01-01T00:00:00-05:00,2921,8,23.0,"{""<5"":0,""5-20"":3,""21-60"":4,""61-240"":0,"">240"":1}",439.5,41.788329,-71.513852,423810.0,,,,,
85992,sg:25b0743080ae4223b23b70362970940e,Dunkin',RI,2019-12-01T00:00:00-05:00,2020-01-01T00:00:00-05:00,2861,277,8.0,"{""<5"":25,""5-20"":184,""21-60"":34,""61-240"":20,"">240"":14}",10109.5,41.888865,-71.368724,722515.0,RI,44.0,44007.0,Providence County,440070155003.0
86019,sg:28050989dc4249f3afcf875e18c06047,Bayside Country Club Apts,RI,2019-12-01T00:00:00-05:00,2020-01-01T00:00:00-05:00,2889,62,25.0,"{""<5"":2,""5-20"":24,""21-60"":24,""61-240"":8,"">240"":4}",3441.0,41.707514,-71.38572099999999,451110.0,RI,44.0,44003.0,Kent County,440030218001.0
86117,sg:31836704f5d14fc58f2ce97fd9491524,Village Hearth Bakery,RI,2019-12-01T00:00:00-05:00,2020-01-01T00:00:00-05:00,2835,31,11.0,"{""<5"":1,""5-20"":19,""21-60"":7,""61-240"":3,"">240"":1}",1215.0,41.498265,-71.374995,311811.0,RI,44.0,44005.0,Newport County,440050413004.0
86122,sg:32564ec0aa344556abaae26970988843,Best Eastern Restaurant,RI,2019-12-01T00:00:00-05:00,2020-01-01T00:00:00-05:00,2863,86,21.0,"{""<5"":2,""5-20"":39,""21-60"":16,""61-240"":8,"">240"":21}",7384.5,41.887186,-71.401335,722511.0,RI,44.0,44007.0,Providence County,440070111002.0
86195,sg:38b753c59ee84909a68f528d2eddbcec,Sakonnet Grooming & Pet Wellness,RI,2019-12-01T00:00:00-05:00,2020-01-01T00:00:00-05:00,2878,115,20.0,"{""<5"":2,""5-20"":57,""21-60"":21,""61-240"":17,"">240"":18}",8446.5,41.658714,-71.192357,453910.0,RI,44.0,44005.0,Newport County,440050416022.0
86289,sg:40cd393f9b0e437d86eb3c7838002460,Nancy's Hair Salon,RI,2019-12-01T00:00:00-05:00,2020-01-01T00:00:00-05:00,2860,156,82.5,"{""<5"":1,""5-20"":21,""21-60"":33,""61-240"":74,"">240"":27}",19218.5,41.858859,-71.364277,812112.0,RI,44.0,44007.0,Providence County,440070171003.0
86412,sg:4c034b5d60c34a3da8d02e611d66f3c8,City Limit Auto,RI,2019-12-01T00:00:00-05:00,2020-01-01T00:00:00-05:00,2919,94,89.0,"{""<5"":1,""5-20"":27,""21-60"":11,""61-240"":37,"">240"":18}",10674.0,41.819338,-71.470213,,RI,44.0,44007.0,Providence County,440070018006.0
86439,sg:4e0b72dad3464beaa1be6a3fa4e03ad2,Diversified Global Technologies,RI,2019-12-01T00:00:00-05:00,2020-01-01T00:00:00-05:00,2895,146,157.5,"{""<5"":0,""5-20"":29,""21-60"":21,""61-240"":43,"">240"":53}",20404.5,42.011289,-71.528997,446110.0,RI,44.0,44007.0,Providence County,440070173003.0
86590,sg:5bc2d7e52c364be6b540d213a99870bb,Newport Ambassador Inn,RI,2019-12-01T00:00:00-05:00,2020-01-01T00:00:00-05:00,2842,45,11.0,"{""<5"":2,""5-20"":33,""21-60"":6,""61-240"":2,"">240"":2}",1441.5,41.536206,-71.291472,721110.0,RI,44.0,44005.0,Newport County,440050403041.0
86876,sg:7741ffed4a314913a59b15294c10cfc4,Providence Fire Department Engine Company 10 Rescue 2,RI,2019-12-01T00:00:00-05:00,2020-01-01T00:00:00-05:00,2909,50,300.0,"{""<5"":0,""5-20"":7,""21-60"":7,""61-240"":11,"">240"":25}",8026.5,41.818977000000004,-71.460059,922160.0,RI,44.0,44007.0,Providence County,440070018002.0
86919,sg:7be3ce607ae94fbd9e83861c75f8b648,Alcohol & Drug Program,RI,2019-12-01T00:00:00-05:00,2020-01-01T00:00:00-05:00,2906,129,35.0,"{""<5"":0,""5-20"":45,""21-60"":48,""61-240"":21,"">240"":15}",9267.0,41.843395,-71.38103000000001,621111.0,RI,44.0,44007.0,Providence County,440070034002.0
87542,sg:b84d14e3522745738366ab39f59c3581,MidiCi Neopolitan Pizza,RI,2019-12-01T00:00:00-05:00,2020-01-01T00:00:00-05:00,2914,145,36.0,"{""<5"":2,""5-20"":37,""21-60"":64,""61-240"":35,"">240"":7}",10007.0,41.805149,-71.341391,722511.0,RI,44.0,44007.0,Providence County,440070105011.0
87659,sg:c2a24bbef46f47028d02acfd7659eab7,Prior Service,RI,2019-12-01T00:00:00-05:00,2020-01-01T00:00:00-05:00,2904,3,26.0,"{""<5"":0,""5-20"":1,""21-60"":1,""61-240"":1,"">240"":0}",203.5,41.857642,-71.42160200000001,811111.0,RI,44.0,44007.0,Providence County,440070029005.0
88307,sg:059216c6baf0483c961e0f65212d742b,Iannotti Brothers Select Cars,RI,2019-12-01T00:00:00-05:00,2020-01-01T00:00:00-05:00,2816,10,192.0,"{""<5"":0,""5-20"":1,""21-60"":2,""61-240"":3,"">240"":4}",1505.0,41.683577,-71.556286,,RI,44.0,44003.0,Kent County,440030206031.0
88826,sg:34de6ac63ae94d719dda8891194e170c,Speedway,RI,2019-12-01T00:00:00-05:00,2020-01-01T00:00:00-05:00,2904,553,11.0,"{""<5"":30,""5-20"":304,""21-60"":88,""61-240"":81,"">240"":50}",31629.5,41.853187,-71.400685,447110.0,RI,44.0,44007.0,Providence County,440070033004.0
89124,sg:504bc29c88a743f0a8a7db52992a7e67,Keller Williams,RI,2019-12-01T00:00:00-05:00,2020-01-01T00:00:00-05:00,2906,2,686.5,"{""<5"":0,""5-20"":0,""21-60"":0,""61-240"":0,"">240"":2}",480.0,41.827884000000005,-71.388853,531210.0,RI,44.0,44007.0,Providence County,440070035003.0
90027,sg:a3861fe1df784b478aea5cce69fcd0e8,Johnny Rockets,RI,2019-12-01T00:00:00-05:00,2020-01-01T00:00:00-05:00,2865,2238,45.5,"{""<5"":55,""5-20"":682,""21-60"":520,""61-240"":762,"">240"":219}",196963.5,41.887901,-71.44894599999999,722511.0,RI,44.0,44007.0,Providence County,440070116002.0
90395,sg:c7d077bec1d34e54ac3531914bf84517,Blackstone Valley Chiropractic Health Care,RI,2019-12-01T00:00:00-05:00,2020-01-01T00:00:00-05:00,2861,121,253.0,"{""<5"":0,""5-20"":18,""21-60"":13,""61-240"":28,"">240"":62}",19845.5,41.886029,-71.354422,621310.0,RI,44.0,44007.0,Providence County,440070159001.0
90727,sg:e83531bbeb1d4c2ea381b12c53f7c2bb,Pet Valu,RI,2019-12-01T00:00:00-05:00,2020-01-01T00:00:00-05:00,2891,225,10.0,"{""<5"":12,""5-20"":151,""21-60"":33,""61-240"":16,"">240"":13}",8782.0,41.369745,-71.819299,453910.0,RI,44.0,44009.0,Washington County,440090508021.0
90932,sg:fd851a6af9914dbb88624a482a4a9a76,Chaves Gardens & Florist,RI,2019-12-01T00:00:00-05:00,2020-01-01T00:00:00-05:00,2842,101,21.0,"{""<5"":1,""5-20"":48,""21-60"":37,""61-240"":15,"">240"":0}",4358.5,41.53006,-71.272491,453110.0,RI,44.0,44005.0,Newport County,440050404001.0
91357,sg:22192dcf4a5d4209b0b6a16d267bfa42,Pakarang Exquisite Thai Cuisine,RI,2019-12-01T00:00:00-05:00,2020-01-01T00:00:00-05:00,2903,65,47.0,"{""<5"":3,""5-20"":23,""21-60"":8,""61-240"":13,"">240"":18}",6895.5,41.821846,-71.40486,722511.0,RI,44.0,44007.0,Providence County,440070037002.0
91547,sg:33bdad952de84dbe839baf172a64590f,Alexanders Uniforms,RI,2019-12-01T00:00:00-05:00,2020-01-01T00:00:00-05:00,2920,188,54.0,"{""<5"":1,""5-20"":51,""21-60"":47,""61-240"":31,"">240"":58}",21129.0,41.756817,-71.447822,453310.0,RI,44.0,44007.0,Providence County,440070139003.0
93136,sg:d08693813dd74507a2970cfe3fc2d03b,WED Shun III LLC,RI,2019-12-01T00:00:00-05:00,2020-01-01T00:00:00-05:00,2919,31,10.0,"{""<5"":0,""5-20"":25,""21-60"":6,""61-240"":0,"">240"":0}",555.5,41.799061,-71.549306,221111.0,RI,44.0,44007.0,Providence County,440070122003.0
93151,sg:d1a85b39345c4b97aae9e404ea066520,Inferno Audio,RI,2019-12-01T00:00:00-05:00,2020-01-01T00:00:00-05:00,2895,256,34.0,"{""<5"":4,""5-20"":91,""21-60"":81,""61-240"":67,"">240"":13}",17631.5,42.005218,-71.51100799999999,443142.0,RI,44.0,44007.0,Providence County,440070180002.0
93365,sg:e5cd1a7ca470447dbda1fd9cf55d6232,J C's of Watch Hill,RI,2019-12-01T00:00:00-05:00,2020-01-01T00:00:00-05:00,2891,2,33.0,"{""<5"":0,""5-20"":1,""21-60"":0,""61-240"":1,"">240"":0}",163.0,41.310518,-71.857351,448140.0,RI,44.0,44009.0,Washington County,440090510001.0
93781,sg:0f42707e9cb2498990d71834d1f8c271,B K Agency,RI,2019-12-01T00:00:00-05:00,2020-01-01T00:00:00-05:00,2911,1,565.0,"{""<5"":0,""5-20"":0,""21-60"":0,""61-240"":0,"">240"":1}",240.0,41.851971,-71.465755,524210.0,RI,44.0,44007.0,Providence County,440070120003.0
93893,sg:179748217c5c497cbecd58bbdfec5dc4,Orangetheory Fitness,RI,2019-12-01T00:00:00-05:00,2020-01-01T00:00:00-05:00,2920,522,33.0,"{""<5"":2,""5-20"":132,""21-60"":267,""61-240"":114,"">240"":7}",31305.5,41.754588,-71.461737,713940.0,RI,44.0,44007.0,Providence County,440070142002.0
94081,sg:298296d11a39400cbfbab5f22fa6aa44,Montessori Pathways Of New England,RI,2019-12-01T00:00:00-05:00,2020-01-01T00:00:00-05:00,2822,52,21.0,"{""<5"":1,""5-20"":24,""21-60"":9,""61-240"":8,"">240"":10}",4271.0,41.528271999999994,-71.552972,611110.0,RI,44.0,44009.0,Washington County,440090505003.0
94088,sg:2a1887be49d344c88c8e675e095847c2,True Essence 4 Life,RI,2019-12-01T00:00:00-05:00,2020-01-01T00:00:00-05:00,2910,5,28.0,"{""<5"":0,""5-20"":1,""21-60"":4,""61-240"":0,"">240"":0}",174.5,41.786709,-71.451287,812199.0,RI,44.0,44007.0,Providence County,440070140003.0
94164,sg:30e8051f6b3543f5a1757587d1185500,DB's Pizza,RI,2019-12-01T00:00:00-05:00,2020-01-01T00:00:00-05:00,2879,43,124.0,"{""<5"":3,""5-20"":10,""21-60"":4,""61-240"":6,"">240"":20}",5997.5,41.439589,-71.48751,722511.0,RI,44.0,44009.0,Washington County,440090512021.0
94362,sg:40736f64521b4dc5aa328060c47e93d4,Airgas,RI,2019-12-01T00:00:00-05:00,2020-01-01T00:00:00-05:00,2886,82,27.0,"{""<5"":3,""5-20"":31,""21-60"":27,""61-240"":15,"">240"":6}",5186.0,41.733284000000005,-71.440674,424690.0,RI,44.0,44003.0,Kent County,440030211004.0
94733,sg:614b40bcdadc48fd866f23b0359432a4,Wilmot John T CPA,RI,2019-12-01T00:00:00-05:00,2020-01-01T00:00:00-05:00,2903,14,395.5,"{""<5"":0,""5-20"":0,""21-60"":1,""61-240"":4,"">240"":9}",2802.5,41.826229,-71.412101,541213.0,RI,44.0,44007.0,Providence County,440070008001.0
94868,sg:6e8d861f239a40189de24cd8b1bb10f0,Med Tech Ambulance,RI,2019-12-01T00:00:00-05:00,2020-01-01T00:00:00-05:00,2861,33,42.0,"{""<5"":0,""5-20"":9,""21-60"":14,""61-240"":7,"">240"":3}",2453.0,41.880987,-71.36484499999999,485999.0,RI,44.0,44007.0,Providence County,440070159004.0
95067,sg:7e99c9c27c664ec9960fb61fdc496ac5,Dunkin',RI,2019-12-01T00:00:00-05:00,2020-01-01T00:00:00-05:00,2907,213,7.0,"{""<5"":19,""5-20"":154,""21-60"":21,""61-240"":15,"">240"":4}",6040.5,41.789124,-71.42055400000001,722515.0,RI,44.0,44007.0,Providence County,440070002005.0
95136,sg:8590c63f1138494eac094c4e8404b14b,KFC,RI,2019-12-01T00:00:00-05:00,2020-01-01T00:00:00-05:00,2895,212,10.0,"{""<5"":4,""5-20"":141,""21-60"":48,""61-240"":13,"">240"":6}",7113.0,42.004473,-71.510977,722513.0,RI,44.0,44007.0,Providence County,440070180002.0
95513,sg:a8cb605a555d45f992fda3872cb07c96,Federal Hill Pizza,RI,2019-12-01T00:00:00-05:00,2020-01-01T00:00:00-05:00,2885,102,58.5,"{""<5"":2,""5-20"":17,""21-60"":34,""61-240"":35,"">240"":14}",10222.0,41.729255,-71.28246700000001,722511.0,RI,44.0,44001.0,Bristol County,440010305003.0
96033,sg:dda8cc0814c54d738d6919dc941179e4,Ascham St Park,RI,2019-12-01T00:00:00-05:00,2020-01-01T00:00:00-05:00,2904,331,134.0,"{""<5"":3,""5-20"":64,""21-60"":54,""61-240"":78,"">240"":132}",46413.5,41.851114,-71.41877099999999,712190.0,RI,44.0,44007.0,Providence County,440070029003.0
96148,sg:e84db639091c417384f609f10655b246,Del's Lemonade,RI,2019-12-01T00:00:00-05:00,2020-01-01T00:00:00-05:00,2904,36,29.5,"{""<5"":3,""5-20"":11,""21-60"":10,""61-240"":9,"">240"":3}",2624.5,41.85788,-71.44463499999999,722515.0,RI,44.0,44007.0,Providence County,440070119011.0
96358,sg:fc243e779ce64263b28842af10ab5ea5,Shannon Agency,RI,2019-12-01T00:00:00-05:00,2020-01-01T00:00:00-05:00,2914,72,49.0,"{""<5"":1,""5-20"":12,""21-60"":32,""61-240"":24,"">240"":3}",5780.5,41.83103,-71.36491,524210.0,RI,44.0,44007.0,Providence County,440070102001.0
96568,sg:0f385e35f5cb436d82fab1e9447868b6,Oil & Grease On Wheels,RI,2019-12-01T00:00:00-05:00,2020-01-01T00:00:00-05:00,2920,6,42.0,"{""<5"":0,""5-20"":2,""21-60"":2,""61-240"":1,"">240"":1}",496.5,41.793833,-71.473946,811111.0,RI,44.0,44007.0,Providence County,440070148001.0
96652,sg:169dc0f200c846459177a2b3d0c91eee,Trinity Stained Glass & Windmill Studio,RI,2019-12-01T00:00:00-05:00,2020-01-01T00:00:00-05:00,2888,311,11.0,"{""<5"":18,""5-20"":198,""21-60"":42,""61-240"":31,"">240"":22}",14166.5,41.765173,-71.40476,451130.0,RI,44.0,44003.0,Kent County,440030210022.0
96880,sg:2bad69b8386b4b29a474cd3f5f028880,Aqua Blue Hotel,RI,2019-12-01T00:00:00-05:00,2020-01-01T00:00:00-05:00,2882,62,31.0,"{""<5"":1,""5-20"":23,""21-60"":14,""61-240"":7,"">240"":17}",5990.5,41.431309999999996,-71.458087,721110.0,RI,44.0,44009.0,Washington County,440090515032.0
98156,sg:a477e2cba2ae4dfcb3a1381f901728cf,Ernest Price Photography,RI,2019-12-01T00:00:00-05:00,2020-01-01T00:00:00-05:00,2916,17,65.0,"{""<5"":1,""5-20"":4,""21-60"":3,""61-240"":7,"">240"":2}",1707.5,41.842726,-71.366123,541921.0,RI,44.0,44007.0,Providence County,440070101014.0
98243,sg:ade8762e74a941cf91d441843266a0df,LineSider Brewing Company,RI,2019-12-01T00:00:00-05:00,2020-01-01T00:00:00-05:00,2818,3,10.0,"{""<5"":0,""5-20"":3,""21-60"":0,""61-240"":0,"">240"":0}",37.5,41.656208,-71.498538,312120.0,RI,44.0,44003.0,Kent County,440030209031.0
