,safegraph_place_id,location_name,region,date_range_start,date_range_end,postal_code,raw_visit_counts,median_dwell,bucketed_dwell_times,est_total_dwell,latitude,longitude,naics_code,state,stateFIPS,countyFIPS,countyName,CBGFIPS
29,sg:02d410cf92384d52844fcd4420779349,Midstate Battery,CT,2019-12-01T00:00:00-05:00,2020-01-01T00:00:00-05:00,6002,25,10.0,"{""<5"":0,""5-20"":17,""21-60"":1,""61-240"":7,"">240"":0}",1306.5,41.8629,-72.717207,811118.0,CT,9.0,9003.0,Hartford County,90034715002.0
71,sg:068384e286964ccba68d9daca7aa375f,Creative Kids Learning Center,CT,2019-12-01T00:00:00-05:00,2020-01-01T00:00:00-05:00,6037,1,10.0,"{""<5"":0,""5-20"":1,""21-60"":0,""61-240"":0,"">240"":0}",12.5,41.611596999999996,-72.74730100000001,624410.0,CT,9.0,9003.0,Hartford County,90034001002.0
202,sg:11e88f2e0f934eb99dcb30a3bf09b82a,Colonna Insurance Services,CT,2019-12-01T00:00:00-05:00,2020-01-01T00:00:00-05:00,6518,49,31.0,"{""<5"":2,""5-20"":11,""21-60"":20,""61-240"":8,"">240"":8}",4076.5,41.399309,-72.899505,524210.0,CT,9.0,9009.0,New Haven County,90091660025.0
379,sg:2034fde448714ad5a2b8eb8e587afcc2,Chelsea Insurance Agency,CT,2019-12-01T00:00:00-05:00,2020-01-01T00:00:00-05:00,6360,2,9.0,"{""<5"":0,""5-20"":2,""21-60"":0,""61-240"":0,"">240"":0}",25.0,41.552495,-72.104787,524210.0,CT,9.0,9011.0,New London County,90116963002.0
387,sg:20b3c553e55d48eb835ac5e1ad147799,Black Rock Yoga,CT,2019-12-01T00:00:00-05:00,2020-01-01T00:00:00-05:00,6605,149,58.0,"{""<5"":3,""5-20"":28,""21-60"":47,""61-240"":60,"">240"":11}",13931.0,41.155969,-73.229913,713940.0,CT,9.0,9001.0,Fairfield County,90010701004.0
408,sg:22a2090cc0cb4e8b956b2d9eee3c6118,Cruz Automotive,CT,2019-12-01T00:00:00-05:00,2020-01-01T00:00:00-05:00,6608,56,65.5,"{""<5"":1,""5-20"":16,""21-60"":8,""61-240"":23,"">240"":8}",5908.0,41.185179,-73.186758,811111.0,CT,9.0,9001.0,Fairfield County,90010739003.0
565,sg:3233d8d426134db5a3573af36c9d1829,Autopart International,CT,2019-12-01T00:00:00-05:00,2020-01-01T00:00:00-05:00,6110,106,43.0,"{""<5"":0,""5-20"":36,""21-60"":22,""61-240"":45,"">240"":3}",8833.5,41.737292,-72.71539399999999,441310.0,CT,9.0,9003.0,Hartford County,90034961001.0
793,sg:48565fee05984eba84879ac961b744af,Loveridge Place,CT,2019-12-01T00:00:00-05:00,2020-01-01T00:00:00-05:00,6379,186,85.5,"{""<5"":0,""5-20"":38,""21-60"":42,""61-240"":38,"">240"":68}",24215.0,41.372198,-71.834839,722515.0,CT,9.0,9011.0,New London County,90117051013.0
835,sg:4ca4a19dff774e43880254ab8fb6c418,PhoLy,CT,2019-12-01T00:00:00-05:00,2020-01-01T00:00:00-05:00,6066,226,26.0,"{""<5"":9,""5-20"":72,""21-60"":112,""61-240"":28,"">240"":5}",10872.5,41.827427,-72.486651,722511.0,CT,9.0,9013.0,Tolland County,90135303023.0
861,sg:4fe367ce46bc44ad9bf4574aae184b93,United House of Prayer For All People,CT,2019-12-01T00:00:00-05:00,2020-01-01T00:00:00-05:00,6902,97,174.0,"{""<5"":0,""5-20"":11,""21-60"":17,""61-240"":41,"">240"":28}",13716.5,41.052285999999995,-73.554784,813110.0,CT,9.0,9001.0,Fairfield County,90010214002.0
916,sg:54f9a92986d249858a3e51b9825dcd34,Brady Thomas V DMD,CT,2019-12-01T00:00:00-05:00,2020-01-01T00:00:00-05:00,6371,5,6.0,"{""<5"":0,""5-20"":5,""21-60"":0,""61-240"":0,"">240"":0}",62.5,41.323357,-72.332615,621210.0,CT,9.0,9011.0,New London County,90116601012.0
960,sg:58a2c89532c44220950251181eb8ed18,Laura B Miner DDS,CT,2019-12-01T00:00:00-05:00,2020-01-01T00:00:00-05:00,6109,63,68.0,"{""<5"":2,""5-20"":8,""21-60"":19,""61-240"":21,"">240"":13}",7155.0,41.719784000000004,-72.666785,621210.0,CT,9.0,9003.0,Hartford County,90034923005.0
1094,sg:640e32c0a2fb46d9be6a281ff38221ca,Bishop Woods Executive Academy,CT,2019-12-01T00:00:00-05:00,2020-01-01T00:00:00-05:00,6513,238,176.0,"{""<5"":4,""5-20"":55,""21-60"":29,""61-240"":45,"">240"":105}",33844.5,41.327131,-72.86924499999999,611110.0,CT,9.0,9009.0,New Haven County,90091426011.0
1189,sg:6d9ea2af61804b4e80aa44f5c86a8c10,AT&T,CT,2019-12-01T00:00:00-05:00,2020-01-01T00:00:00-05:00,6032,9,113.0,"{""<5"":0,""5-20"":0,""21-60"":0,""61-240"":9,"">240"":0}",1354.5,41.722387,-72.762576,517312.0,CT,9.0,9003.0,Hartford County,90034601002.0
1261,sg:74a5ba526be94bbd9c78811bd25f69fd,Derby Day Care Center,CT,2019-12-01T00:00:00-05:00,2020-01-01T00:00:00-05:00,6401,44,81.0,"{""<5"":3,""5-20"":12,""21-60"":7,""61-240"":7,"">240"":15}",5094.5,41.339182,-73.091392,624410.0,CT,9.0,9009.0,New Haven County,90091253001.0
1303,sg:78de091268b34c3a99253572e7a7d9fb,Round Rock Advisors,CT,2019-12-01T00:00:00-05:00,2020-01-01T00:00:00-05:00,6840,5,175.0,"{""<5"":0,""5-20"":2,""21-60"":0,""61-240"":1,"">240"":2}",655.5,41.149633,-73.49080699999999,523930.0,CT,9.0,9001.0,Fairfield County,90010351001.0
1367,sg:7f3580f248c54ebfb458a7374349204a,Minuteman Press,CT,2019-12-01T00:00:00-05:00,2020-01-01T00:00:00-05:00,6010,111,14.0,"{""<5"":4,""5-20"":64,""21-60"":19,""61-240"":12,"">240"":12}",6265.5,41.684276000000004,-72.939299,323113.0,CT,9.0,9003.0,Hartford County,90034051001.0
1413,sg:844ec0e746ed4161b5acd2e2a457e5e0,Rachel's Doggy Daycare and Dog Walking,CT,2019-12-01T00:00:00-05:00,2020-01-01T00:00:00-05:00,6226,20,30.5,"{""<5"":2,""5-20"":7,""21-60"":3,""61-240"":5,"">240"":3}",1686.5,41.720253,-72.223896,812910.0,CT,9.0,9015.0,Windham County,90158003002.0
1573,sg:941d23c850924ee5be2b6bddd4b4248f,New Insights Boutique,CT,2019-12-01T00:00:00-05:00,2020-01-01T00:00:00-05:00,6482,34,21.0,"{""<5"":0,""5-20"":17,""21-60"":13,""61-240"":4,"">240"":0}",1341.0,41.420382000000004,-73.283174,453220.0,CT,9.0,9001.0,Fairfield County,90012301001.0
1610,sg:97f84f3c9fae47048e149ec9b9b23946,Comfort Spa,CT,2019-12-01T00:00:00-05:00,2020-01-01T00:00:00-05:00,6790,3,28.0,"{""<5"":0,""5-20"":1,""21-60"":2,""61-240"":0,"">240"":0}",93.5,41.813419,-73.099508,812199.0,CT,9.0,9005.0,Litchfield County,90053105001.0
1634,sg:9a3b1bf202fe4bc8b3b246c4dd576f21,Touch of Essence Skin Spa,CT,2019-12-01T00:00:00-05:00,2020-01-01T00:00:00-05:00,6082,32,65.5,"{""<5"":0,""5-20"":2,""21-60"":9,""61-240"":10,"">240"":11}",4534.5,41.999291,-72.580741,812199.0,CT,9.0,9003.0,Hartford County,90034804002.0
1639,sg:9aedcdad7e824068b7cead601a609510,Wesley Learning Center,CT,2019-12-01T00:00:00-05:00,2020-01-01T00:00:00-05:00,6482,89,61.0,"{""<5"":0,""5-20"":15,""21-60"":28,""61-240"":42,"">240"":4}",8602.5,41.419235,-73.284048,611110.0,CT,9.0,9001.0,Fairfield County,90012301001.0
1863,sg:b04aca7d08054374ba35b29b034ee0d5,Ben's Shell Service Center & Towing,CT,2019-12-01T00:00:00-05:00,2020-01-01T00:00:00-05:00,6477,1,6.0,"{""<5"":0,""5-20"":1,""21-60"":0,""61-240"":0,"">240"":0}",12.5,41.275646,-72.991137,488410.0,CT,9.0,9009.0,New Haven County,90091571002.0
1880,sg:b2555a28986849c2a8460ec261a6e9ae,Minuteman Insurance,CT,2019-12-01T00:00:00-05:00,2020-01-01T00:00:00-05:00,6824,54,127.0,"{""<5"":0,""5-20"":7,""21-60"":12,""61-240"":20,"">240"":15}",7183.5,41.177595000000004,-73.261411,524210.0,CT,9.0,9001.0,Fairfield County,90010610003.0
1951,sg:ba2afa847b104e58ab4468f9a7622efd,Dollar Tree,CT,2019-12-01T00:00:00-05:00,2020-01-01T00:00:00-05:00,6063,814,99.0,"{""<5"":11,""5-20"":166,""21-60"":142,""61-240"":468,"">240"":27}",84767.5,41.911637,-73.04228499999999,452319.0,CT,9.0,9005.0,Litchfield County,90052901003.0
1959,sg:bb2e95a329e240a09a3b6053aa99b157,Hertz,CT,2019-12-01T00:00:00-05:00,2020-01-01T00:00:00-05:00,6460,2,10.0,"{""<5"":0,""5-20"":2,""21-60"":0,""61-240"":0,"">240"":0}",25.0,41.206515,-73.09249100000001,532111.0,CT,9.0,9009.0,New Haven County,90091503002.0
2010,sg:c0744ced0afc4612b97676f8ffa6ab73,Washington Trust,CT,2019-12-01T00:00:00-05:00,2020-01-01T00:00:00-05:00,6510,11,413.0,"{""<5"":0,""5-20"":1,""21-60"":0,""61-240"":2,"">240"":8}",2233.5,41.309951,-72.922321,522110.0,CT,9.0,9009.0,New Haven County,90091401001.0
2215,sg:d3c5bcbc21c2438c85a433a3dc7f6fe5,Eye Care Group,CT,2019-12-01T00:00:00-05:00,2020-01-01T00:00:00-05:00,6405,469,76.0,"{""<5"":4,""5-20"":103,""21-60"":100,""61-240"":144,"">240"":118}",55339.5,41.29667,-72.76841,446130.0,CT,9.0,9009.0,New Haven County,90091847001.0
2403,sg:e8149217e8534cd39535883ecf18ea19,Iconic Esthetiques,CT,2019-12-01T00:00:00-05:00,2020-01-01T00:00:00-05:00,6117,19,79.0,"{""<5"":0,""5-20"":3,""21-60"":5,""61-240"":9,"">240"":2}",2074.5,41.78605,-72.743387,812199.0,CT,9.0,9003.0,Hartford County,90034974001.0
2794,sg:0e0ff17407ad4fdd86c0f20c160f176c,St John Missionary Baptist Church,CT,2019-12-01T00:00:00-05:00,2020-01-01T00:00:00-05:00,6519,120,83.0,"{""<5"":3,""5-20"":24,""21-60"":22,""61-240"":33,"">240"":38}",15285.0,41.298840999999996,-72.939229,813110.0,CT,9.0,9009.0,New Haven County,90091406003.0
3020,sg:23faaf93ed2d4d02add8970bd727e6b9,Davison Walter DDS,CT,2019-12-01T00:00:00-05:00,2020-01-01T00:00:00-05:00,6790,20,27.5,"{""<5"":2,""5-20"":6,""21-60"":8,""61-240"":2,"">240"":2}",1185.0,41.826064,-73.10371500000001,621210.0,CT,9.0,9005.0,Litchfield County,90053101001.0
3048,sg:26927fae0ca84f6bac0ec177d50128af,StretchLab,CT,2019-12-01T00:00:00-05:00,2020-01-01T00:00:00-05:00,6880,223,28.0,"{""<5"":5,""5-20"":73,""21-60"":79,""61-240"":63,"">240"":3}",14326.0,41.14201,-73.355466,713940.0,CT,9.0,9001.0,Fairfield County,90010502001.0
3071,sg:28bdf3d240274a2b9135c669ca1d0581,Centro Renacer Day Care & Learning Llc,CT,2019-12-01T00:00:00-05:00,2020-01-01T00:00:00-05:00,6519,213,80.0,"{""<5"":7,""5-20"":57,""21-60"":31,""61-240"":59,"">240"":59}",25025.0,41.299738,-72.940281,624410.0,CT,9.0,9009.0,New Haven County,90091406003.0
3151,sg:2f4af16fc4d5408390275743fdda70c3,Rite Aid,CT,2019-12-01T00:00:00-05:00,2020-01-01T00:00:00-05:00,6519,489,14.0,"{""<5"":16,""5-20"":267,""21-60"":116,""61-240"":80,"">240"":10}",22515.5,41.306275,-72.941996,446110.0,CT,9.0,9009.0,New Haven County,90091408001.0
3183,sg:324fcf1d85b047f69eb2a0fab2b4e959,Ultimate Fitness Superstore,CT,2019-12-01T00:00:00-05:00,2020-01-01T00:00:00-05:00,6001,281,11.0,"{""<5"":17,""5-20"":184,""21-60"":47,""61-240"":27,"">240"":6}",9749.5,41.815588,-72.865302,451110.0,CT,9.0,9003.0,Hartford County,90034622011.0
3219,sg:3533c24e04d4459fb39747a7c3e60dc8,City of New Haven Animal Shelter,CT,2019-12-01T00:00:00-05:00,2020-01-01T00:00:00-05:00,6511,7,21.0,"{""<5"":0,""5-20"":3,""21-60"":4,""61-240"":0,"">240"":0}",199.5,41.330851,-72.94019499999999,812910.0,CT,9.0,9009.0,New Haven County,90091415007.0
3237,sg:37290f206add42e2af55141aa0cb08b8,The Abundant Life Fellowship Ministries,CT,2019-12-01T00:00:00-05:00,2020-01-01T00:00:00-05:00,6401,64,72.5,"{""<5"":1,""5-20"":14,""21-60"":15,""61-240"":19,"">240"":15}",7244.5,41.353582,-73.081582,813110.0,CT,9.0,9009.0,New Haven County,90091254001.0
3380,sg:45392d049e3a497aab4da58f57fc0346,Auto Parts Outlet,CT,2019-12-01T00:00:00-05:00,2020-01-01T00:00:00-05:00,6605,12,5.0,"{""<5"":1,""5-20"":11,""21-60"":0,""61-240"":0,"">240"":0}",140.0,41.17116,-73.216891,441310.0,CT,9.0,9001.0,Fairfield County,90010710001.0
3401,sg:480b6b6c0b9949afa99ed815697f73dc,Mattress Firm,CT,2019-12-01T00:00:00-05:00,2020-01-01T00:00:00-05:00,6854,22,11.5,"{""<5"":0,""5-20"":15,""21-60"":4,""61-240"":3,"">240"":0}",801.0,41.095876000000004,-73.446343,442110.0,CT,9.0,9001.0,Fairfield County,90010431001.0
3434,sg:4ada3ae1567643b3901cf9dd9b762be5,Mitchell's On Main,CT,2019-12-01T00:00:00-05:00,2020-01-01T00:00:00-05:00,6416,63,24.0,"{""<5"":2,""5-20"":18,""21-60"":31,""61-240"":4,"">240"":8}",4007.5,41.59514,-72.646098,722515.0,CT,9.0,9007.0,Middlesex County,90075703001.0
3562,sg:5796d83c8b064869bf0860ada828ad0a,Westbrook Package Store,CT,2019-12-01T00:00:00-05:00,2020-01-01T00:00:00-05:00,6498,2,8.5,"{""<5"":0,""5-20"":2,""21-60"":0,""61-240"":0,"">240"":0}",25.0,41.284695,-72.44649799999999,445310.0,CT,9.0,9007.0,Middlesex County,90076801004.0
3571,sg:57f2bb83233c4bcca2de145c78550e5c,Premeir Shield Insurance,CT,2019-12-01T00:00:00-05:00,2020-01-01T00:00:00-05:00,6084,2,194.5,"{""<5"":0,""5-20"":1,""21-60"":0,""61-240"":0,"">240"":1}",252.5,41.85913,-72.353197,524210.0,CT,9.0,9013.0,Tolland County,90135331022.0
3585,sg:59cbc65bb09a41eab0abed0e79bc6027,O'Reilly Auto Parts,CT,2019-12-01T00:00:00-05:00,2020-01-01T00:00:00-05:00,6108,129,10.0,"{""<5"":10,""5-20"":83,""21-60"":10,""61-240"":9,"">240"":17}",6902.0,41.794546000000004,-72.62229599999999,441310.0,CT,9.0,9003.0,Hartford County,90035103001.0
3591,sg:5a48c327131046d38f528f4b3218e686,Black Squirrel Antiques,CT,2019-12-01T00:00:00-05:00,2020-01-01T00:00:00-05:00,6039,73,118.0,"{""<5"":2,""5-20"":12,""21-60"":9,""61-240"":34,"">240"":16}",9476.5,41.967259999999996,-73.43862299999999,453310.0,CT,9.0,9005.0,Litchfield County,90052611003.0
3746,sg:67d72f1082b840f29986dc9344939fcd,The Next Street,CT,2019-12-01T00:00:00-05:00,2020-01-01T00:00:00-05:00,6905,13,162.0,"{""<5"":0,""5-20"":0,""21-60"":2,""61-240"":6,"">240"":5}",2184.0,41.071194,-73.549537,611692.0,CT,9.0,9001.0,Fairfield County,90010213001.0
3858,sg:7168376860734071a4eb6bb753904e92,New Preston Kitchen Goods,CT,2019-12-01T00:00:00-05:00,2020-01-01T00:00:00-05:00,6777,46,43.0,"{""<5"":0,""5-20"":7,""21-60"":20,""61-240"":11,"">240"":8}",4473.0,41.676264,-73.355755,442299.0,CT,9.0,9005.0,Litchfield County,90052671001.0
3943,sg:786a66afc2d44e65b114e7043aee573b,Apollo Pizza,CT,2019-12-01T00:00:00-05:00,2020-01-01T00:00:00-05:00,6418,74,25.0,"{""<5"":1,""5-20"":32,""21-60"":19,""61-240"":22,"">240"":0}",4483.0,41.324948,-73.096763,722511.0,CT,9.0,9009.0,New Haven County,90091202004.0
3944,sg:787f2bba7f734e0bbedb0aff0401fd6a,Asian Kitchen,CT,2019-12-01T00:00:00-05:00,2020-01-01T00:00:00-05:00,6801,93,20.0,"{""<5"":4,""5-20"":45,""21-60"":22,""61-240"":17,"">240"":5}",5222.0,41.375492,-73.42349499999999,722511.0,,,,,
4070,sg:84779f5259b446a7bcac8109738dbdbe,Life Designs ReAbility Center,CT,2019-12-01T00:00:00-05:00,2020-01-01T00:00:00-05:00,6484,1,55.0,"{""<5"":0,""5-20"":0,""21-60"":1,""61-240"":0,"">240"":0}",40.5,41.317058,-73.092118,621340.0,CT,9.0,9001.0,Fairfield County,90011101001.0
4075,sg:853779133ac340b7bcb657cb992814b2,Sophia's Costume Rentals,CT,2019-12-01T00:00:00-05:00,2020-01-01T00:00:00-05:00,6830,25,10.0,"{""<5"":3,""5-20"":16,""21-60"":4,""61-240"":1,"">240"":1}",760.0,41.028395,-73.625465,453310.0,CT,9.0,9001.0,Fairfield County,90010106003.0
4171,sg:8fc490a841684968bdc37a94d1f61448,Spadinger Andrew DDS,CT,2019-12-01T00:00:00-05:00,2020-01-01T00:00:00-05:00,6606,164,41.0,"{""<5"":0,""5-20"":35,""21-60"":74,""61-240"":29,"">240"":26}",14039.0,41.223735,-73.217839,621210.0,CT,9.0,9001.0,Fairfield County,90010727003.0
4220,sg:94ec7f1b0071434c9bc2e4a6bd654871,U-Haul,CT,2019-12-01T00:00:00-05:00,2020-01-01T00:00:00-05:00,6040,34,71.0,"{""<5"":2,""5-20"":11,""21-60"":3,""61-240"":10,"">240"":8}",3689.0,41.768109,-72.563586,532120.0,CT,9.0,9003.0,Hartford County,90035151021.0
4330,sg:a044cb5e45784319a81dc632df621f1c,South Windsor Historical Society,CT,2019-12-01T00:00:00-05:00,2020-01-01T00:00:00-05:00,6074,33,45.0,"{""<5"":0,""5-20"":12,""21-60"":5,""61-240"":13,"">240"":3}",3029.0,41.814706,-72.59009499999999,712120.0,CT,9.0,9003.0,Hartford County,90034875003.0
4474,sg:b000c96254c84ebc8a75994345c16066,Starbucks,CT,2019-12-01T00:00:00-05:00,2020-01-01T00:00:00-05:00,6611,603,14.0,"{""<5"":30,""5-20"":315,""21-60"":144,""61-240"":88,"">240"":26}",29328.5,41.245549,-73.196943,722515.0,CT,9.0,9001.0,Fairfield County,90010904001.0
4479,sg:b044520a577a432dbe7e56d27c225cd9,East Hartford Fire Department Station 1,CT,2019-12-01T00:00:00-05:00,2020-01-01T00:00:00-05:00,6108,101,154.0,"{""<5"":2,""5-20"":11,""21-60"":18,""61-240"":31,"">240"":39}",14897.0,41.765551,-72.645388,922160.0,CT,9.0,9003.0,Hartford County,90035104002.0
4614,sg:be36246b55bf461dab7e6a1851fa4d78,The Early Language And Literacy Initiative Elli,CT,2019-12-01T00:00:00-05:00,2020-01-01T00:00:00-05:00,6824,67,27.0,"{""<5"":1,""5-20"":30,""21-60"":14,""61-240"":10,"">240"":12}",5329.5,41.153831,-73.2581,624410.0,CT,9.0,9001.0,Fairfield County,90010607001.0
4672,sg:c2fb834b7960487f8490d71ec224f47c,Meriden Public Library,CT,2019-12-01T00:00:00-05:00,2020-01-01T00:00:00-05:00,6450,438,47.0,"{""<5"":4,""5-20"":136,""21-60"":95,""61-240"":113,"">240"":90}",44164.0,41.537552000000005,-72.796658,519120.0,CT,9.0,9009.0,New Haven County,90091701002.0
4688,sg:c43e7d18f95644e38f6c97116128928f,James Cammarano DMD,CT,2019-12-01T00:00:00-05:00,2020-01-01T00:00:00-05:00,6525,17,35.0,"{""<5"":0,""5-20"":5,""21-60"":9,""61-240"":3,"">240"":0}",878.5,41.344699,-72.98291400000001,621210.0,CT,9.0,9009.0,New Haven County,90091602001.0
4694,sg:c4f3a0c110e449d3a235002ea01646b9,On Track Karting Wallingford,CT,2019-12-01T00:00:00-05:00,2020-01-01T00:00:00-05:00,6492,112,33.0,"{""<5"":1,""5-20"":40,""21-60"":36,""61-240"":34,"">240"":1}",7317.5,41.489129999999996,-72.80694100000001,712190.0,CT,9.0,9009.0,New Haven County,90091754001.0
4717,sg:c88c05c6cc7f4be289cd95abfc5b4fab,Fredy's Cafe,CT,2019-12-01T00:00:00-05:00,2020-01-01T00:00:00-05:00,6518,685,50.0,"{""<5"":5,""5-20"":134,""21-60"":247,""61-240"":186,"">240"":113}",66804.0,41.376774,-72.904827,722511.0,CT,9.0,9009.0,New Haven County,90091653001.0
4734,sg:cad4b370e0794d0dbdc905378476f86f,Captain's Pizza Restaurant & Bar,CT,2019-12-01T00:00:00-05:00,2020-01-01T00:00:00-05:00,6484,167,20.0,"{""<5"":4,""5-20"":81,""21-60"":39,""61-240"":24,"">240"":19}",10774.0,41.287783000000005,-73.11435300000001,722511.0,CT,9.0,9001.0,Fairfield County,90011103014.0
4747,sg:cc3153df90514296bbb200331ffe6e36,Lupi Marchigiano Bakery,CT,2019-12-01T00:00:00-05:00,2020-01-01T00:00:00-05:00,6519,394,84.0,"{""<5"":4,""5-20"":104,""21-60"":77,""61-240"":75,"">240"":134}",47876.0,41.300861,-72.933353,311811.0,CT,9.0,9009.0,New Haven County,90091403002.0
4804,sg:d20748f1fee7481fbcf4120733bb2e2a,Rockwell Park,CT,2019-12-01T00:00:00-05:00,2020-01-01T00:00:00-05:00,6010,751,68.0,"{""<5"":7,""5-20"":209,""21-60"":137,""61-240"":205,"">240"":193}",85351.0,41.674424,-72.96143000000001,712190.0,CT,9.0,9003.0,Hartford County,90034057001.0
4949,sg:dfc7951b950b40a5a3efd04993f59713,Faith Community Church,CT,2019-12-01T00:00:00-05:00,2020-01-01T00:00:00-05:00,6095,63,158.0,"{""<5"":0,""5-20"":7,""21-60"":9,""61-240"":28,"">240"":19}",9226.0,41.862346,-72.65831800000001,813110.0,CT,9.0,9003.0,Hartford County,90034736022.0
5064,sg:ea5fb66051d647a683ffe01e07dd2291,Serena & Lily,CT,2019-12-01T00:00:00-05:00,2020-01-01T00:00:00-05:00,6880,215,21.0,"{""<5"":10,""5-20"":94,""21-60"":65,""61-240"":27,"">240"":19}",12456.0,41.142475,-73.36060400000001,442110.0,CT,9.0,9001.0,Fairfield County,90010502002.0
5312,sg:04eca8b0b17d4a6887e4e7a03eb171e9,Donald Dong DMD,CT,2019-12-01T00:00:00-05:00,2020-01-01T00:00:00-05:00,6042,6,26.0,"{""<5"":0,""5-20"":1,""21-60"":3,""61-240"":2,"">240"":0}",435.0,41.787477,-72.523831,621210.0,CT,9.0,9003.0,Hartford County,90035144001.0
5321,sg:05d25038b95a429fac44065fafbd8936,Allan Barber Of Fades,CT,2019-12-01T00:00:00-05:00,2020-01-01T00:00:00-05:00,6705,5,111.0,"{""<5"":0,""5-20"":0,""21-60"":1,""61-240"":3,"">240"":1}",732.0,41.541278999999996,-72.998182,812112.0,CT,9.0,9009.0,New Haven County,90093527011.0
5441,sg:102d09a874914abcac3230e6a999dc25,Pre School Program,CT,2019-12-01T00:00:00-05:00,2020-01-01T00:00:00-05:00,6370,268,53.5,"{""<5"":2,""5-20"":71,""21-60"":75,""61-240"":48,"">240"":72}",28434.0,41.470987,-72.19158900000001,611110.0,CT,9.0,9011.0,New London County,90116952023.0
5462,sg:11d748ce59be41ebaa6abeef96dc68ff,Faith and HOPE Homecare Services,CT,2019-12-01T00:00:00-05:00,2020-01-01T00:00:00-05:00,6604,89,128.0,"{""<5"":0,""5-20"":18,""21-60"":15,""61-240"":20,"">240"":36}",12482.5,41.184726,-73.206836,621610.0,CT,9.0,9001.0,Fairfield County,90010720002.0
5494,sg:1512181e99cf4788a02b574f5c64cb20,Premier KIA,CT,2019-12-01T00:00:00-05:00,2020-01-01T00:00:00-05:00,6405,154,60.5,"{""<5"":1,""5-20"":34,""21-60"":42,""61-240"":33,"">240"":44}",17655.0,41.289876,-72.809164,441110.0,CT,9.0,9009.0,New Haven County,90091841005.0
5959,sg:3cf5d4a7f28c43599c86377145afad6a,Bounce & Revolution,CT,2019-12-01T00:00:00-05:00,2020-01-01T00:00:00-05:00,6280,163,58.0,"{""<5"":3,""5-20"":51,""21-60"":29,""61-240"":40,"">240"":40}",17439.5,41.715175,-72.215487,453220.0,CT,9.0,9015.0,Windham County,90158006003.0
6041,sg:45207ee1dc3f44368708285dd4cd7c1c,Sherrie L Deveau Ameriprise Financial Services,CT,2019-12-01T00:00:00-05:00,2020-01-01T00:00:00-05:00,6108,50,53.0,"{""<5"":1,""5-20"":17,""21-60"":7,""61-240"":19,"">240"":6}",4798.0,41.762569,-72.659467,523930.0,CT,9.0,9003.0,Hartford County,90035102002.0
6183,sg:5390e6712d9c4b1cbeacacd822387754,Eric Klein DDS,CT,2019-12-01T00:00:00-05:00,2020-01-01T00:00:00-05:00,6851,10,45.0,"{""<5"":0,""5-20"":3,""21-60"":3,""61-240"":1,"">240"":3}",1029.5,41.120686,-73.406725,621210.0,CT,9.0,9001.0,Fairfield County,90010436003.0
6329,sg:62f92135be1844b784fc576b35e580e5,Heal Touch at Seth Osborne LMT Therapeutic,CT,2019-12-01T00:00:00-05:00,2020-01-01T00:00:00-05:00,6511,62,100.5,"{""<5"":0,""5-20"":14,""21-60"":12,""61-240"":15,"">240"":21}",7958.5,41.318368,-72.908491,812199.0,CT,9.0,9009.0,New Haven County,90091419002.0
6332,sg:63653d44c37b403798b511ac28036361,New England Clinical Associates,CT,2019-12-01T00:00:00-05:00,2020-01-01T00:00:00-05:00,6107,4,93.0,"{""<5"":0,""5-20"":1,""21-60"":0,""61-240"":3,"">240"":0}",464.0,41.76274,-72.741534,621330.0,CT,9.0,9003.0,Hartford County,90034971004.0
6433,sg:6dadd26ff39646e391868816c66e71d3,Red Roof Inn,CT,2019-12-01T00:00:00-05:00,2020-01-01T00:00:00-05:00,6066,134,25.5,"{""<5"":4,""5-20"":52,""21-60"":37,""61-240"":12,"">240"":29}",10924.5,41.829648,-72.48348,721110.0,CT,9.0,9013.0,Tolland County,90135303021.0
6584,sg:7df6478e11124b97951f7b9bd976cb74,TD Bank,CT,2019-12-01T00:00:00-05:00,2020-01-01T00:00:00-05:00,6762,1,11.0,"{""<5"":0,""5-20"":1,""21-60"":0,""61-240"":0,"">240"":0}",12.5,41.53754,-73.10465699999999,522110.0,CT,9.0,9009.0,New Haven County,90093441002.0
6623,sg:8143fd741ccc4315850d5aa11112754f,The Salvation Army,CT,2019-12-01T00:00:00-05:00,2020-01-01T00:00:00-05:00,6114,301,78.0,"{""<5"":8,""5-20"":80,""21-60"":46,""61-240"":72,"">240"":95}",36519.0,41.73617,-72.67179499999999,453310.0,CT,9.0,9003.0,Hartford County,90035024003.0
6722,sg:8a1a6b4101f44275bdeacef9e55eb89e,Jay Mar,CT,2019-12-01T00:00:00-05:00,2020-01-01T00:00:00-05:00,6704,388,11.0,"{""<5"":13,""5-20"":238,""21-60"":67,""61-240"":50,"">240"":20}",18046.0,41.585156,-73.052487,448120.0,CT,9.0,9009.0,New Haven County,90093523002.0
6740,sg:8bb6c2c01a20437bb19b2f1bed265a72,Nationwide Driving School,CT,2019-12-01T00:00:00-05:00,2020-01-01T00:00:00-05:00,6107,208,36.0,"{""<5"":2,""5-20"":54,""21-60"":82,""61-240"":40,"">240"":30}",17221.0,41.761601,-72.745774,453310.0,CT,9.0,9003.0,Hartford County,90034976002.0
6923,sg:a29b2e5087364082a4c22f22e9c27ddc,A1 Action Group,CT,2019-12-01T00:00:00-05:00,2020-01-01T00:00:00-05:00,6468,56,32.5,"{""<5"":0,""5-20"":19,""21-60"":19,""61-240"":10,"">240"":8}",4432.0,41.349813,-73.25983599999999,442299.0,CT,9.0,9001.0,Fairfield County,90011003001.0
7071,sg:b2227c7e1fa04198b1debcc63acad115,Buena Vista Golf Course,CT,2019-12-01T00:00:00-05:00,2020-01-01T00:00:00-05:00,6107,388,65.0,"{""<5"":3,""5-20"":67,""21-60"":104,""61-240"":193,"">240"":21}",39143.5,41.744779,-72.76872900000001,713910.0,CT,9.0,9003.0,Hartford County,90034966002.0
7192,sg:bfc5b441b9b146ee9c2fd883a06d1d6e,James J Wisecup D Min,CT,2019-12-01T00:00:00-05:00,2020-01-01T00:00:00-05:00,6902,3,6.0,"{""<5"":0,""5-20"":2,""21-60"":0,""61-240"":0,"">240"":1}",265.0,41.076066,-73.579012,621330.0,CT,9.0,9001.0,Fairfield County,90010205003.0
7274,sg:c61c1068c5c94e0dac0b61fb2e5fe691,New York Sports Club,CT,2019-12-01T00:00:00-05:00,2020-01-01T00:00:00-05:00,6830,28,44.0,"{""<5"":0,""5-20"":4,""21-60"":12,""61-240"":10,"">240"":2}",2521.0,41.02851,-73.625528,713940.0,CT,9.0,9001.0,Fairfield County,90010106003.0
7439,sg:d978284d277a40c6992a9d6a0b452909,SPYNE Pilates Studio,CT,2019-12-01T00:00:00-05:00,2020-01-01T00:00:00-05:00,6762,133,48.0,"{""<5"":3,""5-20"":28,""21-60"":48,""61-240"":50,"">240"":4}",10786.5,41.529829,-73.125959,713940.0,CT,9.0,9009.0,New Haven County,90093441003.0
7564,sg:e4c5fc0993554d69ba1d55fb362f5401,China House,CT,2019-12-01T00:00:00-05:00,2020-01-01T00:00:00-05:00,6105,93,24.0,"{""<5"":2,""5-20"":43,""21-60"":10,""61-240"":24,"">240"":14}",7919.5,41.7669,-72.708185,722511.0,CT,9.0,9003.0,Hartford County,90035042003.0
7577,sg:e5e65120da324c5e9367f56c7c205712,Newtown Tots Daycare,CT,2019-12-01T00:00:00-05:00,2020-01-01T00:00:00-05:00,6482,30,81.5,"{""<5"":0,""5-20"":8,""21-60"":3,""61-240"":13,"">240"":6}",3618.0,41.436963,-73.244844,624410.0,CT,9.0,9001.0,Fairfield County,90012305012.0
7736,sg:f57ddbd483c54bf88c678e7c6c6d091d,La Patrona Food Truck,CT,2019-12-01T00:00:00-05:00,2020-01-01T00:00:00-05:00,6511,39,20.0,"{""<5"":0,""5-20"":22,""21-60"":13,""61-240"":4,"">240"":0}",1403.5,41.293659000000005,-72.917523,722511.0,CT,9.0,9009.0,New Haven County,
7778,sg:fa5b7f3d841f4dee856a939821c736ad,Big Smiles Pediatric Dentistry,CT,2019-12-01T00:00:00-05:00,2020-01-01T00:00:00-05:00,6460,16,47.5,"{""<5"":1,""5-20"":4,""21-60"":6,""61-240"":2,"">240"":3}",1316.5,41.2236,-73.071378,621210.0,CT,9.0,9009.0,New Haven County,90091501003.0
7995,sg:1010d25127b2467bb64271420e18459a,Papercraft Clubhouse,CT,2019-12-01T00:00:00-05:00,2020-01-01T00:00:00-05:00,6498,19,25.0,"{""<5"":0,""5-20"":6,""21-60"":8,""61-240"":3,"">240"":2}",1330.5,41.281563,-72.43650799999999,451120.0,CT,9.0,9007.0,Middlesex County,90076801005.0
8044,sg:1495dde060234ad2bdf97ea49ce43f96,Empire State K9 Training,CT,2019-12-01T00:00:00-05:00,2020-01-01T00:00:00-05:00,6907,72,85.5,"{""<5"":1,""5-20"":20,""21-60"":9,""61-240"":23,"">240"":19}",8638.5,41.096958,-73.528828,812910.0,CT,9.0,9001.0,Fairfield County,90010209003.0
8049,sg:14f8ad77896647f3b54dc770709da988,Anesthesia Associates of Willimantic PC,CT,2019-12-01T00:00:00-05:00,2020-01-01T00:00:00-05:00,6280,1,11.0,"{""<5"":0,""5-20"":1,""21-60"":0,""61-240"":0,"">240"":0}",12.5,41.714042,-72.22461899999999,621111.0,CT,9.0,9015.0,Windham County,90158003003.0
8221,sg:227f80b1db4c406cad21bd687022701d,Hartford HealthCare Medical Group,CT,2019-12-01T00:00:00-05:00,2020-01-01T00:00:00-05:00,6374,16,25.0,"{""<5"":1,""5-20"":6,""21-60"":3,""61-240"":1,"">240"":5}",1549.5,41.681071,-71.91379599999999,621111.0,CT,9.0,9015.0,Windham County,90159073001.0
8245,sg:24062a1fbc9247f0b6385ef6abdd21b6,Glastonbury Jewelers,CT,2019-12-01T00:00:00-05:00,2020-01-01T00:00:00-05:00,6033,146,11.0,"{""<5"":4,""5-20"":97,""21-60"":21,""61-240"":19,"">240"":5}",6132.5,41.720807,-72.61381300000001,448310.0,CT,9.0,9003.0,Hartford County,90035203022.0
8341,sg:2cb0ab607be343e3b7533d63892b5422,New York Sports Club,CT,2019-12-01T00:00:00-05:00,2020-01-01T00:00:00-05:00,6830,246,57.0,"{""<5"":4,""5-20"":41,""21-60"":84,""61-240"":78,"">240"":39}",25023.5,41.023140999999995,-73.624399,713940.0,CT,9.0,9001.0,Fairfield County,90010106002.0
8467,sg:376384d1ce544976a5954f80abf64476,Stop & Drive Auto sales,CT,2019-12-01T00:00:00-05:00,2020-01-01T00:00:00-05:00,6088,69,8.0,"{""<5"":3,""5-20"":48,""21-60"":12,""61-240"":5,"">240"":1}",2086.0,41.883189,-72.606548,441120.0,CT,9.0,9003.0,Hartford County,90034841003.0
8660,sg:4b54aae5929248e08f4b62458518bc48,Kennedy Family Dental,CT,2019-12-01T00:00:00-05:00,2020-01-01T00:00:00-05:00,6790,236,241.0,"{""<5"":3,""5-20"":44,""21-60"":27,""61-240"":43,"">240"":119}",36682.5,41.825496,-73.103756,621210.0,CT,9.0,9005.0,Litchfield County,90053101001.0
8829,sg:5ceef11f70ae4f0bb93d63339e80228c,Subway,CT,2019-12-01T00:00:00-05:00,2020-01-01T00:00:00-05:00,6110,127,18.0,"{""<5"":8,""5-20"":59,""21-60"":25,""61-240"":22,"">240"":13}",8201.0,41.742999,-72.715936,722513.0,CT,9.0,9003.0,Hartford County,90034961001.0
8897,sg:644d8546b2b34618b06beb0fa7f4ecd0,JT Farms,CT,2019-12-01T00:00:00-05:00,2020-01-01T00:00:00-05:00,6029,10,37.0,"{""<5"":0,""5-20"":4,""21-60"":4,""61-240"":2,"">240"":0}",513.0,41.889815999999996,-72.463587,445230.0,CT,9.0,9013.0,Tolland County,90135351004.0
9193,sg:82ce83dbbf964738aa73fe2e5f1ea9c8,First Class Nails,CT,2019-12-01T00:00:00-05:00,2020-01-01T00:00:00-05:00,6333,25,175.0,"{""<5"":0,""5-20"":0,""21-60"":3,""61-240"":15,"">240"":7}",4059.0,41.361375,-72.227997,812113.0,CT,9.0,9011.0,New London County,90117161021.0
9264,sg:8a45637046cf465bba31424d76517c16,Branford Building Supplies,CT,2019-12-01T00:00:00-05:00,2020-01-01T00:00:00-05:00,6405,25,78.0,"{""<5"":1,""5-20"":7,""21-60"":4,""61-240"":3,"">240"":10}",3103.5,41.282928999999996,-72.809071,444130.0,CT,9.0,9009.0,New Haven County,90091841001.0
9286,sg:8d2dcdb177cc4ba69d606cae71087001,T Swirl Crepe,CT,2019-12-01T00:00:00-05:00,2020-01-01T00:00:00-05:00,6510,119,59.0,"{""<5"":6,""5-20"":31,""21-60"":23,""61-240"":36,"">240"":23}",12272.0,41.305914,-72.930001,722515.0,CT,9.0,9009.0,New Haven County,90091401001.0
9348,sg:92f7dd1b702f4d2db926e5432f8627d8,Waterford Veterinary Hospital PC,CT,2019-12-01T00:00:00-05:00,2020-01-01T00:00:00-05:00,6385,50,135.0,"{""<5"":3,""5-20"":12,""21-60"":4,""61-240"":13,"">240"":18}",6596.0,41.34021,-72.12378100000001,541940.0,CT,9.0,9011.0,New London County,90116934003.0
9474,sg:9ee272cd3aef414596be8e47b8d84a8a,Bruce Park,CT,2019-12-01T00:00:00-05:00,2020-01-01T00:00:00-05:00,6830,482,10.0,"{""<5"":20,""5-20"":272,""21-60"":77,""61-240"":73,"">240"":40}",27155.0,41.023026,-73.61169699999999,712190.0,CT,9.0,9001.0,Fairfield County,90010112001.0
9537,sg:a64524c44a9444159ef28b8213d4f94d,Eagle K 9 Academy,CT,2019-12-01T00:00:00-05:00,2020-01-01T00:00:00-05:00,6524,9,28.0,"{""<5"":1,""5-20"":2,""21-60"":4,""61-240"":0,"">240"":2}",669.5,41.461549,-72.966489,812910.0,CT,9.0,9009.0,New Haven County,90091611002.0
9541,sg:a6ce18eb2f59469b919043faaa853f11,Kent Historical Marker,CT,2019-12-01T00:00:00-05:00,2020-01-01T00:00:00-05:00,6757,1,782.0,"{""<5"":0,""5-20"":0,""21-60"":0,""61-240"":0,"">240"":1}",240.0,41.739389,-73.45424399999999,712120.0,CT,9.0,9005.0,Litchfield County,90052661001.0
9569,sg:a9c57c0c41ec4c8d8e9ca2099fcc2bf8,St Michael School,CT,2019-12-01T00:00:00-05:00,2020-01-01T00:00:00-05:00,6379,123,65.0,"{""<5"":0,""5-20"":46,""21-60"":14,""61-240"":26,"">240"":37}",13935.0,41.380765000000004,-71.83720500000001,611110.0,CT,9.0,9011.0,New London County,90117051024.0
9693,sg:b5634dc3d9f44c0faface8b01190d048,White House Black Market,CT,2019-12-01T00:00:00-05:00,2020-01-01T00:00:00-05:00,6019,8,20.5,"{""<5"":0,""5-20"":4,""21-60"":4,""61-240"":0,"">240"":0}",212.0,41.822256,-72.881312,448120.0,CT,9.0,9003.0,Hartford County,90034641023.0
9720,sg:b799518ae7cd419e80831e4ed28001a9,Plancher Orthopaedics & Sports Medicine,CT,2019-12-01T00:00:00-05:00,2020-01-01T00:00:00-05:00,6807,13,21.0,"{""<5"":0,""5-20"":6,""21-60"":5,""61-240"":0,"">240"":2}",757.5,41.035891,-73.59479499999999,621111.0,CT,9.0,9001.0,Fairfield County,90010108001.0
9762,sg:bba2d7cb548743a384d78f5f27c711fb,Arby's,CT,2019-12-01T00:00:00-05:00,2020-01-01T00:00:00-05:00,6479,292,20.0,"{""<5"":12,""5-20"":139,""21-60"":92,""61-240"":43,"">240"":6}",13405.0,41.563194,-72.87338299999999,722513.0,CT,9.0,9003.0,Hartford County,90034303011.0
9833,sg:c18b4f6ca0784e69ac5d805bd78fb853,Murphy's Auto Service,CT,2019-12-01T00:00:00-05:00,2020-01-01T00:00:00-05:00,6712,4,11.0,"{""<5"":0,""5-20"":3,""21-60"":0,""61-240"":1,"">240"":0}",188.0,41.500268,-72.969363,811111.0,CT,9.0,9009.0,New Haven County,90093471002.0
9890,sg:c78df955a2434e629d33dd75b4fbad7c,Natalie Radoslovich DC Chiropractic & Wellness Center,CT,2019-12-01T00:00:00-05:00,2020-01-01T00:00:00-05:00,6902,71,21.0,"{""<5"":2,""5-20"":33,""21-60"":20,""61-240"":10,"">240"":6}",4172.5,41.059943,-73.53333,621310.0,CT,9.0,9001.0,Fairfield County,90010217004.0
10067,sg:d836659191864a96b13e5f614045c007,Rye Ridge Deli,CT,2019-12-01T00:00:00-05:00,2020-01-01T00:00:00-05:00,6905,110,14.5,"{""<5"":8,""5-20"":54,""21-60"":24,""61-240"":11,"">240"":13}",6442.5,41.108046,-73.546835,722511.0,CT,9.0,9001.0,Fairfield County,90010207003.0
10299,sg:eee36c108b2d42469459418caff0782c,West Nails Studio,CT,2019-12-01T00:00:00-05:00,2020-01-01T00:00:00-05:00,6106,16,641.5,"{""<5"":0,""5-20"":1,""21-60"":1,""61-240"":3,"">240"":11}",3144.5,41.747060999999995,-72.68425400000001,812113.0,CT,9.0,9003.0,Hartford County,90035027002.0
10542,sg:0a1f31f95bbc448dbe2356090b38014f,Ryan Dental,CT,2019-12-01T00:00:00-05:00,2020-01-01T00:00:00-05:00,6516,38,35.5,"{""<5"":0,""5-20"":11,""21-60"":11,""61-240"":11,"">240"":5}",3438.5,41.269371,-72.951426,621210.0,CT,9.0,9009.0,New Haven County,90091549001.0
10683,sg:1574fc8b9344463ea41e018e152a7edf,C & J Tires,CT,2019-12-01T00:00:00-05:00,2020-01-01T00:00:00-05:00,6902,194,41.5,"{""<5"":1,""5-20"":51,""21-60"":62,""61-240"":44,"">240"":36}",18413.0,41.048996,-73.528238,441310.0,CT,9.0,9001.0,Fairfield County,90010221002.0
10794,sg:1e7ae53a1ee94ee7ab22acce39f774e7,Signatures Restaurant,CT,2019-12-01T00:00:00-05:00,2020-01-01T00:00:00-05:00,6702,137,96.0,"{""<5"":0,""5-20"":19,""21-60"":25,""61-240"":58,"">240"":35}",18379.0,41.555296000000006,-73.04220500000001,722511.0,CT,9.0,9009.0,New Haven County,90093501003.0
10893,sg:27b91536a9094b9ab961dc51d944ada5,Chase,CT,2019-12-01T00:00:00-05:00,2020-01-01T00:00:00-05:00,6610,157,8.0,"{""<5"":7,""5-20"":114,""21-60"":18,""61-240"":13,"">240"":5}",5328.0,41.202456,-73.186881,522110.0,CT,9.0,9001.0,Fairfield County,90010734003.0
10937,sg:2c7f8d287d3d4ae3ba1c05b8295859a9,Aspen Dental,CT,2019-12-01T00:00:00-05:00,2020-01-01T00:00:00-05:00,6516,1,10.0,"{""<5"":0,""5-20"":1,""21-60"":0,""61-240"":0,"">240"":0}",12.5,41.271112,-72.972678,621210.0,CT,9.0,9009.0,New Haven County,90091542005.0
10981,sg:2fbc0c3ccf5c4a718a4fbb0974a9b175,Valley Thrift Shop,CT,2019-12-01T00:00:00-05:00,2020-01-01T00:00:00-05:00,6098,33,16.0,"{""<5"":1,""5-20"":18,""21-60"":8,""61-240"":4,"">240"":2}",1633.5,41.924295,-73.075828,453310.0,CT,9.0,9005.0,Litchfield County,90053201004.0
11042,sg:358525e8427249d5b6817130c2d9b5b0,Edelmann Christopher M PC,CT,2019-12-01T00:00:00-05:00,2020-01-01T00:00:00-05:00,6830,4,295.5,"{""<5"":0,""5-20"":0,""21-60"":1,""61-240"":1,"">240"":2}",671.0,41.034585,-73.631206,621111.0,CT,9.0,9001.0,Fairfield County,90010103003.0
11100,sg:3b81e01b1ba84562b47e0d68b9153793,Arbuckle Ron DMD,CT,2019-12-01T00:00:00-05:00,2020-01-01T00:00:00-05:00,6105,55,69.0,"{""<5"":0,""5-20"":13,""21-60"":12,""61-240"":15,"">240"":15}",6506.0,41.769028000000006,-72.702464,621210.0,CT,9.0,9003.0,Hartford County,90035031004.0
11130,sg:3e0e0e599ff5417a9b54c97bb0463830,Gourmet Plus,CT,2019-12-01T00:00:00-05:00,2020-01-01T00:00:00-05:00,6443,46,119.5,"{""<5"":0,""5-20"":6,""21-60"":8,""61-240"":16,"">240"":16}",6647.0,41.273615,-72.627814,722511.0,CT,9.0,9009.0,New Haven County,90091941004.0
11512,sg:62ad6e8e00cc43dfb3c435275c33933f,Lypossage,CT,2019-12-01T00:00:00-05:00,2020-01-01T00:00:00-05:00,6457,13,18.0,"{""<5"":1,""5-20"":6,""21-60"":4,""61-240"":2,"">240"":0}",540.5,41.532185,-72.65917900000001,812199.0,CT,9.0,9007.0,Middlesex County,90075421003.0
11514,sg:62bfd33e2b454e60b583c2240b3ad165,Brown Thayer Shedd Insurance,CT,2019-12-01T00:00:00-05:00,2020-01-01T00:00:00-05:00,6840,33,224.0,"{""<5"":0,""5-20"":2,""21-60"":6,""61-240"":9,"">240"":16}",5462.5,41.144824,-73.497167,524210.0,CT,9.0,9001.0,Fairfield County,90010351004.0
11522,sg:631bcbd9c22b4f8ea0a5b0e97d861d9e,Werkwallet,CT,2019-12-01T00:00:00-05:00,2020-01-01T00:00:00-05:00,6103,90,258.0,"{""<5"":1,""5-20"":5,""21-60"":6,""61-240"":31,"">240"":47}",16253.5,41.769045,-72.67361600000001,523930.0,CT,9.0,9003.0,Hartford County,90035021002.0
11532,sg:63b610983a854106935fbe612b32b1f2,Best Fundraising Ideas,CT,2019-12-01T00:00:00-05:00,2020-01-01T00:00:00-05:00,6073,24,17.0,"{""<5"":1,""5-20"":12,""21-60"":2,""61-240"":7,"">240"":2}",1767.0,41.667545000000004,-72.524055,812910.0,CT,9.0,9003.0,Hartford County,90035202022.0
11547,sg:653fda12eb9443318a292ac6fcf2508d,Jans Motors,CT,2019-12-01T00:00:00-05:00,2020-01-01T00:00:00-05:00,6053,1,220.0,"{""<5"":0,""5-20"":0,""21-60"":0,""61-240"":1,"">240"":0}",150.5,41.671634000000005,-72.786587,811121.0,CT,9.0,9003.0,Hartford County,90034159001.0
11571,sg:676096ed7e7343f6a33bf4f21f30ace8,Regan School,CT,2019-12-01T00:00:00-05:00,2020-01-01T00:00:00-05:00,6704,15,143.0,"{""<5"":0,""5-20"":5,""21-60"":1,""61-240"":2,"">240"":7}",2084.0,41.591502,-73.02561,611110.0,CT,9.0,9009.0,New Haven County,90093525001.0
11587,sg:69ba15acf2ba4745b74bfc5f46c96c3b,BP Builders,CT,2019-12-01T00:00:00-05:00,2020-01-01T00:00:00-05:00,6385,22,9.0,"{""<5"":1,""5-20"":17,""21-60"":3,""61-240"":1,"">240"":0}",487.0,41.343695000000004,-72.13765,621610.0,CT,9.0,9011.0,New London County,90116934004.0
11881,sg:854efd00d235491e93b5b047bd0bce7a,Thayer Epic Driving School,CT,2019-12-01T00:00:00-05:00,2020-01-01T00:00:00-05:00,6812,2691,192.0,"{""<5"":20,""5-20"":323,""21-60"":337,""61-240"":865,"">240"":1146}",422958.5,41.460572,-73.507235,453310.0,CT,9.0,9001.0,Fairfield County,90012201004.0
11945,sg:8beab42a445a4234b773d75d6d0cb487,Cilantro Specialty Foods,CT,2019-12-01T00:00:00-05:00,2020-01-01T00:00:00-05:00,6437,202,46.0,"{""<5"":0,""5-20"":53,""21-60"":57,""61-240"":91,"">240"":1}",16906.5,41.281314,-72.68194799999999,722515.0,CT,9.0,9009.0,New Haven County,90091901001.0
11998,sg:911afd9247494bf4830e10b222c27afe,Magic Shears,CT,2019-12-01T00:00:00-05:00,2020-01-01T00:00:00-05:00,6705,204,31.0,"{""<5"":11,""5-20"":70,""21-60"":59,""61-240"":38,"">240"":26}",15251.0,41.550632,-73.020013,812112.0,CT,9.0,9009.0,New Haven County,90093512003.0
12306,sg:b0790675104349ae8208160592141452,AT&T,CT,2019-12-01T00:00:00-05:00,2020-01-01T00:00:00-05:00,6111,144,17.5,"{""<5"":6,""5-20"":76,""21-60"":55,""61-240"":6,"">240"":1}",4335.5,41.659976,-72.723936,517312.0,CT,9.0,9003.0,Hartford County,90034942013.0
12410,sg:b9d915c255ef4fbb913acac457fdcdc2,Motherearth's Petcare,CT,2019-12-01T00:00:00-05:00,2020-01-01T00:00:00-05:00,6489,47,47.0,"{""<5"":2,""5-20"":12,""21-60"":12,""61-240"":15,"">240"":6}",4338.5,41.600939000000004,-72.871914,812910.0,CT,9.0,9003.0,Hartford County,90034302032.0
12547,sg:c91506c2832d452ea1410d59126c4ed5,Big Y Foods,CT,2019-12-01T00:00:00-05:00,2020-01-01T00:00:00-05:00,6473,1455,21.0,"{""<5"":30,""5-20"":631,""21-60"":637,""61-240"":106,"">240"":51}",61954.0,41.407763,-72.845892,445110.0,CT,9.0,9009.0,New Haven County,90091672022.0
12673,sg:d5e9626adf004d0caffb07dfdde44226,Lil Critters Preschool,CT,2019-12-01T00:00:00-05:00,2020-01-01T00:00:00-05:00,6851,7,87.0,"{""<5"":0,""5-20"":1,""21-60"":2,""61-240"":1,"">240"":3}",964.0,41.119289,-73.40992,624410.0,CT,9.0,9001.0,Fairfield County,90010437001.0
12862,sg:eab3a134369d4fb19ef2c64e1ab75206,Subway,CT,2019-12-01T00:00:00-05:00,2020-01-01T00:00:00-05:00,6907,127,13.0,"{""<5"":8,""5-20"":65,""21-60"":22,""61-240"":14,"">240"":18}",8150.5,41.091235,-73.518252,722513.0,CT,9.0,9001.0,Fairfield County,90010209002.0
12900,sg:ee796201a98c4333b73c2e659b4812b1,Cheeks Chicken and Waffles,CT,2019-12-01T00:00:00-05:00,2020-01-01T00:00:00-05:00,6492,80,23.0,"{""<5"":1,""5-20"":32,""21-60"":37,""61-240"":9,"">240"":1}",3495.5,41.448053,-72.802542,722511.0,CT,9.0,9009.0,New Haven County,90091759003.0
12956,sg:f53b7689586a456687edd93fb18fd803,Stanley Black & Decker,CT,2019-12-01T00:00:00-05:00,2020-01-01T00:00:00-05:00,6053,121,222.0,"{""<5"":2,""5-20"":19,""21-60"":14,""61-240"":31,"">240"":55}",18675.0,41.693579,-72.807929,444130.0,CT,9.0,9003.0,Hartford County,90034602022.0
13178,sg:0a66501e1cd34bdeac5e9439766c0f3f,St Paul's Day School,CT,2019-12-01T00:00:00-05:00,2020-01-01T00:00:00-05:00,6878,20,13.5,"{""<5"":1,""5-20"":14,""21-60"":3,""61-240"":1,"">240"":1}",689.5,41.026866999999996,-73.584583,624410.0,CT,9.0,9001.0,Fairfield County,90010111004.0
13229,sg:0ea06bd7fa1f4492aa7e26198903be08,Mobil,CT,2019-12-01T00:00:00-05:00,2020-01-01T00:00:00-05:00,6268,70,6.0,"{""<5"":7,""5-20"":61,""21-60"":2,""61-240"":0,"">240"":0}",861.0,41.834856,-72.307119,447110.0,CT,9.0,9013.0,Tolland County,90138813001.0
13387,sg:1ebadd4716f243d4aa393f33e3dfa472,Family Dollar Stores,CT,2019-12-01T00:00:00-05:00,2020-01-01T00:00:00-05:00,6705,291,22.0,"{""<5"":4,""5-20"":135,""21-60"":81,""61-240"":38,"">240"":33}",18617.0,41.552182,-73.009447,452319.0,CT,9.0,9009.0,New Haven County,90093513003.0
13424,sg:221a2bacd3ff4b8e88f5469911917a7c,Westport Wash & Wax,CT,2019-12-01T00:00:00-05:00,2020-01-01T00:00:00-05:00,6880,7,13.0,"{""<5"":0,""5-20"":4,""21-60"":0,""61-240"":2,"">240"":1}",591.0,41.1382,-73.33843900000001,811192.0,CT,9.0,9001.0,Fairfield County,90010503004.0
13469,sg:2602b6d58ee4435296262ea8161707a0,Conway's Kiddie Kollege,CT,2019-12-01T00:00:00-05:00,2020-01-01T00:00:00-05:00,6078,10,23.0,"{""<5"":2,""5-20"":2,""21-60"":3,""61-240"":2,"">240"":1}",692.5,41.996727,-72.640168,624410.0,CT,9.0,9003.0,Hartford County,90034771012.0
13785,sg:457005634a3f42cf995d2b22f8d13d78,Shell Oil,CT,2019-12-01T00:00:00-05:00,2020-01-01T00:00:00-05:00,6851,246,10.0,"{""<5"":11,""5-20"":153,""21-60"":23,""61-240"":31,"">240"":28}",14257.0,41.143813,-73.42631300000001,447110.0,CT,9.0,9001.0,Fairfield County,90010427001.0
14062,sg:63b96594ecf541d797b48b2a9962f5fd,Christian Science Church,CT,2019-12-01T00:00:00-05:00,2020-01-01T00:00:00-05:00,6820,7,5.0,"{""<5"":2,""5-20"":2,""21-60"":1,""61-240"":1,"">240"":1}",461.0,41.059148,-73.495626,813110.0,CT,9.0,9001.0,Fairfield County,90010304002.0
14173,sg:6d4bf1f3f779428aa418f93e0a63e65f,Wendy's,CT,2019-12-01T00:00:00-05:00,2020-01-01T00:00:00-05:00,6851,361,16.0,"{""<5"":17,""5-20"":179,""21-60"":71,""61-240"":50,"">240"":44}",23240.5,41.123988,-73.40044499999999,722513.0,CT,9.0,9001.0,Fairfield County,90010428004.0
14418,sg:8548f8ee3d1949ee9a59b559b0f8da39,Eye Care Northeast PC,CT,2019-12-01T00:00:00-05:00,2020-01-01T00:00:00-05:00,6260,1,10.0,"{""<5"":0,""5-20"":1,""21-60"":0,""61-240"":0,"">240"":0}",12.5,41.904581,-71.902355,621111.0,CT,9.0,9015.0,Windham County,90159031007.0
14470,sg:8b8e5b35e41f4c73afb500d14ca5c46c,Branford High School Horizons Program,CT,2019-12-01T00:00:00-05:00,2020-01-01T00:00:00-05:00,6405,1946,69.0,"{""<5"":20,""5-20"":480,""21-60"":399,""61-240"":638,"">240"":409}",216388.5,41.287665999999994,-72.801422,611110.0,CT,9.0,9009.0,New Haven County,90091841001.0
14695,sg:a4d02f35b31040a5807f5aafedc35ca9,Sun Rise House,CT,2019-12-01T00:00:00-05:00,2020-01-01T00:00:00-05:00,6473,1,5.0,"{""<5"":0,""5-20"":1,""21-60"":0,""61-240"":0,"">240"":0}",12.5,41.386497,-72.873637,722511.0,CT,9.0,9009.0,New Haven County,90091671002.0
14707,sg:a5a183b75a1f400383326081a5e050a2,Sharon Valley Tavern,CT,2019-12-01T00:00:00-05:00,2020-01-01T00:00:00-05:00,6069,91,169.0,"{""<5"":0,""5-20"":19,""21-60"":9,""61-240"":21,"">240"":42}",13842.5,41.884269,-73.492349,722511.0,CT,9.0,9005.0,Litchfield County,90052621001.0
14757,sg:ab6b84474a314735bacedcae53426fa7,Mobil,CT,2019-12-01T00:00:00-05:00,2020-01-01T00:00:00-05:00,6611,232,5.0,"{""<5"":41,""5-20"":156,""21-60"":14,""61-240"":7,"">240"":14}",7033.0,41.245906,-73.197486,447110.0,CT,9.0,9001.0,Fairfield County,90010904001.0
14788,sg:aef74e083b6947b3a5805f93a274f744,Dunkin',CT,2019-12-01T00:00:00-05:00,2020-01-01T00:00:00-05:00,6418,165,6.0,"{""<5"":11,""5-20"":133,""21-60"":12,""61-240"":6,"">240"":3}",3799.0,41.314131,-73.079142,722515.0,CT,9.0,9009.0,New Haven County,90091201003.0
15222,sg:d67931c1d417407ebcecddd4698ddf50,Singing Bridge Market and Catering,CT,2019-12-01T00:00:00-05:00,2020-01-01T00:00:00-05:00,6498,13,28.0,"{""<5"":0,""5-20"":5,""21-60"":5,""61-240"":3,"">240"":0}",716.5,41.278058,-72.465238,722511.0,CT,9.0,9007.0,Middlesex County,90076801004.0
15323,sg:e02bb77f4dd24f91b563787527dda38e,Endeavor Capital Mgt,CT,2019-12-01T00:00:00-05:00,2020-01-01T00:00:00-05:00,6880,51,52.0,"{""<5"":2,""5-20"":16,""21-60"":9,""61-240"":9,"">240"":15}",5524.0,41.154416,-73.366197,523930.0,CT,9.0,9001.0,Fairfield County,90010502003.0
15487,sg:f0bbc6d2ad4f4c91ad1048d58fadcf84,Pa's Place,CT,2019-12-01T00:00:00-05:00,2020-01-01T00:00:00-05:00,6437,81,61.0,"{""<5"":2,""5-20"":25,""21-60"":13,""61-240"":28,"">240"":13}",8178.0,41.273006,-72.66591600000001,722511.0,CT,9.0,9009.0,New Haven County,90091901003.0
15497,sg:f15eb7ab4732493883daf00a5ba2edee,Sushi Palace,CT,2019-12-01T00:00:00-05:00,2020-01-01T00:00:00-05:00,6514,244,47.0,"{""<5"":5,""5-20"":53,""21-60"":84,""61-240"":56,"">240"":46}",23545.0,41.352957,-72.930041,722511.0,CT,9.0,9009.0,New Haven County,90091656002.0
15526,sg:f3fd68407c404e7089e8a68070337538,The Packing House,CT,2019-12-01T00:00:00-05:00,2020-01-01T00:00:00-05:00,6279,40,70.5,"{""<5"":0,""5-20"":3,""21-60"":15,""61-240"":21,"">240"":1}",4045.5,41.856737,-72.299541,512131.0,CT,9.0,9013.0,Tolland County,90138401004.0
16012,sg:21ce328e93134ce49d12388d94afa27d,Nice Eyebrow Threading & Waxing,CT,2019-12-01T00:00:00-05:00,2020-01-01T00:00:00-05:00,6483,12,30.5,"{""<5"":0,""5-20"":3,""21-60"":5,""61-240"":4,"">240"":0}",842.0,41.397552000000005,-73.062186,446120.0,CT,9.0,9009.0,New Haven County,90091301011.0
16095,sg:2873022aae4d4fbdb9cf03f801665c41,Irving Oil,CT,2019-12-01T00:00:00-05:00,2020-01-01T00:00:00-05:00,6042,373,9.0,"{""<5"":39,""5-20"":219,""21-60"":36,""61-240"":33,"">240"":46}",20299.5,41.78477,-72.550533,447110.0,CT,9.0,9003.0,Hartford County,90035145003.0
16115,sg:298f169879384c91b74889526cd2b646,Sorella Landscaping,CT,2019-12-01T00:00:00-05:00,2020-01-01T00:00:00-05:00,6518,35,67.0,"{""<5"":0,""5-20"":9,""21-60"":7,""61-240"":11,"">240"":8}",3971.5,41.416785,-72.92579599999999,444130.0,CT,9.0,9009.0,New Haven County,90091659002.0
16141,sg:2b6b612d64cf4f329d3fe383ac51d1be,Lincoln Technical Institute New Britain,CT,2019-12-01T00:00:00-05:00,2020-01-01T00:00:00-05:00,6051,544,198.0,"{""<5"":5,""5-20"":86,""21-60"":66,""61-240"":146,"">240"":241}",83573.5,41.660159,-72.75509699999999,611519.0,CT,9.0,9003.0,Hartford County,90034154002.0
16236,sg:34b9c4acaae14cbd94b881469478db2c,United States Postal Service (USPS),CT,2019-12-01T00:00:00-05:00,2020-01-01T00:00:00-05:00,6514,124,20.0,"{""<5"":4,""5-20"":62,""21-60"":12,""61-240"":17,"">240"":29}",10789.5,41.359666,-72.926034,491110.0,CT,9.0,9009.0,New Haven County,90091656001.0
16299,sg:398f0904f6b94f4b803f7e39820859bc,Nutmeg Restaurant,CT,2019-12-01T00:00:00-05:00,2020-01-01T00:00:00-05:00,6088,274,89.0,"{""<5"":2,""5-20"":33,""21-60"":67,""61-240"":144,"">240"":28}",31523.0,41.868866,-72.605251,721110.0,CT,9.0,9003.0,Hartford County,90034841003.0
16405,sg:4347955e882744c39a1147d2d5e7eaaa,Sunoco,CT,2019-12-01T00:00:00-05:00,2020-01-01T00:00:00-05:00,6829,69,29.0,"{""<5"":3,""5-20"":28,""21-60"":9,""61-240"":18,"">240"":11}",6071.0,41.258031,-73.436207,447110.0,CT,9.0,9001.0,Fairfield County,90010451021.0
16530,sg:4eeabdbffc81480ea19783ec82e5f01e,Multi Vocational Life Skills Program,CT,2019-12-01T00:00:00-05:00,2020-01-01T00:00:00-05:00,6492,2677,114.0,"{""<5"":11,""5-20"":282,""21-60"":444,""61-240"":1285,"">240"":655}",372127.0,41.437619,-72.818483,611110.0,CT,9.0,9009.0,New Haven County,90091753002.0
16537,sg:4f7c3b628c09404ca5e37d769e06b2f8,Cycle Gear,CT,2019-12-01T00:00:00-05:00,2020-01-01T00:00:00-05:00,6477,94,30.0,"{""<5"":1,""5-20"":38,""21-60"":17,""61-240"":12,"">240"":26}",9212.0,41.25387,-73.018323,451110.0,CT,9.0,9009.0,New Haven County,90091572001.0
16539,sg:4fa47f282e9349558d314793b3c853a0,MexiPHO,CT,2019-12-01T00:00:00-05:00,2020-01-01T00:00:00-05:00,6033,5,10.0,"{""<5"":1,""5-20"":2,""21-60"":1,""61-240"":1,"">240"":0}",218.5,41.72165,-72.613807,722511.0,CT,9.0,9003.0,Hartford County,90035203022.0
16561,sg:5178219918484a1292461c2dd10f0ec7,Mary Ellen Halloran LMFT,CT,2019-12-01T00:00:00-05:00,2020-01-01T00:00:00-05:00,6250,94,234.5,"{""<5"":1,""5-20"":9,""21-60"":17,""61-240"":22,"">240"":45}",14914.5,41.741231,-72.19784200000001,621330.0,CT,9.0,9013.0,Tolland County,90138815004.0
16627,sg:5826137a6cc14fc39431f71a51ba2c22,Shamrock Home Care,CT,2019-12-01T00:00:00-05:00,2020-01-01T00:00:00-05:00,6824,145,176.0,"{""<5"":0,""5-20"":14,""21-60"":25,""61-240"":47,"">240"":59}",22421.0,41.179193,-73.247134,621610.0,CT,9.0,9001.0,Fairfield County,90010610003.0
16632,sg:58b85559a514443dbdf8e9763c35e70a,Dollar General,CT,2019-12-01T00:00:00-05:00,2020-01-01T00:00:00-05:00,6053,629,20.0,"{""<5"":12,""5-20"":311,""21-60"":144,""61-240"":95,"">240"":67}",40127.0,41.691832,-72.760509,452319.0,CT,9.0,9003.0,Hartford County,90034173001.0
16658,sg:5b270a58b3b746c0aba7a42c3bcc704e,Johnny's Peking Tokyo,CT,2019-12-01T00:00:00-05:00,2020-01-01T00:00:00-05:00,6355,347,42.0,"{""<5"":3,""5-20"":75,""21-60"":129,""61-240"":94,"">240"":46}",31356.5,41.372033,-71.95622,722511.0,CT,9.0,9011.0,New London County,90117053002.0
16890,sg:742c63de8a3d4ffcb3ba97cf6506dd8a,Patricia Kuziel's Personal Training,CT,2019-12-01T00:00:00-05:00,2020-01-01T00:00:00-05:00,6443,1,299.0,"{""<5"":0,""5-20"":0,""21-60"":0,""61-240"":0,"">240"":1}",240.0,41.301427000000004,-72.61251700000001,713940.0,CT,9.0,9009.0,New Haven County,90091942013.0
16968,sg:7b910f3483ba45c5930dec519d6623ef,Mystic Healing Reiki,CT,2019-12-01T00:00:00-05:00,2020-01-01T00:00:00-05:00,6109,5,67.0,"{""<5"":0,""5-20"":0,""21-60"":2,""61-240"":3,"">240"":0}",532.5,41.710033,-72.654954,812199.0,CT,9.0,9003.0,Hartford County,90034921002.0
17010,sg:8008d69abab241e38cf9986b167e86ee,Anatomical Arts Physical Therapy,CT,2019-12-01T00:00:00-05:00,2020-01-01T00:00:00-05:00,6471,22,51.0,"{""<5"":0,""5-20"":4,""21-60"":7,""61-240"":10,"">240"":1}",2078.5,41.332116,-72.801273,621340.0,CT,9.0,9009.0,New Haven County,90091861002.0
17151,sg:8e280d9cd0f24939b88fe1a36aa94398,Ganim Group,CT,2019-12-01T00:00:00-05:00,2020-01-01T00:00:00-05:00,6604,82,59.0,"{""<5"":6,""5-20"":21,""21-60"":14,""61-240"":14,"">240"":27}",9431.5,41.177886,-73.216643,524210.0,CT,9.0,9001.0,Fairfield County,90010711003.0
17238,sg:980d2b4ae78f45ee8c80b579b59eef84,The Animal Experts Pet Sitting and Integrative Healthcare,CT,2019-12-01T00:00:00-05:00,2020-01-01T00:00:00-05:00,6334,23,160.0,"{""<5"":0,""5-20"":5,""21-60"":2,""61-240"":15,"">240"":1}",2641.0,41.56397,-72.161891,812910.0,CT,9.0,9011.0,New London County,90117131001.0
17348,sg:a4142ec43cfd44d09bc396a32db245dc,Theodore J Pappas DDS,CT,2019-12-01T00:00:00-05:00,2020-01-01T00:00:00-05:00,6082,20,42.5,"{""<5"":0,""5-20"":6,""21-60"":6,""61-240"":5,"">240"":3}",1790.5,41.974911999999996,-72.59745699999999,621210.0,CT,9.0,9003.0,Hartford County,90034807002.0
17418,sg:abacff1860e24998a3e1599c2331e41d,Stanley Memorial Church,CT,2019-12-01T00:00:00-05:00,2020-01-01T00:00:00-05:00,6051,24,83.5,"{""<5"":0,""5-20"":5,""21-60"":4,""61-240"":7,"">240"":8}",3198.0,41.670246,-72.76418199999999,813110.0,CT,9.0,9003.0,Hartford County,90034154001.0
17429,sg:ac8ae78e149b4ad2addc5fb5c96f4f5e,Little Pub,CT,2019-12-01T00:00:00-05:00,2020-01-01T00:00:00-05:00,6877,169,62.0,"{""<5"":1,""5-20"":29,""21-60"":50,""61-240"":53,"">240"":36}",19006.5,41.268214,-73.442014,722511.0,CT,9.0,9001.0,Fairfield County,90012453002.0
17511,sg:b4595e5d41914c02afe4bf2530289de8,Fenn Road Plaza,CT,2019-12-01T00:00:00-05:00,2020-01-01T00:00:00-05:00,6111,3121,20.0,"{""<5"":51,""5-20"":1598,""21-60"":1054,""61-240"":324,"">240"":94}",134111.5,41.695974,-72.756187,531120.0,CT,9.0,9003.0,Hartford County,90034946002.0
17537,sg:b722a1648cc747b3a8969cd58749e1b5,Hartford HealthCare Medical Group,CT,2019-12-01T00:00:00-05:00,2020-01-01T00:00:00-05:00,6106,83,41.0,"{""<5"":1,""5-20"":29,""21-60"":15,""61-240"":11,"">240"":27}",9108.0,41.752588,-72.683654,621111.0,CT,9.0,9003.0,Hartford County,90035003002.0
17609,sg:bf0aa08df6e649bb88c6c927821e75de,Gulf Oil,CT,2019-12-01T00:00:00-05:00,2020-01-01T00:00:00-05:00,6807,182,12.0,"{""<5"":20,""5-20"":89,""21-60"":18,""61-240"":27,"">240"":28}",12675.0,41.039685999999996,-73.596453,447110.0,CT,9.0,9001.0,Fairfield County,90010108001.0
17622,sg:bfe83ae485434e9dbab3169330a63084,Bolton Kennels,CT,2019-12-01T00:00:00-05:00,2020-01-01T00:00:00-05:00,6043,30,17.5,"{""<5"":0,""5-20"":16,""21-60"":8,""61-240"":4,"">240"":2}",1606.0,41.797502,-72.417536,453910.0,CT,9.0,9013.0,Tolland County,90135291003.0
17864,sg:d6ba76caeced4009b5a2676c2119abe7,Integrated Rehabilitation Services,CT,2019-12-01T00:00:00-05:00,2020-01-01T00:00:00-05:00,6078,27,50.0,"{""<5"":0,""5-20"":2,""21-60"":15,""61-240"":5,"">240"":5}",2585.0,41.984259,-72.656642,621340.0,CT,9.0,9003.0,Hartford County,90034771011.0
17914,sg:dbbdf3cd451b4a879589dac144df24c4,Dish n' Dat,CT,2019-12-01T00:00:00-05:00,2020-01-01T00:00:00-05:00,6019,15,20.0,"{""<5"":0,""5-20"":8,""21-60"":5,""61-240"":2,"">240"":0}",603.5,41.822484,-72.88355,722511.0,CT,9.0,9003.0,Hartford County,90034641023.0
17944,sg:de4d5bf0c0cb4eabb8b97b852cbd675d,Gateway Christian Fellowship,CT,2019-12-01T00:00:00-05:00,2020-01-01T00:00:00-05:00,6516,505,93.0,"{""<5"":9,""5-20"":83,""21-60"":93,""61-240"":201,"">240"":119}",63637.0,41.271266,-72.982955,813110.0,CT,9.0,9009.0,New Haven County,90091542002.0
18353,sg:092bbac8ba65445bb146372ec7ad778d,Marriott Hotels,CT,2019-12-01T00:00:00-05:00,2020-01-01T00:00:00-05:00,6095,724,229.0,"{""<5"":5,""5-20"":75,""21-60"":97,""61-240"":191,"">240"":356}",119064.0,41.873748,-72.668251,721110.0,CT,9.0,9003.0,Hartford County,90034735013.0
18374,sg:0bb65780e2cb4171b658e85d0db2efa1,Mary T Murphy School,CT,2019-12-01T00:00:00-05:00,2020-01-01T00:00:00-05:00,6405,127,25.0,"{""<5"":5,""5-20"":55,""21-60"":21,""61-240"":19,"">240"":27}",10890.0,41.294097,-72.820786,611110.0,CT,9.0,9009.0,New Haven County,90091847003.0
18392,sg:0dc70cc10c834f6884798e39a05b47c9,Sisson Avenue Shell,CT,2019-12-01T00:00:00-05:00,2020-01-01T00:00:00-05:00,6106,320,22.5,"{""<5"":13,""5-20"":136,""21-60"":63,""61-240"":70,"">240"":38}",23939.0,41.757618,-72.70572800000001,447110.0,CT,9.0,9003.0,Hartford County,90035041001.0
18446,sg:1356fa6a47ee4e569b04f41e1c09bc96,Thai Berry Kitchen,CT,2019-12-01T00:00:00-05:00,2020-01-01T00:00:00-05:00,6468,76,44.0,"{""<5"":2,""5-20"":24,""21-60"":20,""61-240"":10,"">240"":20}",7420.0,41.322585,-73.26481899999999,722511.0,CT,9.0,9001.0,Fairfield County,90011001002.0
18528,sg:1b0aaf5332a6497ea08fa7d98bdcc146,Hometown Pizza of Southbury,CT,2019-12-01T00:00:00-05:00,2020-01-01T00:00:00-05:00,6488,16,5.0,"{""<5"":3,""5-20"":11,""21-60"":0,""61-240"":2,"">240"":0}",446.0,41.473438,-73.221843,722511.0,CT,9.0,9009.0,New Haven County,90093481242.0
18691,sg:2b8843cf63bc4f4da4e1fd4d726d19c4,Munson's Chocolates,CT,2019-12-01T00:00:00-05:00,2020-01-01T00:00:00-05:00,6477,62,10.0,"{""<5"":2,""5-20"":45,""21-60"":1,""61-240"":0,"">240"":14}",3968.0,41.276632,-72.99078100000001,445292.0,CT,9.0,9009.0,New Haven County,90091571002.0
18755,sg:31d0238f77404e3d919de12ceb846f63,Fusco's Auto Salvage,CT,2019-12-01T00:00:00-05:00,2020-01-01T00:00:00-05:00,6779,3,5.0,"{""<5"":1,""5-20"":2,""21-60"":0,""61-240"":0,"">240"":0}",27.5,41.606316,-73.07457,811121.0,CT,9.0,9005.0,Litchfield County,90053603002.0
18780,sg:343556f46708420295a54997641b1f7a,Jay's Latin Cuisine,CT,2019-12-01T00:00:00-05:00,2020-01-01T00:00:00-05:00,6095,1,1275.0,"{""<5"":0,""5-20"":0,""21-60"":0,""61-240"":0,"">240"":1}",240.0,41.85382,-72.643458,722511.0,CT,9.0,9003.0,Hartford County,90034734001.0
18785,sg:3504a0a050ba47bfb366737e5a342f58,Upper Crust,CT,2019-12-01T00:00:00-05:00,2020-01-01T00:00:00-05:00,6776,42,44.0,"{""<5"":0,""5-20"":11,""21-60"":21,""61-240"":9,"">240"":1}",2582.5,41.640125,-73.39000300000001,722511.0,CT,9.0,9005.0,Litchfield County,90052535001.0
18827,sg:3876ef06e2ec4a8d94650b234b0d97dd,Ravi Raj Grocery,CT,2019-12-01T00:00:00-05:00,2020-01-01T00:00:00-05:00,6360,15,8.0,"{""<5"":0,""5-20"":13,""21-60"":1,""61-240"":0,"">240"":1}",443.0,41.520317,-72.094758,445110.0,CT,9.0,9011.0,New London County,90116966001.0
18912,sg:4013f4fa2fac4c49925643e739d95cdf,Bolton High School,CT,2019-12-01T00:00:00-05:00,2020-01-01T00:00:00-05:00,6043,554,186.0,"{""<5"":4,""5-20"":68,""21-60"":82,""61-240"":156,"">240"":244}",86219.0,41.760594,-72.421578,611110.0,CT,9.0,9013.0,Tolland County,90135291004.0
18978,sg:455fad18177e4a5c82f14c978cc15301,Lion's Head Condominiums,CT,2019-12-01T00:00:00-05:00,2020-01-01T00:00:00-05:00,6068,6,26.5,"{""<5"":1,""5-20"":2,""21-60"":1,""61-240"":2,"">240"":0}",369.0,41.990318,-73.416451,531210.0,CT,9.0,9005.0,Litchfield County,90052611002.0
19013,sg:481aabd7f43447568ebeb1a416f434c2,Irving A Robbins Middle School,CT,2019-12-01T00:00:00-05:00,2020-01-01T00:00:00-05:00,6032,436,316.5,"{""<5"":4,""5-20"":28,""21-60"":26,""61-240"":93,"">240"":285}",83809.5,41.721191999999995,-72.798532,611110.0,CT,9.0,9003.0,Hartford County,90034601001.0
19203,sg:5b79ffa876db4a23b7f00efff555f66c,Sesame Seed Restaurant,CT,2019-12-01T00:00:00-05:00,2020-01-01T00:00:00-05:00,6810,24,57.5,"{""<5"":1,""5-20"":4,""21-60"":8,""61-240"":9,"">240"":2}",2211.0,41.386032,-73.45780400000001,722511.0,CT,9.0,9001.0,Fairfield County,90012106002.0
19276,sg:63acf479ece04f9789032b2565f4e22d,Daniel N Minchik DDS,CT,2019-12-01T00:00:00-05:00,2020-01-01T00:00:00-05:00,6851,89,49.0,"{""<5"":1,""5-20"":23,""21-60"":26,""61-240"":21,"">240"":18}",8823.5,41.110444,-73.40938,621210.0,CT,9.0,9001.0,Fairfield County,90010436002.0
19292,sg:66152604aa974d5dbde56c5da4f3ed5c,Life Storage,CT,2019-12-01T00:00:00-05:00,2020-01-01T00:00:00-05:00,6704,71,25.0,"{""<5"":3,""5-20"":26,""21-60"":16,""61-240"":12,"">240"":14}",6146.5,41.576111,-73.015084,531130.0,CT,9.0,9009.0,New Haven County,90093511001.0
19331,sg:69dc57e996634eb68890887f2918b388,Seymour Oxford Nursery & Cc Assoc Bungay,CT,2019-12-01T00:00:00-05:00,2020-01-01T00:00:00-05:00,6483,19,15.0,"{""<5"":0,""5-20"":11,""21-60"":4,""61-240"":3,"">240"":1}",991.0,41.387648,-73.092302,624410.0,CT,9.0,9009.0,New Haven County,90091302003.0
19573,sg:81d37f5d3e814a77ae77f542ac815e87,Barry & Fred,CT,2019-12-01T00:00:00-05:00,2020-01-01T00:00:00-05:00,6902,26,18.0,"{""<5"":0,""5-20"":18,""21-60"":5,""61-240"":1,"">240"":2}",1058.0,41.048235999999996,-73.535101,452319.0,CT,9.0,9001.0,Fairfield County,90010222001.0
19578,sg:821438e8e47449f989d6a9758d447f78,The Growth,CT,2019-12-01T00:00:00-05:00,2020-01-01T00:00:00-05:00,6082,191,22.0,"{""<5"":7,""5-20"":73,""21-60"":80,""61-240"":17,"">240"":14}",10088.5,41.98748,-72.555645,453110.0,CT,9.0,9003.0,Hartford County,90034808002.0
19632,sg:87fc1d6c522e4828b0d59dc64eda9d01,Bachata Restaurant,CT,2019-12-01T00:00:00-05:00,2020-01-01T00:00:00-05:00,6902,277,28.0,"{""<5"":12,""5-20"":109,""21-60"":54,""61-240"":50,"">240"":52}",23584.5,41.055459,-73.52714300000001,722511.0,CT,9.0,9001.0,Fairfield County,90010217001.0
19745,sg:9254908a4c94408c811263632aa8b2f7,Shoes'n'more,CT,2019-12-01T00:00:00-05:00,2020-01-01T00:00:00-05:00,6830,145,40.0,"{""<5"":2,""5-20"":42,""21-60"":50,""61-240"":48,"">240"":3}",10499.0,41.026494,-73.62561600000001,448120.0,CT,9.0,9001.0,Fairfield County,90010106002.0
19775,sg:94d599d384b54f449318157440e369cb,Stickley Audi & Co,CT,2019-12-01T00:00:00-05:00,2020-01-01T00:00:00-05:00,6804,121,30.0,"{""<5"":5,""5-20"":46,""21-60"":32,""61-240"":38,"">240"":0}",7602.5,41.447542,-73.404322,442110.0,CT,9.0,9001.0,Fairfield County,90012053003.0
19843,sg:9c70ff3f259d4a239c2eda6c45385963,Niantic Public House and Brewery,CT,2019-12-01T00:00:00-05:00,2020-01-01T00:00:00-05:00,6357,2,10.0,"{""<5"":0,""5-20"":2,""21-60"":0,""61-240"":0,"">240"":0}",25.0,41.323948,-72.193494,312120.0,CT,9.0,9011.0,New London County,90118707042.0
19856,sg:9dd1e9c71b2045b3b170a512f840fdba,Royal Buffet,CT,2019-12-01T00:00:00-05:00,2020-01-01T00:00:00-05:00,6226,307,41.0,"{""<5"":2,""5-20"":52,""21-60"":170,""61-240"":66,"">240"":17}",21553.0,41.713685,-72.226385,722511.0,CT,9.0,9015.0,Windham County,90158003002.0
19954,sg:a6d697fdfe2142efab765c9aacca7607,West Hartford Fire Department Station 5,CT,2019-12-01T00:00:00-05:00,2020-01-01T00:00:00-05:00,6107,77,162.0,"{""<5"":1,""5-20"":18,""21-60"":9,""61-240"":22,"">240"":27}",10383.0,41.733216,-72.753475,922160.0,CT,9.0,9003.0,Hartford County,90034964004.0
20184,sg:beefda6af65a4d79ac1d0a8422e5521b,East Rock Dog Park,CT,2019-12-01T00:00:00-05:00,2020-01-01T00:00:00-05:00,6511,56,98.0,"{""<5"":1,""5-20"":9,""21-60"":8,""61-240"":28,"">240"":10}",7053.0,41.318779,-72.90686099999999,712190.0,CT,9.0,9009.0,New Haven County,90091419002.0
20324,sg:ceb71ba759704e19875464f78c7ec1a9,Ywca Creative Nursery School,CT,2019-12-01T00:00:00-05:00,2020-01-01T00:00:00-05:00,6042,66,62.0,"{""<5"":1,""5-20"":12,""21-60"":17,""61-240"":22,"">240"":14}",7512.0,41.79479,-72.523066,624410.0,CT,9.0,9003.0,Hartford County,90035144001.0
20341,sg:d00a2c72ff3f4329a27305dea60f7657,HomeGoods,CT,2019-12-01T00:00:00-05:00,2020-01-01T00:00:00-05:00,6109,2306,32.0,"{""<5"":23,""5-20"":629,""21-60"":1096,""61-240"":479,"">240"":79}",143357.5,41.691476,-72.654886,442299.0,CT,9.0,9003.0,Hartford County,90034926001.0
20371,sg:d2e0f154f1524e178369e9b1a5c7a214,Shell Oil,CT,2019-12-01T00:00:00-05:00,2020-01-01T00:00:00-05:00,6379,106,7.0,"{""<5"":12,""5-20"":78,""21-60"":13,""61-240"":2,"">240"":1}",2072.5,41.405196999999994,-71.85063199999999,447110.0,CT,9.0,9011.0,New London County,90117051023.0
20459,sg:db6e3db83f3248f18aa7cf142da3e034,Tire and Brake Clinic,CT,2019-12-01T00:00:00-05:00,2020-01-01T00:00:00-05:00,6237,1,524.0,"{""<5"":0,""5-20"":0,""21-60"":0,""61-240"":0,"">240"":1}",240.0,41.717583000000005,-72.247264,811111.0,CT,9.0,9013.0,Tolland County,90138601002.0
20462,sg:dbd43d64c0164f478cd821471f1b1a3f,Maxwell A Boatey DMD,CT,2019-12-01T00:00:00-05:00,2020-01-01T00:00:00-05:00,6450,11,446.0,"{""<5"":0,""5-20"":3,""21-60"":1,""61-240"":0,"">240"":7}",1758.0,41.53157,-72.793725,621210.0,CT,9.0,9009.0,New Haven County,90091710001.0
20521,sg:e16c8557e65040d78a3db3279b970afa,The World Of Imaginations Ii,CT,2019-12-01T00:00:00-05:00,2020-01-01T00:00:00-05:00,6076,18,17.0,"{""<5"":3,""5-20"":8,""21-60"":3,""61-240"":3,"">240"":1}",920.5,41.979915999999996,-72.38932700000001,624410.0,CT,9.0,9013.0,Tolland County,90138902023.0
20701,sg:f1cf42e506a7439d8b9c8871dc0bb175,Sunoco,CT,2019-12-01T00:00:00-05:00,2020-01-01T00:00:00-05:00,6473,169,6.0,"{""<5"":24,""5-20"":128,""21-60"":4,""61-240"":4,"">240"":9}",4584.0,41.422173,-72.839916,447110.0,CT,9.0,9009.0,New Haven County,90091672022.0
20913,sg:0620046d55564889b6371811494f73b4,CITGO,CT,2019-12-01T00:00:00-05:00,2020-01-01T00:00:00-05:00,6708,146,6.0,"{""<5"":9,""5-20"":128,""21-60"":7,""61-240"":1,"">240"":1}",2296.5,41.534726,-73.050963,447110.0,,,,,
21030,sg:0e6bc2a3807846da890ab263676f1737,Jeera Thai,CT,2019-12-01T00:00:00-05:00,2020-01-01T00:00:00-05:00,6510,81,10.0,"{""<5"":5,""5-20"":54,""21-60"":0,""61-240"":13,"">240"":9}",4804.0,41.305549,-72.928952,722511.0,CT,9.0,9009.0,New Haven County,90091401001.0
21042,sg:0f25af582b734f98b9d56a41618a6d97,VIP Car Wash,CT,2019-12-01T00:00:00-05:00,2020-01-01T00:00:00-05:00,6002,9,549.0,"{""<5"":0,""5-20"":1,""21-60"":0,""61-240"":0,"">240"":8}",1932.5,41.814516,-72.708467,811192.0,CT,9.0,9003.0,Hartford County,90034712002.0
21043,sg:0f2afdcfeb9d465796eacb9bed6b1e5f,Supreme Auto Service Center,CT,2019-12-01T00:00:00-05:00,2020-01-01T00:00:00-05:00,6071,15,44.0,"{""<5"":0,""5-20"":6,""21-60"":3,""61-240"":6,"">240"":0}",1099.5,41.980878000000004,-72.44760699999999,811111.0,CT,9.0,9013.0,Tolland County,90135382013.0
21272,sg:23769f76ab3e47db98a57e494975cfd7,Chris Sapia Realtor,CT,2019-12-01T00:00:00-05:00,2020-01-01T00:00:00-05:00,6040,6,186.5,"{""<5"":0,""5-20"":3,""21-60"":0,""61-240"":0,"">240"":3}",757.5,41.771198999999996,-72.543817,531210.0,CT,9.0,9003.0,Hartford County,90035146004.0
21275,sg:24073cdb732346e59af91c4597cc5ad0,United States Postal Service (USPS),CT,2019-12-01T00:00:00-05:00,2020-01-01T00:00:00-05:00,6401,13,11.0,"{""<5"":0,""5-20"":8,""21-60"":2,""61-240"":2,"">240"":1}",722.0,41.34325,-73.078417,491110.0,CT,9.0,9009.0,New Haven County,90091252002.0
21413,sg:30bf36d06d4f4e6683a03f388fe516d2,National Seating & Mobility,CT,2019-12-01T00:00:00-05:00,2020-01-01T00:00:00-05:00,6357,17,40.0,"{""<5"":0,""5-20"":3,""21-60"":7,""61-240"":7,"">240"":0}",1374.5,41.318540000000006,-72.244699,621999.0,CT,9.0,9011.0,New London County,90117161011.0
21465,sg:36b091780e2e40678b8a09c9a8cae013,BOB THOMAS FORD INC,CT,2019-12-01T00:00:00-05:00,2020-01-01T00:00:00-05:00,6514,169,56.0,"{""<5"":8,""5-20"":52,""21-60"":32,""61-240"":26,"">240"":51}",18119.0,41.370846,-72.917178,441110.0,CT,9.0,9009.0,New Haven County,90091658012.0
21642,sg:45f2259ae4464c7eb3917a6e08390f94,Anytime Fitness,CT,2019-12-01T00:00:00-05:00,2020-01-01T00:00:00-05:00,6117,896,44.0,"{""<5"":5,""5-20"":159,""21-60"":389,""61-240"":245,"">240"":98}",78147.0,41.784725,-72.74525899999999,713940.0,CT,9.0,9003.0,Hartford County,90034974001.0
21645,sg:4601a9deaa714009be182f776c659b3c,Marshalls,CT,2019-12-01T00:00:00-05:00,2020-01-01T00:00:00-05:00,6416,1359,35.0,"{""<5"":16,""5-20"":340,""21-60"":658,""61-240"":260,"">240"":85}",90469.0,41.60414,-72.678498,448140.0,CT,9.0,9007.0,Middlesex County,90075701003.0
21704,sg:4ae4b9f9f8af460b927e2224a46d553b,West Hartford Associated Ear Nose and Throat,CT,2019-12-01T00:00:00-05:00,2020-01-01T00:00:00-05:00,6119,31,68.0,"{""<5"":0,""5-20"":6,""21-60"":8,""61-240"":11,"">240"":6}",3494.5,41.762853,-72.737222,621111.0,CT,9.0,9003.0,Hartford County,90034969007.0
21721,sg:4c57d12dea3a458bab8101b972d1e90d,Obstetrics Midwifery & Gynecology,CT,2019-12-01T00:00:00-05:00,2020-01-01T00:00:00-05:00,6410,14,22.0,"{""<5"":0,""5-20"":6,""21-60"":6,""61-240"":2,"">240"":0}",619.0,41.509527,-72.89914499999999,621111.0,CT,9.0,9009.0,New Haven County,90093431022.0
21813,sg:57901848e8784a1fb1ef8a9b4a14b23c,Joey B's,CT,2019-12-01T00:00:00-05:00,2020-01-01T00:00:00-05:00,6037,73,25.0,"{""<5"":0,""5-20"":23,""21-60"":40,""61-240"":8,"">240"":2}",3591.5,41.626675,-72.750499,722511.0,,,,,
22472,sg:9a3b34928c0141159d75e5a2a3bb481c,Quest Diagnostics,CT,2019-12-01T00:00:00-05:00,2020-01-01T00:00:00-05:00,6489,89,25.0,"{""<5"":2,""5-20"":32,""21-60"":32,""61-240"":19,"">240"":4}",5520.5,41.610633,-72.876864,621511.0,CT,9.0,9003.0,Hartford County,90034306022.0
22839,sg:bf80677261f4490583940061e860bf27,AL'S Best Pizza,CT,2019-12-01T00:00:00-05:00,2020-01-01T00:00:00-05:00,6798,7,10.0,"{""<5"":0,""5-20"":6,""21-60"":0,""61-240"":0,"">240"":1}",315.0,41.523784,-73.20179499999999,722511.0,CT,9.0,9005.0,Litchfield County,90053621011.0
22909,sg:c6530f89db454fc1a667c393dd4ae3d3,Drain Stars Plumbing Unlimited,CT,2019-12-01T00:00:00-05:00,2020-01-01T00:00:00-05:00,6360,200,101.0,"{""<5"":2,""5-20"":58,""21-60"":24,""61-240"":46,"">240"":70}",25425.0,41.540363,-72.054447,444130.0,CT,9.0,9011.0,New London County,90116964002.0
22966,sg:cb9e77f9fef34ea38372d4c9f44e2ac8,Citibank,CT,2019-12-01T00:00:00-05:00,2020-01-01T00:00:00-05:00,6353,43,76.0,"{""<5"":0,""5-20"":7,""21-60"":11,""61-240"":12,"">240"":13}",5459.0,41.477803,-72.091643,522110.0,,,,,
23236,sg:e6c93baae94a48058920cf4369dfbe67,St Roch's Church,CT,2019-12-01T00:00:00-05:00,2020-01-01T00:00:00-05:00,6830,88,54.5,"{""<5"":0,""5-20"":11,""21-60"":36,""61-240"":35,"">240"":6}",8303.0,41.017364,-73.641144,813110.0,CT,9.0,9001.0,Fairfield County,90010105004.0
23337,sg:f0d0e68cba874c61a80fe4198b23ff83,Exxon Mobil,CT,2019-12-01T00:00:00-05:00,2020-01-01T00:00:00-05:00,6851,128,15.0,"{""<5"":10,""5-20"":62,""21-60"":19,""61-240"":28,"">240"":9}",7943.5,41.126397999999995,-73.387988,447110.0,CT,9.0,9001.0,Fairfield County,90010435001.0
23595,sg:0a794fc49022409181829b0e4b05a906,Anytime Fitness,CT,2019-12-01T00:00:00-05:00,2020-01-01T00:00:00-05:00,6489,112,36.0,"{""<5"":0,""5-20"":31,""21-60"":48,""61-240"":26,"">240"":7}",7924.5,41.712444,-72.83941300000001,713940.0,CT,9.0,9003.0,Hartford County,90034602043.0
23620,sg:0d08fd9166b24da4969d02709c1c4087,Country Farm,CT,2019-12-01T00:00:00-05:00,2020-01-01T00:00:00-05:00,6489,195,21.0,"{""<5"":8,""5-20"":89,""21-60"":64,""61-240"":22,"">240"":12}",9915.5,41.606984000000004,-72.899313,445120.0,CT,9.0,9003.0,Hartford County,90034306022.0
23679,sg:135202ddc0f14ddea6b419088094c44d,Aspen Dental,CT,2019-12-01T00:00:00-05:00,2020-01-01T00:00:00-05:00,6082,2,512.0,"{""<5"":0,""5-20"":0,""21-60"":0,""61-240"":0,"">240"":2}",480.0,41.990318,-72.57857299999999,621210.0,CT,9.0,9003.0,Hartford County,90034808004.0
23791,sg:1cf87ffc02874fb6b66b9c219174e552,The Sports Bar,CT,2019-12-01T00:00:00-05:00,2020-01-01T00:00:00-05:00,6256,61,241.0,"{""<5"":1,""5-20"":8,""21-60"":0,""61-240"":21,"">240"":31}",10703.0,41.729577,-72.187958,722511.0,CT,9.0,9015.0,Windham County,90158005006.0
23866,sg:2321bbe3047d49e9b511d12f4e449d70,Victorian Day Spa,CT,2019-12-01T00:00:00-05:00,2020-01-01T00:00:00-05:00,6119,11,1129.0,"{""<5"":0,""5-20"":3,""21-60"":0,""61-240"":1,"">240"":7}",1868.0,41.755935,-72.730101,812199.0,CT,9.0,9003.0,Hartford County,90034969005.0
23868,sg:2367c6f8f44142cfac7298cd5cc399f9,A Plus Audio & Tinting,CT,2019-12-01T00:00:00-05:00,2020-01-01T00:00:00-05:00,6040,62,10.0,"{""<5"":6,""5-20"":36,""21-60"":11,""61-240"":9,"">240"":0}",2265.0,41.780782,-72.560426,444120.0,CT,9.0,9003.0,Hartford County,90035145004.0
24045,sg:32ccdbfbc15b4a2b999cdd29a549db94,People's United Bank,CT,2019-12-01T00:00:00-05:00,2020-01-01T00:00:00-05:00,6820,14,37.0,"{""<5"":0,""5-20"":6,""21-60"":2,""61-240"":2,"">240"":4}",1417.0,41.070477000000004,-73.49546099999999,522110.0,CT,9.0,9001.0,Fairfield County,90010305001.0
24171,sg:3e7a6f1163a04a78a075e1bf4ffb1b3b,7-Eleven,CT,2019-12-01T00:00:00-05:00,2020-01-01T00:00:00-05:00,6710,300,12.0,"{""<5"":10,""5-20"":175,""21-60"":41,""61-240"":41,"">240"":33}",17963.5,41.571677,-73.042187,445120.0,CT,9.0,9009.0,New Haven County,90093508001.0
24175,sg:3edc3e39f8a240ca98fb5d30ab8a27ba,Caribbean Connection restaurant,CT,2019-12-01T00:00:00-05:00,2020-01-01T00:00:00-05:00,6511,269,28.0,"{""<5"":12,""5-20"":107,""21-60"":59,""61-240"":67,"">240"":24}",19600.5,41.319359000000006,-72.950062,722511.0,CT,9.0,9009.0,New Haven County,90091409004.0
24206,sg:42412c61cd8a4df6a4aefbe0f6fc2aa7,Branford Cue & Brew,CT,2019-12-01T00:00:00-05:00,2020-01-01T00:00:00-05:00,6405,102,103.5,"{""<5"":2,""5-20"":20,""21-60"":17,""61-240"":57,"">240"":6}",10962.0,41.282451,-72.834609,451120.0,CT,9.0,9009.0,New Haven County,90091842001.0
24309,sg:4d120603cfff464eaab8bf4a7080a272,Family Center For Girls And Boys,CT,2019-12-01T00:00:00-05:00,2020-01-01T00:00:00-05:00,6010,62,10.0,"{""<5"":4,""5-20"":34,""21-60"":10,""61-240"":9,"">240"":5}",3394.5,41.669343,-72.946915,624410.0,CT,9.0,9003.0,Hartford County,90034061002.0
24413,sg:58094fe1297144898968413c0bbb5d90,Walsh's Country Store,CT,2019-12-01T00:00:00-05:00,2020-01-01T00:00:00-05:00,6483,4,7.0,"{""<5"":1,""5-20"":3,""21-60"":0,""61-240"":0,"">240"":0}",40.0,41.366005,-73.14218100000001,442110.0,CT,9.0,9009.0,New Haven County,90091302004.0
24574,sg:666c795b6a384dbb9019dc8361275636,Always Best Care,CT,2019-12-01T00:00:00-05:00,2020-01-01T00:00:00-05:00,6010,14,13.0,"{""<5"":0,""5-20"":8,""21-60"":5,""61-240"":1,"">240"":0}",453.0,41.666519,-72.921513,621610.0,CT,9.0,9003.0,Hartford County,90034054021.0
24799,sg:7be63be11dd840e69f2682dd39bdc0f2,The Awareness Center,CT,2019-12-01T00:00:00-05:00,2020-01-01T00:00:00-05:00,6708,2,769.5,"{""<5"":0,""5-20"":0,""21-60"":0,""61-240"":0,"">240"":2}",480.0,41.536321,-73.052128,621330.0,CT,9.0,9009.0,New Haven County,90093516022.0
24958,sg:8b0c65a4196d44ee986bd39444ad210a,United Methodist Church of Rocky Hill,CT,2019-12-01T00:00:00-05:00,2020-01-01T00:00:00-05:00,6067,173,77.0,"{""<5"":2,""5-20"":34,""21-60"":41,""61-240"":57,"">240"":39}",20029.0,41.66977,-72.638705,813110.0,CT,9.0,9003.0,Hartford County,90034901001.0
24989,sg:8e22789d2a7e424c88bad0db513e1ce0,CubeSmart,CT,2019-12-01T00:00:00-05:00,2020-01-01T00:00:00-05:00,6042,8,56.0,"{""<5"":0,""5-20"":3,""21-60"":1,""61-240"":3,"">240"":1}",769.5,41.794748999999996,-72.534486,531130.0,CT,9.0,9003.0,Hartford County,90035142002.0
25008,sg:8fde18b2b50c46d182cb0e14bd39ed0f,AAA Driving School,CT,2019-12-01T00:00:00-05:00,2020-01-01T00:00:00-05:00,6374,38,27.5,"{""<5"":1,""5-20"":15,""21-60"":12,""61-240"":9,"">240"":1}",2270.5,41.638228999999995,-71.95166,453310.0,CT,9.0,9015.0,Windham County,90159073004.0
25036,sg:9297962b7ef2413e9b6120e371f1062a,Jersey Mike's,CT,2019-12-01T00:00:00-05:00,2020-01-01T00:00:00-05:00,6897,302,12.5,"{""<5"":14,""5-20"":162,""21-60"":84,""61-240"":37,"">240"":5}",12230.5,41.165403999999995,-73.418391,722513.0,CT,9.0,9001.0,Fairfield County,90010454002.0
25069,sg:96437677bc204f918903855eeed08706,Dr William C Deangelo P C,CT,2019-12-01T00:00:00-05:00,2020-01-01T00:00:00-05:00,6460,1,7.0,"{""<5"":0,""5-20"":1,""21-60"":0,""61-240"":0,"">240"":0}",12.5,41.22501,-73.031622,621310.0,CT,9.0,9009.0,New Haven County,90091509002.0
25129,sg:9c2a127522b54c96b0ebacf25373b8c2,Suffield Country Club,CT,2019-12-01T00:00:00-05:00,2020-01-01T00:00:00-05:00,6078,197,59.0,"{""<5"":4,""5-20"":52,""21-60"":47,""61-240"":61,"">240"":33}",19664.0,41.993762,-72.654461,713910.0,CT,9.0,9003.0,Hartford County,90034771011.0
25161,sg:9f71dcaf18a14f6ea3fc87b9b550dd38,United States Postal Service (USPS),CT,2019-12-01T00:00:00-05:00,2020-01-01T00:00:00-05:00,6457,287,21.0,"{""<5"":9,""5-20"":134,""21-60"":57,""61-240"":48,"">240"":39}",20590.0,41.552263,-72.64077900000001,491110.0,CT,9.0,9007.0,Middlesex County,90075417001.0
25166,sg:a00e5492e99f433691a53a03679d8b51,Deep Roots Street Food,CT,2019-12-01T00:00:00-05:00,2020-01-01T00:00:00-05:00,6035,117,41.0,"{""<5"":2,""5-20"":28,""21-60"":47,""61-240"":30,"">240"":10}",9173.5,41.953445,-72.788382,722511.0,CT,9.0,9003.0,Hartford County,90034681022.0
25277,sg:ab9ded2f26b8436f8b3048da2dcd342f,Lepage L Hair Skin & Nail Salon,CT,2019-12-01T00:00:00-05:00,2020-01-01T00:00:00-05:00,6451,71,60.0,"{""<5"":4,""5-20"":22,""21-60"":10,""61-240"":22,"">240"":13}",7121.0,41.554660999999996,-72.81339200000001,446120.0,CT,9.0,9009.0,New Haven County,90091704001.0
25305,sg:aec1da0bd0474779b87fccb7ef138082,Dunkin',CT,2019-12-01T00:00:00-05:00,2020-01-01T00:00:00-05:00,6605,237,10.0,"{""<5"":18,""5-20"":134,""21-60"":35,""61-240"":26,"">240"":24}",12810.5,41.160759999999996,-73.223862,722515.0,CT,9.0,9001.0,Fairfield County,90010702001.0
25543,sg:cbf3853ebe9a44a7842dc1eaac06128a,Terryville Pizza House,CT,2019-12-01T00:00:00-05:00,2020-01-01T00:00:00-05:00,6786,343,46.0,"{""<5"":8,""5-20"":121,""21-60"":52,""61-240"":64,"">240"":98}",36790.5,41.678261,-73.011135,722511.0,CT,9.0,9005.0,Litchfield County,90054255001.0
25553,sg:cd52c5ef961f493cb920a56a1573df60,CAIT SHEA Sprouted Coffee Bar,CT,2019-12-01T00:00:00-05:00,2020-01-01T00:00:00-05:00,6442,41,16.0,"{""<5"":0,""5-20"":28,""21-60"":7,""61-240"":1,"">240"":5}",1984.0,41.348019,-72.44070500000001,448120.0,CT,9.0,9007.0,Middlesex County,90076301006.0
25631,sg:d41768c12f504c7796bdc4d83aa8441e,New Fairfield Auto Body,CT,2019-12-01T00:00:00-05:00,2020-01-01T00:00:00-05:00,6812,2,21.5,"{""<5"":0,""5-20"":1,""21-60"":1,""61-240"":0,"">240"":0}",53.0,41.465059000000004,-73.481189,811121.0,CT,9.0,9001.0,Fairfield County,90012203003.0
25699,sg:d9b8296ce3ad45b190dd92136872de85,Catherine M Mcgee Middle School,CT,2019-12-01T00:00:00-05:00,2020-01-01T00:00:00-05:00,6037,1404,140.5,"{""<5"":13,""5-20"":216,""21-60"":222,""61-240"":324,"">240"":629}",211445.5,41.615901,-72.763581,611110.0,CT,9.0,9003.0,Hartford County,90034001001.0
25735,sg:dd724604bd8a43d1b2ea3bc25e2d347e,Gales Ferry Marina,CT,2019-12-01T00:00:00-05:00,2020-01-01T00:00:00-05:00,6335,39,1064.0,"{""<5"":0,""5-20"":1,""21-60"":4,""61-240"":6,"">240"":28}",7797.5,41.434289,-72.089906,441222.0,CT,9.0,9011.0,New London County,90117012002.0
25776,sg:e13ed597e5a94514b55829820ea72b2c,Dunkin',CT,2019-12-01T00:00:00-05:00,2020-01-01T00:00:00-05:00,6108,260,7.0,"{""<5"":25,""5-20"":199,""21-60"":21,""61-240"":11,"">240"":4}",6016.0,41.763028999999996,-72.646785,722515.0,CT,9.0,9003.0,Hartford County,90035102002.0
25780,sg:e18a91f5ae84480190a984467d6f0a2d,Northside Tavern,CT,2019-12-01T00:00:00-05:00,2020-01-01T00:00:00-05:00,6790,43,53.0,"{""<5"":1,""5-20"":17,""21-60"":5,""61-240"":14,"">240"":6}",3964.5,41.820586,-73.12031,722511.0,CT,9.0,9005.0,Litchfield County,90053101001.0
25822,sg:e5e79cb5cec84ddfa21da614d5b50e07,Waterside Green Park,CT,2019-12-01T00:00:00-05:00,2020-01-01T00:00:00-05:00,6413,15,26.0,"{""<5"":0,""5-20"":6,""21-60"":5,""61-240"":4,"">240"":0}",879.5,41.271208,-72.522335,712190.0,CT,9.0,9007.0,Middlesex County,90076102001.0
25912,sg:ef2e19fd508f45fd94185590be9fe74e,Skechers,CT,2019-12-01T00:00:00-05:00,2020-01-01T00:00:00-05:00,6042,21,10.0,"{""<5"":3,""5-20"":16,""21-60"":1,""61-240"":0,"">240"":1}",488.0,41.804528000000005,-72.56048100000001,448210.0,,,,,
26063,sg:fdf8f3318f694d81bfebb156669c0e2d,Select Physical Therapy,CT,2019-12-01T00:00:00-05:00,2020-01-01T00:00:00-05:00,6109,98,37.5,"{""<5"":3,""5-20"":26,""21-60"":34,""61-240"":16,"">240"":19}",8677.5,41.706424,-72.661128,621399.0,CT,9.0,9003.0,Hartford County,90034922001.0
26094,sg:019bd21828244527882d1c250f32fda2,Saint Raphael's Senior Assessment Center,CT,2019-12-01T00:00:00-05:00,2020-01-01T00:00:00-05:00,6511,637,56.0,"{""<5"":4,""5-20"":157,""21-60"":170,""61-240"":151,"">240"":155}",68783.0,41.310725,-72.943354,621111.0,CT,9.0,9009.0,New Haven County,90091408001.0
26203,sg:0d233b1144d94af190a96acfa9b380bb,Ridgefield Fred Astaire Dance Studio,CT,2019-12-01T00:00:00-05:00,2020-01-01T00:00:00-05:00,6877,267,8.0,"{""<5"":13,""5-20"":199,""21-60"":41,""61-240"":14,"">240"":0}",6287.5,41.265339000000004,-73.441244,713940.0,CT,9.0,9001.0,Fairfield County,90012454001.0
26314,sg:1748b7174b0d4a4b8c6ced4cfb282ce1,Webster Bank,CT,2019-12-01T00:00:00-05:00,2020-01-01T00:00:00-05:00,6484,21,260.0,"{""<5"":0,""5-20"":7,""21-60"":0,""61-240"":1,"">240"":13}",3358.0,41.296043,-73.10901700000001,522110.0,CT,9.0,9001.0,Fairfield County,90011103013.0
26338,sg:18c09f73990f43a1ac86af178d418a4c,Jesse Lee Day School,CT,2019-12-01T00:00:00-05:00,2020-01-01T00:00:00-05:00,6877,192,46.0,"{""<5"":13,""5-20"":49,""21-60"":50,""61-240"":67,"">240"":13}",15873.5,41.27556,-73.498917,624410.0,,,,,
26382,sg:1c981fe00f3946f58d3d9197adb4dec9,Wisdom of the Ages,CT,2019-12-01T00:00:00-05:00,2020-01-01T00:00:00-05:00,6070,16,11.0,"{""<5"":2,""5-20"":8,""21-60"":2,""61-240"":1,"">240"":3}",1056.5,41.904329,-72.78612,453220.0,CT,9.0,9003.0,Hartford County,90034662012.0
26435,sg:213eff442f8b4d1f9c135a1ddee5bd41,The Kitchen Couple,CT,2019-12-01T00:00:00-05:00,2020-01-01T00:00:00-05:00,6877,5,45.0,"{""<5"":0,""5-20"":2,""21-60"":1,""61-240"":2,"">240"":0}",366.5,41.239982,-73.49726,444120.0,CT,9.0,9001.0,Fairfield County,90012454002.0
26449,sg:2289ed77a254447eb77471c1cc9be0d5,Interstate Auto Sales and Service,CT,2019-12-01T00:00:00-05:00,2020-01-01T00:00:00-05:00,6360,40,41.5,"{""<5"":0,""5-20"":12,""21-60"":14,""61-240"":7,"">240"":7}",3450.5,41.592712,-72.049277,,CT,9.0,9011.0,New London County,90116961001.0
26503,sg:27bc83571f944a849926946669cdd376,Bassick High School,CT,2019-12-01T00:00:00-05:00,2020-01-01T00:00:00-05:00,6605,1180,88.0,"{""<5"":15,""5-20"":286,""21-60"":197,""61-240"":448,"">240"":234}",135175.0,41.172968,-73.207091,611110.0,CT,9.0,9001.0,Fairfield County,90010711002.0
26583,sg:2f16f119c88b4415a8554fd5d032ca48,21 Oak,CT,2019-12-01T00:00:00-05:00,2020-01-01T00:00:00-05:00,6040,13,21.0,"{""<5"":0,""5-20"":5,""21-60"":7,""61-240"":1,"">240"":0}",496.5,41.769444,-72.519535,722511.0,CT,9.0,9003.0,Hartford County,90035147001.0
26604,sg:323f83ed020d412bb6693c42fe165885,LensCrafters,CT,2019-12-01T00:00:00-05:00,2020-01-01T00:00:00-05:00,6010,64,32.0,"{""<5"":3,""5-20"":23,""21-60"":18,""61-240"":13,"">240"":7}",4660.5,41.68372,-72.939851,446130.0,CT,9.0,9003.0,Hartford County,90034051001.0
26605,sg:32485644605c47168228dd3d0ed9d9af,Walgreens,CT,2019-12-01T00:00:00-05:00,2020-01-01T00:00:00-05:00,6333,315,9.0,"{""<5"":21,""5-20"":219,""21-60"":42,""61-240"":13,"">240"":20}",11247.5,41.365657,-72.210204,446110.0,CT,9.0,9011.0,New London County,90117161023.0
26736,sg:3e52daea6350470ea1410c8317a730ec,Dunkin',CT,2019-12-01T00:00:00-05:00,2020-01-01T00:00:00-05:00,6422,151,6.0,"{""<5"":21,""5-20"":126,""21-60"":3,""61-240"":1,"">240"":0}",1899.5,41.484714000000004,-72.681289,722515.0,CT,9.0,9007.0,Middlesex County,90075851002.0
26814,sg:45863719d69d4c128fb5bc9f9a491b35,Putnam School Readiness Child Care Program,CT,2019-12-01T00:00:00-05:00,2020-01-01T00:00:00-05:00,6260,340,62.0,"{""<5"":4,""5-20"":93,""21-60"":70,""61-240"":115,"">240"":58}",35235.0,41.922349,-71.916843,624410.0,CT,9.0,9015.0,Windham County,90159031005.0
26846,sg:482c7c5071ef4ce6b7f59d843484c4ca,Caguas Used Tire Center,CT,2019-12-01T00:00:00-05:00,2020-01-01T00:00:00-05:00,6051,24,353.5,"{""<5"":0,""5-20"":8,""21-60"":2,""61-240"":1,"">240"":13}",3451.5,41.65295,-72.77399799999999,441310.0,CT,9.0,9003.0,Hartford County,90034155002.0
27029,sg:590f4d5596ed48899c6b82bb10fd90f6,Dog House Grill and Ice Cream Parlor,CT,2019-12-01T00:00:00-05:00,2020-01-01T00:00:00-05:00,6473,267,20.0,"{""<5"":11,""5-20"":123,""21-60"":41,""61-240"":63,"">240"":29}",19667.0,41.396004,-72.85677700000001,722513.0,CT,9.0,9009.0,New Haven County,90091672022.0
27146,sg:64c793ed550142b59d53f8f706f6d299,The Grapevine,CT,2019-12-01T00:00:00-05:00,2020-01-01T00:00:00-05:00,6880,243,11.0,"{""<5"":18,""5-20"":132,""21-60"":47,""61-240"":22,"">240"":24}",12669.5,41.150566999999995,-73.362613,445310.0,CT,9.0,9001.0,Fairfield County,90010502003.0
27178,sg:67e203b0f12f4e588988aa520fa64bf8,Lucky Penny Pottery,CT,2019-12-01T00:00:00-05:00,2020-01-01T00:00:00-05:00,6907,47,222.0,"{""<5"":1,""5-20"":21,""21-60"":1,""61-240"":6,"">240"":18}",5528.5,41.093548999999996,-73.518015,451130.0,CT,9.0,9001.0,Fairfield County,90010209002.0
27304,sg:74c948112c164147aae7a76b222167a1,Riviera River Cruises,CT,2019-12-01T00:00:00-05:00,2020-01-01T00:00:00-05:00,6825,152,41.0,"{""<5"":7,""5-20"":42,""21-60"":46,""61-240"":42,"">240"":15}",12326.5,41.177371,-73.242408,451110.0,CT,9.0,9001.0,Fairfield County,90010613002.0
27348,sg:7a43356fcab242ab80a93aef0ba234f9,Booth Hill School,CT,2019-12-01T00:00:00-05:00,2020-01-01T00:00:00-05:00,6484,153,51.0,"{""<5"":2,""5-20"":45,""21-60"":38,""61-240"":29,"">240"":39}",15831.0,41.284503,-73.182709,611110.0,CT,9.0,9001.0,Fairfield County,90011104002.0
27386,sg:7da87a4079a3455e997bac59ee044389,Chiropractic Center of Norwich,CT,2019-12-01T00:00:00-05:00,2020-01-01T00:00:00-05:00,6360,109,38.0,"{""<5"":1,""5-20"":39,""21-60"":23,""61-240"":22,"">240"":24}",10492.5,41.535777,-72.087009,621310.0,CT,9.0,9011.0,New London County,90116965003.0
27418,sg:80f0da94422b43678c92ad7666d89cc4,Kapamilya,CT,2019-12-01T00:00:00-05:00,2020-01-01T00:00:00-05:00,6770,62,9.0,"{""<5"":2,""5-20"":47,""21-60"":11,""61-240"":2,"">240"":0}",1339.0,41.515211,-73.04831,445110.0,CT,9.0,9009.0,New Haven County,90093451002.0
27432,sg:82104c50f3f540788d630ba6c0f7abdc,Anthropologie,CT,2019-12-01T00:00:00-05:00,2020-01-01T00:00:00-05:00,6032,12,12.0,"{""<5"":0,""5-20"":10,""21-60"":2,""61-240"":0,"">240"":0}",206.0,41.724026,-72.762761,448120.0,CT,9.0,9003.0,Hartford County,90034601002.0
27440,sg:830e04ac530d43d2a8bcd6272a129056,Tweety Nails,CT,2019-12-01T00:00:00-05:00,2020-01-01T00:00:00-05:00,6109,17,196.0,"{""<5"":0,""5-20"":2,""21-60"":3,""61-240"":5,"">240"":7}",2579.0,41.699325,-72.659288,812113.0,CT,9.0,9003.0,Hartford County,90034922002.0
27952,sg:ba805efaf7cf4d1cac64c8a29a8dc726,Marshalls,CT,2019-12-01T00:00:00-05:00,2020-01-01T00:00:00-05:00,6410,1119,22.0,"{""<5"":19,""5-20"":433,""21-60"":548,""61-240"":99,"">240"":20}",47353.5,41.504605,-72.902066,448140.0,CT,9.0,9009.0,New Haven County,90093431021.0
27959,sg:bb307929ee3f4f5280cfd95307f50f99,Lizzy's Lollicakes,CT,2019-12-01T00:00:00-05:00,2020-01-01T00:00:00-05:00,6611,33,33.0,"{""<5"":0,""5-20"":9,""21-60"":13,""61-240"":10,"">240"":1}",2384.0,41.245743,-73.23609,311811.0,CT,9.0,9001.0,Fairfield County,90010903004.0
27993,sg:be05eb80c173472b8da51ed7d4ad047c,Mobile Mini,CT,2019-12-01T00:00:00-05:00,2020-01-01T00:00:00-05:00,6776,55,40.0,"{""<5"":3,""5-20"":18,""21-60"":11,""61-240"":13,"">240"":10}",5034.5,41.531884000000005,-73.428164,531130.0,CT,9.0,9005.0,Litchfield County,90052534002.0
28123,sg:cba0ac78257844c2bbc74aba41886d03,First Church of Christ Scientist,CT,2019-12-01T00:00:00-05:00,2020-01-01T00:00:00-05:00,6880,17,11.0,"{""<5"":1,""5-20"":9,""21-60"":2,""61-240"":5,"">240"":0}",948.5,41.145919,-73.35292,813110.0,CT,9.0,9001.0,Fairfield County,90010502001.0
28173,sg:d04a75f58a8d4a20af48f2e5a38c241e,Burton B F Landscapes,CT,2019-12-01T00:00:00-05:00,2020-01-01T00:00:00-05:00,6783,1,8.0,"{""<5"":0,""5-20"":1,""21-60"":0,""61-240"":0,"">240"":0}",12.5,41.534358000000005,-73.33402,811411.0,CT,9.0,9005.0,Litchfield County,90052681002.0
28728,sg:07fe31dea65d4fc9bf646f1781f68e6e,United Congregational Church of Westerly,CT,2019-12-01T00:00:00-05:00,2020-01-01T00:00:00-05:00,6379,50,30.5,"{""<5"":2,""5-20"":14,""21-60"":16,""61-240"":13,"">240"":5}",3984.5,41.377225,-71.849079,813110.0,CT,9.0,9011.0,New London County,90117051023.0
28780,sg:0c497897857241bba48dc298f895762b,Gumdrop Swap Kids Boutique,CT,2019-12-01T00:00:00-05:00,2020-01-01T00:00:00-05:00,6604,229,29.0,"{""<5"":4,""5-20"":90,""21-60"":61,""61-240"":49,"">240"":25}",16980.0,41.178058,-73.189251,453998.0,CT,9.0,9001.0,Fairfield County,90010706001.0
28917,sg:1a1641e91ba84ab4a6954dd4441024d5,CT Dance Theatre & The Arts,CT,2019-12-01T00:00:00-05:00,2020-01-01T00:00:00-05:00,6712,181,42.0,"{""<5"":2,""5-20"":52,""21-60"":60,""61-240"":63,"">240"":4}",13526.5,41.505431,-72.982479,713940.0,CT,9.0,9009.0,New Haven County,90093472001.0
29171,sg:32e93e6b46d043f9977eaf2c3ebae01b,Corner Music,CT,2019-12-01T00:00:00-05:00,2020-01-01T00:00:00-05:00,6475,190,47.0,"{""<5"":4,""5-20"":41,""21-60"":63,""61-240"":56,"">240"":26}",17742.0,41.289206,-72.376315,451140.0,CT,9.0,9007.0,Middlesex County,90076702004.0
29240,sg:39e484a959144e9d90f5ae106e18c348,Mobil,CT,2019-12-01T00:00:00-05:00,2020-01-01T00:00:00-05:00,6824,448,8.0,"{""<5"":29,""5-20"":319,""21-60"":86,""61-240"":13,"">240"":1}",9739.5,41.146769,-73.256328,447110.0,CT,9.0,9001.0,Fairfield County,90010607002.0
29467,sg:4d6fc008376646e49bb161904992adc9,Marvin PC Repair,CT,2019-12-01T00:00:00-05:00,2020-01-01T00:00:00-05:00,6103,4,12.0,"{""<5"":0,""5-20"":4,""21-60"":0,""61-240"":0,"">240"":0}",50.0,41.766575,-72.674941,443142.0,CT,9.0,9003.0,Hartford County,90035021001.0
29521,sg:5373bc1f7af04d19a97933b5be89e9ee,New Park Fabrics,CT,2019-12-01T00:00:00-05:00,2020-01-01T00:00:00-05:00,6106,201,27.0,"{""<5"":6,""5-20"":81,""21-60"":41,""61-240"":28,"">240"":45}",17702.0,41.755871,-72.70667900000001,451130.0,CT,9.0,9003.0,Hartford County,90035043001.0
29567,sg:570f4870ca59493aa572ea964373f916,Tail Waggers,CT,2019-12-01T00:00:00-05:00,2020-01-01T00:00:00-05:00,6801,38,17.5,"{""<5"":0,""5-20"":22,""21-60"":6,""61-240"":6,"">240"":4}",2381.0,41.37258,-73.41630699999999,453910.0,CT,9.0,9001.0,Fairfield County,90012001001.0
29914,sg:79079072e56c4bf98238a437bda0a8e1,B F Clyde's Cider Mill,CT,2019-12-01T00:00:00-05:00,2020-01-01T00:00:00-05:00,6355,23,12.0,"{""<5"":2,""5-20"":13,""21-60"":7,""61-240"":1,"">240"":0}",601.5,41.399023,-71.953908,722511.0,CT,9.0,9011.0,New London County,90117054002.0
30111,sg:8a73ace837374e249486e400b4534d30,The River And Rail Cafe,CT,2019-12-01T00:00:00-05:00,2020-01-01T00:00:00-05:00,6279,73,36.0,"{""<5"":1,""5-20"":15,""21-60"":39,""61-240"":13,"">240"":5}",4926.0,41.88069,-72.304771,722410.0,CT,9.0,9013.0,Tolland County,90138401004.0
30285,sg:9aff0b1153024631a8764825183176d0,Church Of Jesus Christ Of Latter Day Saints,CT,2019-12-01T00:00:00-05:00,2020-01-01T00:00:00-05:00,6360,37,64.0,"{""<5"":0,""5-20"":3,""21-60"":15,""61-240"":16,"">240"":3}",3773.0,41.587486,-72.075251,813110.0,CT,9.0,9011.0,New London County,90116962001.0
30367,sg:a303ac57cc334f7e80245f4871065ebd,Mattress Firm,CT,2019-12-01T00:00:00-05:00,2020-01-01T00:00:00-05:00,6488,80,7.0,"{""<5"":7,""5-20"":56,""21-60"":15,""61-240"":2,"">240"":0}",1626.0,41.474348,-73.21898399999999,442110.0,CT,9.0,9009.0,New Haven County,90093481242.0
30419,sg:a7c674b56b7a4e7eb4324ca2b0a48cf1,Toymakers Cafe,CT,2019-12-01T00:00:00-05:00,2020-01-01T00:00:00-05:00,6031,56,52.0,"{""<5"":1,""5-20"":11,""21-60"":17,""61-240"":17,"">240"":10}",5787.0,41.956122,-73.363161,722511.0,CT,9.0,9005.0,Litchfield County,90054256001.0
30635,sg:bd79d6ee52e547fb9f635558db78ff11,Sun Turtle Office Furniture,CT,2019-12-01T00:00:00-05:00,2020-01-01T00:00:00-05:00,6320,34,21.0,"{""<5"":2,""5-20"":14,""21-60"":10,""61-240"":6,"">240"":2}",1968.0,41.367183000000004,-72.103252,442110.0,CT,9.0,9011.0,New London County,90118703004.0
30681,sg:c1ac545d145f454fab2a94bda98079e9,Quest Diagnostics,CT,2019-12-01T00:00:00-05:00,2020-01-01T00:00:00-05:00,6418,261,23.0,"{""<5"":7,""5-20"":108,""21-60"":83,""61-240"":48,"">240"":15}",15553.0,41.336362,-73.089724,621511.0,CT,9.0,9009.0,New Haven County,90091202001.0
30915,sg:d954bc3f4d584bf69c7886492ecbc3be,Cheshire Cycle,CT,2019-12-01T00:00:00-05:00,2020-01-01T00:00:00-05:00,6518,11,9.0,"{""<5"":1,""5-20"":8,""21-60"":1,""61-240"":0,"">240"":1}",383.0,41.422538,-72.905618,451110.0,CT,9.0,9009.0,New Haven County,90091660021.0
30983,sg:e01aab8575c145b4b0eaf09289ea3b5c,Meme's Dance Boutique,CT,2019-12-01T00:00:00-05:00,2020-01-01T00:00:00-05:00,6795,92,41.5,"{""<5"":2,""5-20"":18,""21-60"":37,""61-240"":23,"">240"":12}",8070.0,41.601909,-73.114129,448140.0,CT,9.0,9005.0,Litchfield County,90053601003.0
31247,sg:fce8f25bf0b44a8baa99089fb77699a8,Hebron Center Dentistry,CT,2019-12-01T00:00:00-05:00,2020-01-01T00:00:00-05:00,6248,37,74.0,"{""<5"":1,""5-20"":2,""21-60"":9,""61-240"":9,"">240"":16}",5586.5,41.662527000000004,-72.35826800000001,621210.0,CT,9.0,9013.0,Tolland County,90135261023.0
31306,sg:0388e91b853e46cfbee87c4a5e014255,Dakaroo's Country Kitchen,CT,2019-12-01T00:00:00-05:00,2020-01-01T00:00:00-05:00,6422,12,142.0,"{""<5"":0,""5-20"":2,""21-60"":0,""61-240"":10,"">240"":0}",1530.0,41.431672,-72.729291,722511.0,CT,9.0,9007.0,Middlesex County,90075851005.0
31387,sg:0ab9399546434c6fab502e3040893e0f,Silver Sands Pizza,CT,2019-12-01T00:00:00-05:00,2020-01-01T00:00:00-05:00,6460,1,837.0,"{""<5"":0,""5-20"":0,""21-60"":0,""61-240"":0,"">240"":1}",240.0,41.226778,-73.06985,722511.0,CT,9.0,9009.0,New Haven County,90091501003.0
31398,sg:0b87c991d12144598a62cabe5e7d9216,Kensington Opticians,CT,2019-12-01T00:00:00-05:00,2020-01-01T00:00:00-05:00,6037,95,22.0,"{""<5"":7,""5-20"":37,""21-60"":35,""61-240"":15,"">240"":1}",4395.0,41.626146999999996,-72.749289,446130.0,CT,9.0,9003.0,Hartford County,90034001001.0
31535,sg:18476e78f7394c9d8d7b080d27b44855,Psychotherapy Services,CT,2019-12-01T00:00:00-05:00,2020-01-01T00:00:00-05:00,6511,7,73.0,"{""<5"":0,""5-20"":3,""21-60"":0,""61-240"":3,"">240"":1}",729.0,41.314552,-72.911812,621330.0,CT,9.0,9009.0,New Haven County,90091420001.0
31599,sg:1fa8e15f441c489a869d44e659676ca7,Memories Restaurant,CT,2019-12-01T00:00:00-05:00,2020-01-01T00:00:00-05:00,6492,133,102.0,"{""<5"":1,""5-20"":8,""21-60"":35,""61-240"":89,"">240"":0}",14914.5,41.426258000000004,-72.815314,722511.0,CT,9.0,9009.0,New Haven County,90091760002.0
31694,sg:2890b7bb71044c39bb7dc9dcf6289647,Booth & Dimock Memorial Library,CT,2019-12-01T00:00:00-05:00,2020-01-01T00:00:00-05:00,6238,44,21.0,"{""<5"":1,""5-20"":20,""21-60"":13,""61-240"":6,"">240"":4}",2642.0,41.767773999999996,-72.297608,519120.0,CT,9.0,9013.0,Tolland County,90138502003.0
31698,sg:28d15fc3121747a398723320f175e965,Bronx House,CT,2019-12-01T00:00:00-05:00,2020-01-01T00:00:00-05:00,6907,101,22.0,"{""<5"":1,""5-20"":44,""21-60"":21,""61-240"":16,"">240"":19}",8371.0,41.095369,-73.516789,722511.0,CT,9.0,9001.0,Fairfield County,90010209001.0
31734,sg:2c4e7e2868f74e90944d00ff0533f0a4,Usdan Marketplace,CT,2019-12-01T00:00:00-05:00,2020-01-01T00:00:00-05:00,6457,12,7.5,"{""<5"":1,""5-20"":9,""21-60"":0,""61-240"":0,"">240"":2}",595.0,41.556867,-72.656786,722511.0,CT,9.0,9007.0,Middlesex County,90075415001.0
31876,sg:3a118ba992fb4ea08d1ff574c23f2b11,Otter's Package Store,CT,2019-12-01T00:00:00-05:00,2020-01-01T00:00:00-05:00,6781,14,22.0,"{""<5"":0,""5-20"":7,""21-60"":2,""61-240"":4,"">240"":1}",1010.5,41.670544,-72.992036,445310.0,CT,9.0,9005.0,Litchfield County,90054255003.0
31950,sg:410b8e65ebc742038b3006d8376837ad,Naubuc School,CT,2019-12-01T00:00:00-05:00,2020-01-01T00:00:00-05:00,6033,274,49.0,"{""<5"":5,""5-20"":66,""21-60"":78,""61-240"":78,"">240"":47}",27015.5,41.722333,-72.610917,611110.0,CT,9.0,9003.0,Hartford County,90035203022.0
31977,sg:43adb552a071418799c4c3f4216b5a71,La Dolce Italian Ice & Cafe,CT,2019-12-01T00:00:00-05:00,2020-01-01T00:00:00-05:00,6854,85,118.0,"{""<5"":1,""5-20"":16,""21-60"":18,""61-240"":27,"">240"":23}",10515.0,41.099458,-73.419095,722515.0,CT,9.0,9001.0,Fairfield County,90010441001.0
31981,sg:447b8e9df8b6446f89f5eab0b0bcfc79,Groton Mystic Early Childhood Dev Center,CT,2019-12-01T00:00:00-05:00,2020-01-01T00:00:00-05:00,6340,126,48.5,"{""<5"":3,""5-20"":26,""21-60"":44,""61-240"":31,"">240"":22}",12060.0,41.341386,-72.05930699999999,624410.0,CT,9.0,9011.0,New London County,90117027003.0
31987,sg:4510843f4e574fb68f5bd02033978015,Edible Arrangements,CT,2019-12-01T00:00:00-05:00,2020-01-01T00:00:00-05:00,6901,48,41.0,"{""<5"":0,""5-20"":6,""21-60"":24,""61-240"":12,"">240"":6}",4293.0,41.056490999999994,-73.540128,453220.0,CT,9.0,9001.0,Fairfield County,90010201001.0
32052,sg:4a1394d8f395467b95c9d20b5dba609d,Burger King,CT,2019-12-01T00:00:00-05:00,2020-01-01T00:00:00-05:00,6811,313,9.0,"{""<5"":18,""5-20"":233,""21-60"":53,""61-240"":7,"">240"":2}",6637.5,41.412734,-73.457959,722513.0,CT,9.0,9001.0,Fairfield County,90012110003.0
32159,sg:538e94360f7b4dd7a0ac8b9aa2501974,Subway,CT,2019-12-01T00:00:00-05:00,2020-01-01T00:00:00-05:00,6096,383,20.0,"{""<5"":11,""5-20"":188,""21-60"":76,""61-240"":41,"">240"":67}",27706.0,41.924088,-72.669574,722513.0,CT,9.0,9003.0,Hartford County,90034763001.0
32179,sg:5563a225357c41debdc509177ed07a08,Farmers Insurance Group,CT,2019-12-01T00:00:00-05:00,2020-01-01T00:00:00-05:00,6437,88,118.5,"{""<5"":0,""5-20"":18,""21-60"":14,""61-240"":27,"">240"":29}",11815.5,41.308331,-72.72451099999999,524210.0,CT,9.0,9009.0,New Haven County,90091903021.0
32259,sg:5d6b56d6bc754c2d93cc2b75a01d7a73,Gym Source,CT,2019-12-01T00:00:00-05:00,2020-01-01T00:00:00-05:00,6880,52,13.0,"{""<5"":1,""5-20"":31,""21-60"":4,""61-240"":3,"">240"":13}",4123.5,41.140390999999994,-73.350602,451110.0,CT,9.0,9001.0,Fairfield County,90010502001.0
32277,sg:5e9b4222d9c64326a59a1b2ca0a7e3db,Kennedy Road Soccer Complex,CT,2019-12-01T00:00:00-05:00,2020-01-01T00:00:00-05:00,6042,66,94.0,"{""<5"":1,""5-20"":13,""21-60"":9,""61-240"":25,"">240"":18}",8612.0,41.803084999999996,-72.49710400000001,713940.0,CT,9.0,9003.0,Hartford County,90035141011.0
32284,sg:5f02a6a092dd4497a163fac410de9396,Flor Hair &amp Style,CT,2019-12-01T00:00:00-05:00,2020-01-01T00:00:00-05:00,6906,1,150.0,"{""<5"":0,""5-20"":0,""21-60"":0,""61-240"":1,"">240"":0}",150.5,41.069221999999996,-73.520901,812112.0,CT,9.0,9001.0,Fairfield County,90010211002.0
32344,sg:6435c989bd664fb4ba4b98497e283afb,Scovill Landscaping & Garden Center,CT,2019-12-01T00:00:00-05:00,2020-01-01T00:00:00-05:00,6416,327,62.0,"{""<5"":2,""5-20"":91,""21-60"":69,""61-240"":118,"">240"":47}",32976.0,41.605264,-72.656649,811411.0,CT,9.0,9007.0,Middlesex County,90075703003.0
32360,sg:659b6481bc7c429585ec85ff33f96e3d,CVS,CT,2019-12-01T00:00:00-05:00,2020-01-01T00:00:00-05:00,6413,395,11.0,"{""<5"":14,""5-20"":269,""21-60"":82,""61-240"":18,"">240"":12}",12307.5,41.278889,-72.528594,446110.0,CT,9.0,9007.0,Middlesex County,90076101001.0
32403,sg:6a39dae82ecf4ffeac0d573e2f25840a,Stewardship Council United Church of Christ,CT,2019-12-01T00:00:00-05:00,2020-01-01T00:00:00-05:00,6511,42,38.0,"{""<5"":2,""5-20"":14,""21-60"":8,""61-240"":5,"">240"":13}",4376.5,41.311899,-72.919659,813110.0,CT,9.0,9009.0,New Haven County,90091420003.0
32433,sg:6d2c7274253c4eb6b08025530b763987,Best Western,CT,2019-12-01T00:00:00-05:00,2020-01-01T00:00:00-05:00,6801,53,459.0,"{""<5"":1,""5-20"":12,""21-60"":0,""61-240"":2,"">240"":38}",9573.5,41.416152000000004,-73.40064,721110.0,CT,9.0,9001.0,Fairfield County,90012003013.0
32475,sg:71900d63ac204d67abc0f9c64e038c40,Low Down Payment,CT,2019-12-01T00:00:00-05:00,2020-01-01T00:00:00-05:00,6096,37,25.0,"{""<5"":0,""5-20"":15,""21-60"":10,""61-240"":8,"">240"":4}",2756.5,41.940016,-72.669022,441120.0,CT,9.0,9003.0,Hartford County,90034761003.0
32477,sg:71acf739a229439694cdddd808a0735d,Holdridge Home & Garden Showplace,CT,2019-12-01T00:00:00-05:00,2020-01-01T00:00:00-05:00,6339,155,11.0,"{""<5"":9,""5-20"":81,""21-60"":24,""61-240"":24,"">240"":17}",9699.0,41.443416,-72.018632,453110.0,CT,9.0,9011.0,New London County,90117011003.0
32522,sg:7707d2fdd0bf439499aa9bbe49317cdc,Goodwill Industries,CT,2019-12-01T00:00:00-05:00,2020-01-01T00:00:00-05:00,6457,143,14.0,"{""<5"":6,""5-20"":79,""21-60"":40,""61-240"":15,"">240"":3}",5600.0,41.552566,-72.686329,453310.0,CT,9.0,9007.0,Middlesex County,90075414021.0
32683,sg:88008ac430214a26b08644421604f20e,KeyBank,CT,2019-12-01T00:00:00-05:00,2020-01-01T00:00:00-05:00,6033,44,22.0,"{""<5"":2,""5-20"":17,""21-60"":13,""61-240"":8,"">240"":4}",2908.0,41.714207,-72.609431,522110.0,CT,9.0,9003.0,Hartford County,90035203022.0
32695,sg:8961c3ce423c402ca86c30fceaf2c77c,Sport Field 67,CT,2019-12-01T00:00:00-05:00,2020-01-01T00:00:00-05:00,6112,531,55.0,"{""<5"":7,""5-20"":142,""21-60"":130,""61-240"":155,"">240"":97}",53665.0,41.77867,-72.686916,713940.0,CT,9.0,9003.0,Hartford County,90035014002.0
32802,sg:95f180783c4f4f999d94cdae916b2223,The Kitchen Company,CT,2019-12-01T00:00:00-05:00,2020-01-01T00:00:00-05:00,6473,19,376.0,"{""<5"":0,""5-20"":4,""21-60"":0,""61-240"":2,"">240"":13}",3471.0,41.368144,-72.87715899999999,442299.0,CT,9.0,9009.0,New Haven County,90091671002.0
32939,sg:a2bc521daeb0495bb008403a8e1ef91e,Antojitos Restaurant And BBQ,CT,2019-12-01T00:00:00-05:00,2020-01-01T00:00:00-05:00,6053,55,55.0,"{""<5"":1,""5-20"":11,""21-60"":17,""61-240"":18,"">240"":8}",5457.5,41.673632,-72.784188,722511.0,,,,,
32940,sg:a2bdcde435fe4b61a7c07274f758a392,Gap,CT,2019-12-01T00:00:00-05:00,2020-01-01T00:00:00-05:00,6825,62,19.5,"{""<5"":2,""5-20"":32,""21-60"":27,""61-240"":1,"">240"":0}",1649.0,41.181646,-73.254286,448140.0,CT,9.0,9001.0,Fairfield County,90010610003.0
32950,sg:a3c86ba248144f48a28a76a22e2897b9,AAA,CT,2019-12-01T00:00:00-05:00,2020-01-01T00:00:00-05:00,6705,34,10.5,"{""<5"":1,""5-20"":18,""21-60"":4,""61-240"":6,"">240"":5}",2492.5,41.564236,-73.009757,524210.0,CT,9.0,9009.0,New Haven County,90093511002.0
33016,sg:a939a9fb1a3f4b358913c516fbd0c9fc,Vision Center,CT,2019-12-01T00:00:00-05:00,2020-01-01T00:00:00-05:00,6484,172,20.0,"{""<5"":3,""5-20"":89,""21-60"":65,""61-240"":14,"">240"":1}",6099.5,41.263944,-73.1315,446130.0,CT,9.0,9001.0,Fairfield County,90011103022.0
33018,sg:a95a8cc6ab4d4fdb893ed3705d971ed7,Minos Auto Center,CT,2019-12-01T00:00:00-05:00,2020-01-01T00:00:00-05:00,6610,20,25.5,"{""<5"":0,""5-20"":7,""21-60"":9,""61-240"":3,"">240"":1}",1143.5,41.204453,-73.17941,811111.0,CT,9.0,9001.0,Fairfield County,90010734002.0
33148,sg:b6f22c11c12e49329530e1e3f0590cab,Ashleigh's Garden,CT,2019-12-01T00:00:00-05:00,2020-01-01T00:00:00-05:00,6409,45,8.0,"{""<5"":1,""5-20"":39,""21-60"":2,""61-240"":1,"">240"":2}",1201.5,41.35224,-72.409842,453110.0,CT,9.0,9007.0,Middlesex County,90076301003.0
33159,sg:b77ef1db0f4f4ca5b272e3c4ff9dc52b,Karen Hollis,CT,2019-12-01T00:00:00-05:00,2020-01-01T00:00:00-05:00,6067,136,60.0,"{""<5"":5,""5-20"":34,""21-60"":30,""61-240"":53,"">240"":14}",12989.0,41.661834999999996,-72.639901,444120.0,CT,9.0,9003.0,Hartford County,90034901003.0
33234,sg:bd6cf3b8e8814289963d61881c04a03b,Sloan Paul PHD,CT,2019-12-01T00:00:00-05:00,2020-01-01T00:00:00-05:00,6905,66,56.0,"{""<5"":0,""5-20"":19,""21-60"":17,""61-240"":17,"">240"":13}",6604.5,41.101597999999996,-73.54521,621111.0,CT,9.0,9001.0,Fairfield County,90010208001.0
33275,sg:c1be330d58da40f4ad4c940a6fe95883,A Kid's Place Inc,CT,2019-12-01T00:00:00-05:00,2020-01-01T00:00:00-05:00,6854,1,1024.0,"{""<5"":0,""5-20"":0,""21-60"":0,""61-240"":0,"">240"":1}",240.0,41.1035,-73.426873,624410.0,CT,9.0,9001.0,Fairfield County,90010440002.0
33358,sg:cab5b6aaf4054daabfcbaf2a7483309f,WCMG Maternal Fetal Medicine,CT,2019-12-01T00:00:00-05:00,2020-01-01T00:00:00-05:00,6810,445,84.0,"{""<5"":2,""5-20"":64,""21-60"":117,""61-240"":105,"">240"":157}",59026.0,41.405094,-73.44630500000001,621111.0,CT,9.0,9001.0,Fairfield County,90012103003.0
