,safegraph_place_id,location_name,region,date_range_start,date_range_end,postal_code,raw_visit_counts,median_dwell,bucketed_dwell_times,est_total_dwell,latitude,longitude,naics_code,state,stateFIPS,countyFIPS,countyName,CBGFIPS
93,sg:069cf4f863504435bf03f8376439778a,Hope Springs Church,CT,2019-07-01T00:00:00-04:00,2019-08-01T00:00:00-04:00,6076,30,66.5,"{""<5"":1,""5-20"":9,""21-60"":4,""61-240"":15,"">240"":1}",2774.5,41.964289,-72.295532,813110.0,CT,9.0,9013.0,Tolland County,90138901002.0
161,sg:0c9b043d56f24e9fa4940ea326366ec2,United States Postal Service (USPS),CT,2019-07-01T00:00:00-04:00,2019-08-01T00:00:00-04:00,6071,59,24.0,"{""<5"":1,""5-20"":28,""21-60"":7,""61-240"":23,"">240"":0}",4097.5,41.986752,-72.441861,491110.0,CT,9.0,9013.0,Tolland County,90135382023.0
210,sg:105dbd92b8b347a0a2417c13fb0f3d1a,Goncharova Olga DDS,CT,2019-07-01T00:00:00-04:00,2019-08-01T00:00:00-04:00,6605,91,38.0,"{""<5"":6,""5-20"":29,""21-60"":15,""61-240"":15,"">240"":26}",9482.5,41.176156,-73.212136,621210.0,CT,9.0,9001.0,Fairfield County,90010711002.0
230,sg:11e76d70cf7c40468f4d29245286b230,Burlington,CT,2019-07-01T00:00:00-04:00,2019-08-01T00:00:00-04:00,6901,519,39.0,"{""<5"":5,""5-20"":143,""21-60"":211,""61-240"":118,"">240"":42}",38184.5,41.055856,-73.539907,448140.0,CT,9.0,9001.0,Fairfield County,90010201001.0
400,sg:219000cbd8344bc1901dadd90b41ada5,Barbara's Restaurant,CT,2019-07-01T00:00:00-04:00,2019-08-01T00:00:00-04:00,6514,238,16.0,"{""<5"":9,""5-20"":129,""21-60"":68,""61-240"":21,"">240"":11}",10189.5,41.339518,-72.93544,722511.0,CT,9.0,9009.0,New Haven County,90091655002.0
414,sg:22a7e13e2c334d6bae7d6f789549eeff,Sunoco,CT,2019-07-01T00:00:00-04:00,2019-08-01T00:00:00-04:00,6470,66,9.0,"{""<5"":6,""5-20"":34,""21-60"":12,""61-240"":12,"">240"":2}",3212.0,41.396768,-73.29361800000001,447110.0,CT,9.0,9001.0,Fairfield County,90012305022.0
482,sg:2889139e63b84b5881e95cf3f55c2196,First and Last Bakery Cafe,CT,2019-07-01T00:00:00-04:00,2019-08-01T00:00:00-04:00,6114,141,40.0,"{""<5"":2,""5-20"":31,""21-60"":56,""61-240"":26,"">240"":26}",12813.5,41.734021000000006,-72.68679,722511.0,CT,9.0,9003.0,Hartford County,90035023004.0
486,sg:28dce5a883834985a1bef5744110e651,ENT & Allergy Associates,CT,2019-07-01T00:00:00-04:00,2019-08-01T00:00:00-04:00,6611,2,282.5,"{""<5"":0,""5-20"":0,""21-60"":0,""61-240"":1,"">240"":1}",390.5,41.234859,-73.14938000000001,621111.0,CT,9.0,9001.0,Fairfield County,90010905002.0
487,sg:28df1ab1497847388edb220230aa5c88,KFC,CT,2019-07-01T00:00:00-04:00,2019-08-01T00:00:00-04:00,6810,221,19.0,"{""<5"":11,""5-20"":107,""21-60"":52,""61-240"":30,"">240"":21}",13026.0,41.408905,-73.455929,722513.0,CT,9.0,9001.0,Fairfield County,90012102001.0
495,sg:2939b817f79e412ab5e6071fd0fd0354,Pep Boys,CT,2019-07-01T00:00:00-04:00,2019-08-01T00:00:00-04:00,6514,172,22.5,"{""<5"":4,""5-20"":79,""21-60"":32,""61-240"":16,"">240"":41}",14541.5,41.371849,-72.916924,441310.0,CT,9.0,9009.0,New Haven County,90091658012.0
530,sg:2be5bf34d9ef4034b6dbab85eb74da8f,CrossFit,CT,2019-07-01T00:00:00-04:00,2019-08-01T00:00:00-04:00,6320,205,24.0,"{""<5"":9,""5-20"":83,""21-60"":43,""61-240"":53,"">240"":17}",14858.0,41.362639,-72.114876,713940.0,CT,9.0,9011.0,New London County,90116903002.0
553,sg:2e3a7540e9e34d39b5953157079ba2e6,Northford Country Grill,CT,2019-07-01T00:00:00-04:00,2019-08-01T00:00:00-04:00,6472,190,31.0,"{""<5"":7,""5-20"":61,""21-60"":70,""61-240"":27,"">240"":25}",13678.5,41.393683,-72.79019699999999,722511.0,CT,9.0,9009.0,New Haven County,90091862001.0
649,sg:35eb41dfd10946c2a9c29431cd652157,True Value Hardware,CT,2019-07-01T00:00:00-04:00,2019-08-01T00:00:00-04:00,6776,88,20.0,"{""<5"":2,""5-20"":47,""21-60"":23,""61-240"":13,"">240"":3}",4200.5,41.578489000000005,-73.413826,444130.0,CT,9.0,9005.0,Litchfield County,90052536002.0
680,sg:3904ad74ba524d58a93c0372209591a0,Boys & Girls Clubs of America,CT,2019-07-01T00:00:00-04:00,2019-08-01T00:00:00-04:00,6010,133,10.0,"{""<5"":6,""5-20"":74,""21-60"":28,""61-240"":17,"">240"":8}",6552.5,41.688644000000004,-72.91780200000001,624110.0,CT,9.0,9003.0,Hartford County,90034052002.0
772,sg:415b6b75e7994477b00b2d04497b60f0,Forever Custom Tattoos,CT,2019-07-01T00:00:00-04:00,2019-08-01T00:00:00-04:00,6604,1,5.0,"{""<5"":0,""5-20"":1,""21-60"":0,""61-240"":0,"">240"":0}",12.5,41.180087,-73.18924399999999,812199.0,CT,9.0,9001.0,Fairfield County,90010706001.0
856,sg:481be2811eff413cb6c6166f5a05836a,Cositas Deliciosas,CT,2019-07-01T00:00:00-04:00,2019-08-01T00:00:00-04:00,6513,512,24.0,"{""<5"":7,""5-20"":228,""21-60"":126,""61-240"":108,"">240"":43}",34544.5,41.309020000000004,-72.897992,722511.0,CT,9.0,9009.0,New Haven County,90091424003.0
1076,sg:5d2dcdfd1de94d2886305486558ceaa8,Calvary Christian Childhood Center,CT,2019-07-01T00:00:00-04:00,2019-08-01T00:00:00-04:00,6082,18,41.5,"{""<5"":1,""5-20"":7,""21-60"":3,""61-240"":5,"">240"":2}",1444.0,41.961262,-72.59695500000001,624410.0,CT,9.0,9003.0,Hartford County,90034812003.0
1105,sg:60a675d8ec3c4de99cb60ca9511b1f29,7-Eleven,CT,2019-07-01T00:00:00-04:00,2019-08-01T00:00:00-04:00,6268,7,28.0,"{""<5"":0,""5-20"":3,""21-60"":4,""61-240"":0,"">240"":0}",199.5,41.805081,-72.24394699999999,445120.0,CT,9.0,9013.0,Tolland County,90138812001.0
1125,sg:621f337ba9f84c6fad5e44b0a7b5ce80,Big Y Foods,CT,2019-07-01T00:00:00-04:00,2019-08-01T00:00:00-04:00,6470,192,18.5,"{""<5"":3,""5-20"":104,""21-60"":41,""61-240"":28,"">240"":16}",11022.0,41.412082,-73.304886,445110.0,CT,9.0,9001.0,Fairfield County,90012302001.0
1369,sg:7679d43ab6ca494cb733934595aeb566,UI RCP New Haven Fuel Cell,CT,2019-07-01T00:00:00-04:00,2019-08-01T00:00:00-04:00,6512,10,49.0,"{""<5"":0,""5-20"":3,""21-60"":4,""61-240"":3,"">240"":0}",651.0,41.289138,-72.89894699999999,221111.0,CT,9.0,9009.0,New Haven County,90091427003.0
1426,sg:7c92c9e4beaf44dbbef140f4035573fb,Baldi Stone and Gravel,CT,2019-07-01T00:00:00-04:00,2019-08-01T00:00:00-04:00,6415,4,35.5,"{""<5"":0,""5-20"":2,""21-60"":0,""61-240"":2,"">240"":0}",326.0,41.587278999999995,-72.35382,444130.0,CT,9.0,9011.0,New London County,90117141011.0
1440,sg:7dfb9aa77be34f6c9926af9bbb2cbbad,Bird,CT,2019-07-01T00:00:00-04:00,2019-08-01T00:00:00-04:00,6851,14,42.0,"{""<5"":0,""5-20"":4,""21-60"":4,""61-240"":6,"">240"":0}",1115.0,41.138512,-73.319388,812112.0,CT,9.0,9001.0,Fairfield County,90010506003.0
1480,sg:81799eba1c5641b6a93d5d688db9079d,Mountain View School,CT,2019-07-01T00:00:00-04:00,2019-08-01T00:00:00-04:00,6010,4,87.0,"{""<5"":0,""5-20"":0,""21-60"":2,""61-240"":2,"">240"":0}",382.0,41.696540999999996,-72.89895200000001,611110.0,CT,9.0,9003.0,Hartford County,90034053001.0
1528,sg:864cc22cbca7419486f690b110a962d5,Ywca Nike Tykes Early Learning Center,CT,2019-07-01T00:00:00-04:00,2019-08-01T00:00:00-04:00,6040,61,282.0,"{""<5"":0,""5-20"":8,""21-60"":4,""61-240"":17,"">240"":32}",10500.5,41.746798,-72.53326700000001,624410.0,CT,9.0,9003.0,Hartford County,90035151022.0
1592,sg:8c702a8ac92944bcb89aedf2688c01c5,Advanced Foot & Ankle Center,CT,2019-07-01T00:00:00-04:00,2019-08-01T00:00:00-04:00,6762,19,102.0,"{""<5"":0,""5-20"":4,""21-60"":4,""61-240"":5,"">240"":6}",2404.5,41.565630999999996,-73.092332,621111.0,CT,9.0,9009.0,New Haven County,90093520003.0
1734,sg:9a346929a2254efbb4c6ef4fede0a924,Hop Brook Lake,CT,2019-07-01T00:00:00-04:00,2019-08-01T00:00:00-04:00,6770,14,128.0,"{""<5"":1,""5-20"":4,""21-60"":1,""61-240"":3,"">240"":5}",1744.5,41.514222,-73.068152,712190.0,CT,9.0,9009.0,New Haven County,90093454001.0
1931,sg:ae108ffa5d5c41ab942f798b1d95291d,Fairways Golf Range and Pro Shop,CT,2019-07-01T00:00:00-04:00,2019-08-01T00:00:00-04:00,6405,128,31.5,"{""<5"":2,""5-20"":41,""21-60"":62,""61-240"":18,"">240"":5}",6937.5,41.304103999999995,-72.765648,713910.0,CT,9.0,9009.0,New Haven County,90091847001.0
1935,sg:ae82d52ce2b547a1b9bfafbf51f16cde,United Churches of Durham,CT,2019-07-01T00:00:00-04:00,2019-08-01T00:00:00-04:00,6422,26,40.0,"{""<5"":0,""5-20"":9,""21-60"":8,""61-240"":9,"">240"":0}",1791.0,41.478153000000006,-72.681415,813110.0,CT,9.0,9007.0,Middlesex County,90075851003.0
1950,sg:afd33032f7f849cb8f1c85501ebc9caa,Wallingford Public Library,CT,2019-07-01T00:00:00-04:00,2019-08-01T00:00:00-04:00,6492,594,41.5,"{""<5"":9,""5-20"":186,""21-60"":175,""61-240"":202,"">240"":22}",45116.0,41.457195,-72.816855,519120.0,CT,9.0,9009.0,New Haven County,90091751001.0
2076,sg:bd7fc1b818c64557b586eef567132b44,The Hartford Deli,CT,2019-07-01T00:00:00-04:00,2019-08-01T00:00:00-04:00,6103,87,194.0,"{""<5"":3,""5-20"":29,""21-60"":5,""61-240"":19,"">240"":31}",10872.0,41.767919,-72.67347600000001,722511.0,CT,9.0,9003.0,Hartford County,90035021001.0
2580,sg:f1aa7169d1b34eaeaeca2947a3529171,Vieira Manuel N Agency,CT,2019-07-01T00:00:00-04:00,2019-08-01T00:00:00-04:00,6770,1,70.0,"{""<5"":0,""5-20"":0,""21-60"":0,""61-240"":1,"">240"":0}",150.5,41.486243,-73.05751,524210.0,CT,9.0,9009.0,New Haven County,90093453002.0
2614,sg:f5e1b4c1b93146dbbeb72fa9bfdf380b,Elite Repeats LLC,CT,2019-07-01T00:00:00-04:00,2019-08-01T00:00:00-04:00,6416,11,10.0,"{""<5"":0,""5-20"":11,""21-60"":0,""61-240"":0,"">240"":0}",137.5,41.627004,-72.677155,448120.0,CT,9.0,9007.0,Middlesex County,90075701001.0
2703,sg:ff0dcf1b5e1844bdb49152dbf8657022,Michael Levin DDS,CT,2019-07-01T00:00:00-04:00,2019-08-01T00:00:00-04:00,6878,56,52.0,"{""<5"":2,""5-20"":16,""21-60"":12,""61-240"":11,"">240"":15}",5946.5,41.041553,-73.581331,621210.0,CT,9.0,9001.0,Fairfield County,90010109002.0
2871,sg:0d330d8fac524b9d96237857a10ece79,New England Auto World,CT,2019-07-01T00:00:00-04:00,2019-08-01T00:00:00-04:00,6418,497,41.0,"{""<5"":9,""5-20"":176,""21-60"":100,""61-240"":130,"">240"":82}",45517.5,41.33293,-73.09049300000001,,CT,9.0,9009.0,New Haven County,90091202001.0
2872,sg:0d42abd512fa4dccad7b360f08554e75,Hartford Infant Toddler Early Lrng Ctr,CT,2019-07-01T00:00:00-04:00,2019-08-01T00:00:00-04:00,6112,80,24.0,"{""<5"":0,""5-20"":34,""21-60"":19,""61-240"":24,"">240"":3}",5526.5,41.797121000000004,-72.689673,624410.0,CT,9.0,9003.0,Hartford County,90035015001.0
3181,sg:2a11ee31f51141eea456d13bc8fbdc6f,Kaleidoscope Kids,CT,2019-07-01T00:00:00-04:00,2019-08-01T00:00:00-04:00,6877,21,10.0,"{""<5"":2,""5-20"":13,""21-60"":3,""61-240"":3,"">240"":0}",740.5,41.361474,-73.52432900000001,624410.0,CT,9.0,9001.0,Fairfield County,90012456001.0
3220,sg:2da1d7c6d649403b8d38cf057758403f,American Institute,CT,2019-07-01T00:00:00-04:00,2019-08-01T00:00:00-04:00,6110,131,164.0,"{""<5"":0,""5-20"":8,""21-60"":13,""61-240"":80,"">240"":30}",19866.5,41.726875,-72.725973,611310.0,CT,9.0,9003.0,Hartford County,90034961002.0
3294,sg:346043020948434ea8c560172ee77c24,Quest Diagnostics,CT,2019-07-01T00:00:00-04:00,2019-08-01T00:00:00-04:00,6105,170,54.5,"{""<5"":2,""5-20"":29,""21-60"":58,""61-240"":45,"">240"":36}",18129.0,41.769022,-72.702476,621511.0,CT,9.0,9003.0,Hartford County,90035031004.0
3323,sg:37a4a9a59146439e98867026e30324f7,Prospect Pizza Restaurant,CT,2019-07-01T00:00:00-04:00,2019-08-01T00:00:00-04:00,6119,102,215.5,"{""<5"":3,""5-20"":23,""21-60"":15,""61-240"":12,"">240"":49}",14468.5,41.752528999999996,-72.718023,722511.0,CT,9.0,9003.0,Hartford County,90034967001.0
3327,sg:380d39a79de54a5f9de9c3c90f6e7904,Edward Jones,CT,2019-07-01T00:00:00-04:00,2019-08-01T00:00:00-04:00,6082,14,53.0,"{""<5"":0,""5-20"":2,""21-60"":7,""61-240"":3,"">240"":2}",1240.0,41.988727000000004,-72.560331,523999.0,CT,9.0,9003.0,Hartford County,90034808002.0
3388,sg:3d99f44d099a420c9e8b9dc3fed5289c,WinWholesale,CT,2019-07-01T00:00:00-04:00,2019-08-01T00:00:00-04:00,6340,1,274.0,"{""<5"":0,""5-20"":0,""21-60"":0,""61-240"":0,"">240"":1}",240.0,41.377034,-72.02473499999999,423990.0,CT,9.0,9011.0,New London County,90117021002.0
3413,sg:40322636e188445394fb6d80f35d3fad,Planned Parenthood,CT,2019-07-01T00:00:00-04:00,2019-08-01T00:00:00-04:00,6511,196,205.0,"{""<5"":2,""5-20"":22,""21-60"":28,""61-240"":54,"">240"":90}",31141.0,41.319855,-72.91830300000001,621410.0,CT,9.0,9009.0,New Haven County,90091419001.0
3548,sg:4cae41a3fa6c4d8eb5fc26932a8770a1,Sams Food Store,CT,2019-07-01T00:00:00-04:00,2019-08-01T00:00:00-04:00,6118,100,10.0,"{""<5"":7,""5-20"":62,""21-60"":17,""61-240"":9,"">240"":5}",4035.5,41.736743,-72.628703,445110.0,CT,9.0,9003.0,Hartford County,90035108002.0
3736,sg:5d75ecb30d394107b807786e0d302715,Southern Connecticut Freightliner,CT,2019-07-01T00:00:00-04:00,2019-08-01T00:00:00-04:00,6405,97,22.0,"{""<5"":0,""5-20"":44,""21-60"":19,""61-240"":18,"">240"":16}",7868.5,41.297615,-72.75630799999999,441310.0,CT,9.0,9009.0,New Haven County,90091847001.0
3897,sg:6be9c3913cce4ee79a051c1b12fb7034,ALDI,CT,2019-07-01T00:00:00-04:00,2019-08-01T00:00:00-04:00,6351,489,15.0,"{""<5"":7,""5-20"":303,""21-60"":173,""61-240"":5,"">240"":1}",11804.0,41.58551,-71.99443000000001,445110.0,CT,9.0,9011.0,New London County,90117101002.0
3951,sg:711f26a632ed4c779954f979ac1c3bed,Family Dental Practice Of Southington,CT,2019-07-01T00:00:00-04:00,2019-08-01T00:00:00-04:00,6489,11,25.0,"{""<5"":1,""5-20"":4,""21-60"":5,""61-240"":0,"">240"":1}",495.0,41.607449,-72.878423,621210.0,CT,9.0,9003.0,Hartford County,90034306022.0
3981,sg:75247527f92f4762a40abb2b3a0fefbf,Charter Oak Landing,CT,2019-07-01T00:00:00-04:00,2019-08-01T00:00:00-04:00,6114,25,22.0,"{""<5"":0,""5-20"":11,""21-60"":7,""61-240"":4,"">240"":3}",1743.0,41.746177,-72.655406,712190.0,CT,9.0,9003.0,Hartford County,90035025001.0
4043,sg:7ac0c26f73474d1bae854a354c66c54d,Stop &amp Shop,CT,2019-07-01T00:00:00-04:00,2019-08-01T00:00:00-04:00,6033,427,21.0,"{""<5"":7,""5-20"":205,""21-60"":131,""61-240"":32,"">240"":52}",25181.5,41.722273,-72.624894,445110.0,,,,,
4123,sg:82a50b1fbbe7405bac3a7fd78f0584a0,Domino's Pizza,CT,2019-07-01T00:00:00-04:00,2019-08-01T00:00:00-04:00,6457,73,33.0,"{""<5"":2,""5-20"":25,""21-60"":18,""61-240"":17,"">240"":11}",6245.0,41.546155,-72.650911,722513.0,CT,9.0,9007.0,Middlesex County,90075420003.0
4141,sg:84ade943f6b9449b8de6ead06131e6de,Fit4Mom,CT,2019-07-01T00:00:00-04:00,2019-08-01T00:00:00-04:00,6371,143,58.0,"{""<5"":3,""5-20"":33,""21-60"":38,""61-240"":36,"">240"":33}",15297.0,41.31886,-72.329163,713940.0,,,,,
4289,sg:9307294624c74f269da61373232f9109,TJ's Landscaping,CT,2019-07-01T00:00:00-04:00,2019-08-01T00:00:00-04:00,6109,47,41.0,"{""<5"":1,""5-20"":13,""21-60"":12,""61-240"":12,"">240"":9}",4617.0,41.703926,-72.672434,444130.0,CT,9.0,9003.0,Hartford County,90034922004.0
4298,sg:9483087bab3849aba6b2b2c5086fa3e4,Yale New Haven Hospital,CT,2019-07-01T00:00:00-04:00,2019-08-01T00:00:00-04:00,6405,102,164.5,"{""<5"":0,""5-20"":13,""21-60"":24,""61-240"":21,"">240"":44}",14855.0,41.284667999999996,-72.82118100000001,622110.0,CT,9.0,9009.0,New Haven County,90091842001.0
4303,sg:94c72db8637f44148ce59ae4b3292017,Storrs Wine and Spirits,CT,2019-07-01T00:00:00-04:00,2019-08-01T00:00:00-04:00,6268,16,22.0,"{""<5"":1,""5-20"":6,""21-60"":4,""61-240"":3,"">240"":2}",1171.0,41.804674,-72.242139,445310.0,CT,9.0,9013.0,Tolland County,90138811002.0
4466,sg:a371a271d5d648ab8e1fed11af65f192,Puerto Vallarta,CT,2019-07-01T00:00:00-04:00,2019-08-01T00:00:00-04:00,6477,291,28.0,"{""<5"":14,""5-20"":108,""21-60"":87,""61-240"":77,"">240"":5}",17697.0,41.261503999999995,-73.008673,722511.0,CT,9.0,9009.0,New Haven County,90091571001.0
4534,sg:aa73699a54ce4eb5800a78b2cddad5dc,Subway,CT,2019-07-01T00:00:00-04:00,2019-08-01T00:00:00-04:00,6010,81,11.0,"{""<5"":5,""5-20"":50,""21-60"":18,""61-240"":7,"">240"":1}",2660.0,41.671871,-72.946077,722513.0,CT,9.0,9003.0,Hartford County,90034061002.0
4603,sg:b14f1b6714704dc39055ef34ae1a957e,Skip's 19th Hole,CT,2019-07-01T00:00:00-04:00,2019-08-01T00:00:00-04:00,6604,44,102.5,"{""<5"":0,""5-20"":1,""21-60"":12,""61-240"":25,"">240"":6}",5701.0,41.187179,-73.21969399999999,722511.0,CT,9.0,9001.0,Fairfield County,90010721001.0
4623,sg:b3da40c44b0149b8820f5b8f240a4ed7,Poochies Parlor,CT,2019-07-01T00:00:00-04:00,2019-08-01T00:00:00-04:00,6405,3,101.0,"{""<5"":0,""5-20"":1,""21-60"":0,""61-240"":1,"">240"":1}",403.0,41.294446,-72.782236,453910.0,CT,9.0,9009.0,New Haven County,90091847001.0
4666,sg:b939b03ceed94a3f99b1f6a0e49874ff,Subway,CT,2019-07-01T00:00:00-04:00,2019-08-01T00:00:00-04:00,6484,175,10.0,"{""<5"":4,""5-20"":115,""21-60"":35,""61-240"":14,"">240"":7}",6652.0,41.288188,-73.1127,722513.0,CT,9.0,9001.0,Fairfield County,90011102023.0
4744,sg:c1a0ce3ec2994f67a0ab52e23a087b7c,Kamp William C Housatonic Valley Insurance Agency,CT,2019-07-01T00:00:00-04:00,2019-08-01T00:00:00-04:00,6776,2,204.5,"{""<5"":0,""5-20"":1,""21-60"":0,""61-240"":0,"">240"":1}",252.5,41.577557,-73.410152,524210.0,CT,9.0,9005.0,Litchfield County,90052536002.0
4876,sg:cf05e83e3f75457f8f0269bfa8526d7b,Bear Hugs Child Care Center,CT,2019-07-01T00:00:00-04:00,2019-08-01T00:00:00-04:00,6825,9,20.0,"{""<5"":0,""5-20"":5,""21-60"":2,""61-240"":2,"">240"":0}",444.5,41.17725,-73.23229599999999,624410.0,CT,9.0,9001.0,Fairfield County,90010613001.0
5044,sg:df140e54b8fc4c61a2f1ee2e5aefc97f,Quorn Foods,CT,2019-07-01T00:00:00-04:00,2019-08-01T00:00:00-04:00,6880,2,53.5,"{""<5"":0,""5-20"":0,""21-60"":2,""61-240"":0,"">240"":0}",81.0,41.144088,-73.361008,445110.0,CT,9.0,9001.0,Fairfield County,90010502002.0
5251,sg:f1b9087cc6aa47ab8ebcf6cf95eb5a9e,Applebee's,CT,2019-07-01T00:00:00-04:00,2019-08-01T00:00:00-04:00,6810,312,44.0,"{""<5"":1,""5-20"":69,""21-60"":134,""61-240"":93,"">240"":15}",23888.5,41.41982,-73.41888,722511.0,CT,9.0,9001.0,Fairfield County,90012114003.0
5283,sg:f56059aba4ff48a2bf0f5c500f94c962,Bank of America,CT,2019-07-01T00:00:00-04:00,2019-08-01T00:00:00-04:00,6460,3,496.0,"{""<5"":1,""5-20"":0,""21-60"":0,""61-240"":0,"">240"":2}",482.5,41.238795,-73.035076,522110.0,CT,9.0,9009.0,New Haven County,90091508001.0
5454,sg:069e5b97162040b69d64ea074a399760,Noah's,CT,2019-07-01T00:00:00-04:00,2019-08-01T00:00:00-04:00,6378,328,60.5,"{""<5"":4,""5-20"":61,""21-60"":99,""61-240"":91,"">240"":73}",35997.5,41.333963,-71.90661300000001,722511.0,CT,9.0,9011.0,New London County,90117052002.0
5629,sg:14778b5fc362409aade98fcad98aa7d0,Koutsoukos James D DMD,CT,2019-07-01T00:00:00-04:00,2019-08-01T00:00:00-04:00,6902,7,441.0,"{""<5"":0,""5-20"":2,""21-60"":0,""61-240"":0,"">240"":5}",1225.0,41.054967,-73.527823,621210.0,CT,9.0,9001.0,Fairfield County,90010217001.0
5756,sg:20607c1f39fe4c3f8b35d58521622c3a,Oakgrove Montessori Elementary & Preschool,CT,2019-07-01T00:00:00-04:00,2019-08-01T00:00:00-04:00,6250,1,509.0,"{""<5"":0,""5-20"":0,""21-60"":0,""61-240"":0,"">240"":1}",240.0,41.730996999999995,-72.233953,624410.0,CT,9.0,9013.0,Tolland County,90138815003.0
5759,sg:208841c43ba8413ba8ab77adb593d57c,Missionary Society of Connecticut,CT,2019-07-01T00:00:00-04:00,2019-08-01T00:00:00-04:00,6795,11,117.0,"{""<5"":0,""5-20"":2,""21-60"":2,""61-240"":4,"">240"":3}",1428.0,41.598504999999996,-73.137828,813110.0,CT,9.0,9005.0,Litchfield County,90053602002.0
5890,sg:2d487b43ffcc4f57865b9d3503f4294c,Matsu Sushi,CT,2019-07-01T00:00:00-04:00,2019-08-01T00:00:00-04:00,6880,178,31.0,"{""<5"":6,""5-20"":56,""21-60"":64,""61-240"":31,"">240"":21}",13012.5,41.140881,-73.361053,722511.0,CT,9.0,9001.0,Fairfield County,90010505004.0
5929,sg:2fec61bbf4074f5b85f1de8bdaa4351b,Northwest Catholic High School,CT,2019-07-01T00:00:00-04:00,2019-08-01T00:00:00-04:00,6117,329,80.0,"{""<5"":3,""5-20"":76,""21-60"":60,""61-240"":171,"">240"":19}",33683.0,41.799426000000004,-72.752478,611110.0,CT,9.0,9003.0,Hartford County,90034975002.0
6024,sg:399f3276bbbb434abf794b0dd84b7924,Quakerlane Cooperative Nursery School,CT,2019-07-01T00:00:00-04:00,2019-08-01T00:00:00-04:00,6119,17,20.0,"{""<5"":0,""5-20"":9,""21-60"":4,""61-240"":3,"">240"":1}",966.0,41.75985,-72.728651,624410.0,CT,9.0,9003.0,Hartford County,90034969004.0
6193,sg:4915a0f48dc141168bc94d9007711154,Silver Star Auto Collision,CT,2019-07-01T00:00:00-04:00,2019-08-01T00:00:00-04:00,6810,1,4.0,"{""<5"":1,""5-20"":0,""21-60"":0,""61-240"":0,"">240"":0}",2.5,41.413221,-73.426089,811121.0,CT,9.0,9001.0,Fairfield County,90012103002.0
6326,sg:565efdab8a8e42ec9dd5e5a11a503399,Child and Adult Orthodontics,CT,2019-07-01T00:00:00-04:00,2019-08-01T00:00:00-04:00,6443,86,42.0,"{""<5"":0,""5-20"":25,""21-60"":26,""61-240"":21,"">240"":14}",7886.0,41.281119,-72.599439,621210.0,CT,9.0,9009.0,New Haven County,90091941003.0
6343,sg:57a7c9c85a8449a7ab4914bd5aa64906,Latella Joseph & Sons,CT,2019-07-01T00:00:00-04:00,2019-08-01T00:00:00-04:00,6516,30,29.0,"{""<5"":2,""5-20"":12,""21-60"":6,""61-240"":5,"">240"":5}",2350.5,41.265461,-72.991958,445110.0,CT,9.0,9009.0,New Haven County,90091542006.0
6408,sg:5fd4ce384f5e4bf6b0c58931a6af8214,Stop & Shop,CT,2019-07-01T00:00:00-04:00,2019-08-01T00:00:00-04:00,6880,848,20.0,"{""<5"":18,""5-20"":435,""21-60"":352,""61-240"":35,"">240"":8}",26926.0,41.137484,-73.302058,445110.0,CT,9.0,9001.0,Fairfield County,90010506003.0
6549,sg:6e6cf8bf0e0542b8814745a0feda01c1,Comprehensive Hearing,CT,2019-07-01T00:00:00-04:00,2019-08-01T00:00:00-04:00,6410,22,55.5,"{""<5"":0,""5-20"":3,""21-60"":8,""61-240"":10,"">240"":1}",2106.5,41.509131,-72.900304,621511.0,CT,9.0,9009.0,New Haven County,90093431021.0
6614,sg:74547d1131894d0689a440bd7d31f8e2,Hodosi's Auto Body,CT,2019-07-01T00:00:00-04:00,2019-08-01T00:00:00-04:00,6418,105,137.0,"{""<5"":2,""5-20"":17,""21-60"":18,""61-240"":41,"">240"":27}",13597.0,41.322722999999996,-73.09433100000001,811121.0,CT,9.0,9009.0,New Haven County,90091202002.0
6632,sg:75f64a88e7b746c794c63de65bf88aab,Tinker After School,CT,2019-07-01T00:00:00-04:00,2019-08-01T00:00:00-04:00,6708,36,12.0,"{""<5"":1,""5-20"":22,""21-60"":2,""61-240"":2,"">240"":9}",2819.5,41.536134000000004,-73.051353,624410.0,CT,9.0,9009.0,New Haven County,90093516013.0
6705,sg:7e806f3f7b5242c087adb9a488a18927,Staples,CT,2019-07-01T00:00:00-04:00,2019-08-01T00:00:00-04:00,6360,215,29.0,"{""<5"":2,""5-20"":79,""21-60"":60,""61-240"":27,"">240"":47}",18766.0,41.514741,-72.108214,453210.0,CT,9.0,9011.0,New London County,90116966001.0
6870,sg:8dfaf2181eef4105b75bbc4751c17396,Dew Yoga,CT,2019-07-01T00:00:00-04:00,2019-08-01T00:00:00-04:00,6905,311,61.0,"{""<5"":7,""5-20"":54,""21-60"":93,""61-240"":104,"">240"":53}",32831.0,41.076268,-73.549227,713940.0,CT,9.0,9001.0,Fairfield County,90010212002.0
6877,sg:8ea5482b4acb4b8196787d0477a56406,Fitzgerald's Fine Catering Since 1948,CT,2019-07-01T00:00:00-04:00,2019-08-01T00:00:00-04:00,6605,53,91.0,"{""<5"":0,""5-20"":15,""21-60"":6,""61-240"":15,"">240"":17}",6768.0,41.158162,-73.229586,722511.0,CT,9.0,9001.0,Fairfield County,90010701004.0
7003,sg:9c621ce6fdfe4fab8d438577f823fa4e,Fernandez Ana M DDS,CT,2019-07-01T00:00:00-04:00,2019-08-01T00:00:00-04:00,6033,3,51.0,"{""<5"":0,""5-20"":0,""21-60"":2,""61-240"":1,"">240"":0}",231.5,41.720075,-72.61835,621210.0,CT,9.0,9003.0,Hartford County,90035203022.0
7165,sg:ad3d6bfe09404ecc86ef7bf00d9f03ff,Academy of Art & Music,CT,2019-07-01T00:00:00-04:00,2019-08-01T00:00:00-04:00,6405,37,53.0,"{""<5"":2,""5-20"":9,""21-60"":9,""61-240"":8,"">240"":9}",3846.0,41.298929,-72.771338,451140.0,CT,9.0,9009.0,New Haven County,90091847001.0
7177,sg:ae4e542e16fa4275905433956461dbd7,Monroe Elementary School,CT,2019-07-01T00:00:00-04:00,2019-08-01T00:00:00-04:00,6468,172,149.0,"{""<5"":3,""5-20"":40,""21-60"":11,""61-240"":85,"">240"":33}",21665.5,41.309173,-73.222503,611110.0,CT,9.0,9001.0,Fairfield County,90011002002.0
7262,sg:b6ab4206b1b440968ceeee910f512383,Bill's Bread and Breakfast,CT,2019-07-01T00:00:00-04:00,2019-08-01T00:00:00-04:00,6260,327,35.0,"{""<5"":9,""5-20"":83,""21-60"":164,""61-240"":47,"">240"":24}",20535.5,41.923716999999996,-71.907943,722511.0,CT,9.0,9015.0,Windham County,90159031003.0
7291,sg:b8c23909311c4189b620a54279bb270a,Action Advocacy,CT,2019-07-01T00:00:00-04:00,2019-08-01T00:00:00-04:00,6340,1,666.0,"{""<5"":0,""5-20"":0,""21-60"":0,""61-240"":0,"">240"":1}",240.0,41.359556,-72.07214499999999,523930.0,CT,9.0,9011.0,New London County,90117024001.0
7303,sg:ba50cf4ab7d94acfb1fcc0da2a50fb93,Bright Ideas Tutoring,CT,2019-07-01T00:00:00-04:00,2019-08-01T00:00:00-04:00,6840,10,96.0,"{""<5"":0,""5-20"":0,""21-60"":3,""61-240"":6,"">240"":1}",1264.5,41.148946,-73.49130600000001,611691.0,CT,9.0,9001.0,Fairfield County,90010351001.0
7330,sg:bdd21566dc1b4d759761663b0e3b10f2,Belden Robert H DVM,CT,2019-07-01T00:00:00-04:00,2019-08-01T00:00:00-04:00,6776,25,262.0,"{""<5"":0,""5-20"":3,""21-60"":1,""61-240"":4,"">240"":17}",4760.0,41.540729999999996,-73.422539,541940.0,CT,9.0,9005.0,Litchfield County,90052533002.0
7576,sg:d4d742d59d31437a92a2081877113aef,PPG Pittsburgh Paints,CT,2019-07-01T00:00:00-04:00,2019-08-01T00:00:00-04:00,6114,8,29.0,"{""<5"":0,""5-20"":3,""21-60"":2,""61-240"":1,"">240"":2}",749.0,41.735492,-72.656813,444120.0,CT,9.0,9003.0,Hartford County,90035025001.0
7648,sg:dce895a2f9714a5fa5a6fbf792f28977,Sherwin-Williams,CT,2019-07-01T00:00:00-04:00,2019-08-01T00:00:00-04:00,6110,126,21.0,"{""<5"":4,""5-20"":56,""21-60"":36,""61-240"":23,"">240"":7}",7309.5,41.731001,-72.728521,444120.0,CT,9.0,9003.0,Hartford County,90034961002.0
7665,sg:ddfb6935544a40f380621cf55f449bf2,The USA Nursery,CT,2019-07-01T00:00:00-04:00,2019-08-01T00:00:00-04:00,6473,87,69.0,"{""<5"":0,""5-20"":21,""21-60"":19,""61-240"":35,"">240"":12}",9179.5,41.369131,-72.883688,811411.0,CT,9.0,9009.0,New Haven County,90091671002.0
7947,sg:fca4840c9d11456eba33871aaa26b38c,Browne Dental Laboratory,CT,2019-07-01T00:00:00-04:00,2019-08-01T00:00:00-04:00,6360,64,134.0,"{""<5"":1,""5-20"":7,""21-60"":8,""61-240"":24,"">240"":24}",9786.0,41.539871999999995,-72.08715500000001,621210.0,CT,9.0,9011.0,New London County,90116965003.0
8154,sg:0dc978fbfe144b6dbf9b799a02a2c7ce,Essex Consignment,CT,2019-07-01T00:00:00-04:00,2019-08-01T00:00:00-04:00,6426,11,8.0,"{""<5"":0,""5-20"":10,""21-60"":1,""61-240"":0,"">240"":0}",165.5,41.333708,-72.422122,453310.0,CT,9.0,9007.0,Middlesex County,90076301006.0
8165,sg:0ea5201886c74fe9ac94d9cbdfe5771d,BP,CT,2019-07-01T00:00:00-04:00,2019-08-01T00:00:00-04:00,6405,1491,16.0,"{""<5"":47,""5-20"":819,""21-60"":369,""61-240"":165,"">240"":91}",71972.0,41.296856,-72.76092299999999,447110.0,CT,9.0,9009.0,New Haven County,90091847001.0
8176,sg:0f5672657c764176b7fcfe5be0328b88,Elevate Fitness,CT,2019-07-01T00:00:00-04:00,2019-08-01T00:00:00-04:00,6870,299,45.0,"{""<5"":2,""5-20"":69,""21-60"":111,""61-240"":82,"">240"":35}",26104.0,41.048821999999994,-73.56604,713940.0,CT,9.0,9001.0,Fairfield County,90010109001.0
8181,sg:1002082b9cd942f783ec8b0b9b37f9ca,Family Auto Body,CT,2019-07-01T00:00:00-04:00,2019-08-01T00:00:00-04:00,6606,1,83.0,"{""<5"":0,""5-20"":0,""21-60"":0,""61-240"":1,"">240"":0}",150.5,41.202156,-73.19076899999999,811121.0,CT,9.0,9001.0,Fairfield County,90010729003.0
8184,sg:102c96228dd04021aeb12b881c1d3b2a,Hartford HealthCare Medical Group,CT,2019-07-01T00:00:00-04:00,2019-08-01T00:00:00-04:00,6410,12,34.0,"{""<5"":0,""5-20"":1,""21-60"":9,""61-240"":2,"">240"":0}",678.0,41.477194,-72.905647,621111.0,CT,9.0,9009.0,New Haven County,90093433002.0
8545,sg:320e9e29907a479ab09f648e564b8551,Lakeside Lunch,CT,2019-07-01T00:00:00-04:00,2019-08-01T00:00:00-04:00,6777,46,217.0,"{""<5"":1,""5-20"":2,""21-60"":2,""61-240"":19,"">240"":22}",8248.0,41.694619,-73.363538,722511.0,CT,9.0,9005.0,Litchfield County,90052671001.0
8687,sg:3fce47f0f2e841e2b439d02d31c62fe2,Ryder,CT,2019-07-01T00:00:00-04:00,2019-08-01T00:00:00-04:00,6002,1,5.0,"{""<5"":0,""5-20"":1,""21-60"":0,""61-240"":0,"">240"":0}",12.5,41.817816,-72.723651,532120.0,CT,9.0,9003.0,Hartford County,90034713002.0
8755,sg:45902dd23c03404d94fcec63ede95bd3,Republic,CT,2019-07-01T00:00:00-04:00,2019-08-01T00:00:00-04:00,6002,364,51.0,"{""<5"":6,""5-20"":84,""21-60"":118,""61-240"":124,"">240"":32}",32186.0,41.828981,-72.735469,722511.0,CT,9.0,9003.0,Hartford County,90034713003.0
8805,sg:49c302bc45da4d53a93cf57fd8bce24d,A A Milford Driving School,CT,2019-07-01T00:00:00-04:00,2019-08-01T00:00:00-04:00,6460,71,21.0,"{""<5"":0,""5-20"":34,""21-60"":20,""61-240"":12,"">240"":5}",4241.0,41.226742,-73.069864,453310.0,CT,9.0,9009.0,New Haven County,90091501003.0
8844,sg:4e68795379db4fbe896638ad5d869000,Rusty Wallace Racing Experience Stafford Motor Speedway,CT,2019-07-01T00:00:00-04:00,2019-08-01T00:00:00-04:00,6076,81,42.0,"{""<5"":0,""5-20"":18,""21-60"":33,""61-240"":29,"">240"":1}",6166.0,41.955104,-72.32044599999999,441222.0,CT,9.0,9013.0,Tolland County,90138902021.0
8944,sg:57c9c4de7bb44939b9019ea0bead84cb,Soundbridge Academy Of Aerospace & Engineering Elementary,CT,2019-07-01T00:00:00-04:00,2019-08-01T00:00:00-04:00,6067,39,334.0,"{""<5"":0,""5-20"":1,""21-60"":9,""61-240"":8,"">240"":21}",6621.0,41.644365,-72.664689,611110.0,CT,9.0,9003.0,Hartford County,90035242003.0
9109,sg:667384dc2a27448e8e2165e059a2d8ab,Dental Associates of Connecticut,CT,2019-07-01T00:00:00-04:00,2019-08-01T00:00:00-04:00,6484,89,53.0,"{""<5"":1,""5-20"":23,""21-60"":28,""61-240"":14,"">240"":23}",9051.0,41.27717,-73.12086,621210.0,CT,9.0,9001.0,Fairfield County,90011102023.0
9305,sg:7891c069715a4404872fb9bf0874ddeb,All United Locksmith,CT,2019-07-01T00:00:00-04:00,2019-08-01T00:00:00-04:00,6460,3,5.0,"{""<5"":0,""5-20"":3,""21-60"":0,""61-240"":0,"">240"":0}",37.5,41.223065999999996,-73.04414399999999,621511.0,CT,9.0,9009.0,New Haven County,90091509002.0
9375,sg:7e5e6f46e9c14bb9857520fc5617562f,Partners,CT,2019-07-01T00:00:00-04:00,2019-08-01T00:00:00-04:00,6511,304,35.5,"{""<5"":8,""5-20"":100,""21-60"":92,""61-240"":86,"">240"":18}",22259.0,41.308004,-72.934048,722511.0,CT,9.0,9009.0,New Haven County,90093614011.0
9406,sg:81d6f09efa17431db9c9b55c121bda13,CrossFit,CT,2019-07-01T00:00:00-04:00,2019-08-01T00:00:00-04:00,6074,354,74.5,"{""<5"":7,""5-20"":65,""21-60"":71,""61-240"":172,"">240"":39}",38951.5,41.822406,-72.607109,713940.0,CT,9.0,9003.0,Hartford County,90034874003.0
9449,sg:86c20005dd014722b61cd3abc39d0b20,TD Bank,CT,2019-07-01T00:00:00-04:00,2019-08-01T00:00:00-04:00,6001,88,11.0,"{""<5"":7,""5-20"":46,""21-60"":14,""61-240"":2,"">240"":19}",6020.5,41.811715,-72.852522,522110.0,CT,9.0,9003.0,Hartford County,90034622011.0
9510,sg:8be9a3011cd24af59065df1a3f2cc4a2,St Vincent's Stratford Urgent Care Center,CT,2019-07-01T00:00:00-04:00,2019-08-01T00:00:00-04:00,6614,90,57.0,"{""<5"":0,""5-20"":12,""21-60"":37,""61-240"":25,"">240"":16}",9251.0,41.204908,-73.13114399999999,621493.0,CT,9.0,9001.0,Fairfield County,90010808003.0
9539,sg:8e302d971f6b48c1b6f6554caede3647,Boost Bowls,CT,2019-07-01T00:00:00-04:00,2019-08-01T00:00:00-04:00,6492,135,59.0,"{""<5"":4,""5-20"":24,""21-60"":41,""61-240"":66,"">240"":0}",11903.5,41.48766,-72.80804599999999,722515.0,CT,9.0,9009.0,New Haven County,90091754001.0
9741,sg:a3faab56f9bc4ca0bf92d7493378e286,Creative Hypnosis,CT,2019-07-01T00:00:00-04:00,2019-08-01T00:00:00-04:00,6410,49,33.0,"{""<5"":0,""5-20"":14,""21-60"":23,""61-240"":10,"">240"":2}",3091.5,41.509115,-72.89784399999999,621330.0,CT,9.0,9009.0,New Haven County,90093431022.0
10003,sg:bbbf7d8ddd764d56b09810bde171c086,McLean Clinton OD,CT,2019-07-01T00:00:00-04:00,2019-08-01T00:00:00-04:00,6484,959,21.0,"{""<5"":16,""5-20"":460,""21-60"":413,""61-240"":45,"">240"":25}",35289.0,41.263818,-73.132284,446130.0,CT,9.0,9001.0,Fairfield County,90011103022.0
10005,sg:bbcac646c2ca40ae96f9d1a9a8066e03,Tyler English Fitness,CT,2019-07-01T00:00:00-04:00,2019-08-01T00:00:00-04:00,6066,91,57.0,"{""<5"":1,""5-20"":11,""21-60"":43,""61-240"":35,"">240"":1}",7389.0,41.842046,-72.494569,713940.0,CT,9.0,9013.0,Tolland County,90135303021.0
10008,sg:bc1e825381f14c7796a3beb3cfa854d9,Center for Musculoskeletal Care,CT,2019-07-01T00:00:00-04:00,2019-08-01T00:00:00-04:00,6902,142,61.5,"{""<5"":1,""5-20"":30,""21-60"":37,""61-240"":51,"">240"":23}",15071.5,41.079240000000006,-73.5547,621111.0,CT,9.0,9001.0,Fairfield County,90010213001.0
10022,sg:bd84ddc7f83040aeafc7c8590a1fc2df,The Spice & Tea Exchange,CT,2019-07-01T00:00:00-04:00,2019-08-01T00:00:00-04:00,6355,51,19.0,"{""<5"":1,""5-20"":28,""21-60"":12,""61-240"":5,"">240"":5}",2791.0,41.354889,-71.969184,446191.0,CT,9.0,9011.0,New London County,90117030001.0
10032,sg:bef77b81325244e7b3901b3dd76c5f81,Aurora Diner Restaurants,CT,2019-07-01T00:00:00-04:00,2019-08-01T00:00:00-04:00,6708,36,29.5,"{""<5"":0,""5-20"":8,""21-60"":22,""61-240"":4,"">240"":2}",2073.0,41.578267,-73.05461899999999,722511.0,,,,,
10045,sg:c07a30ba598c4cc8ad3839aa072dd07d,Pedal Power,CT,2019-07-01T00:00:00-04:00,2019-08-01T00:00:00-04:00,6426,54,24.0,"{""<5"":1,""5-20"":22,""21-60"":12,""61-240"":14,"">240"":5}",4070.5,41.352954,-72.40758100000001,451110.0,CT,9.0,9007.0,Middlesex County,90076301003.0
10129,sg:c7f91edd59aa4e51b70fbaf11d091570,Subway,CT,2019-07-01T00:00:00-04:00,2019-08-01T00:00:00-04:00,6483,306,59.0,"{""<5"":8,""5-20"":80,""21-60"":68,""61-240"":148,"">240"":2}",26528.0,41.360298,-73.095344,722513.0,CT,9.0,9009.0,New Haven County,90091302005.0
10145,sg:c9b08df840604f85ae1381c0363ee17e,Hk Fitness,CT,2019-07-01T00:00:00-04:00,2019-08-01T00:00:00-04:00,6441,105,26.0,"{""<5"":0,""5-20"":30,""21-60"":57,""61-240"":18,"">240"":0}",5392.5,41.495112,-72.558915,713940.0,CT,9.0,9007.0,Middlesex County,90075901001.0
10225,sg:d1595854c7dd42f3bbd3263034a9f470,Mark T Sheehan High School,CT,2019-07-01T00:00:00-04:00,2019-08-01T00:00:00-04:00,6492,472,50.5,"{""<5"":4,""5-20"":112,""21-60"":158,""61-240"":186,"">240"":12}",38682.0,41.485506,-72.835964,611110.0,CT,9.0,9009.0,New Haven County,90091756004.0
10315,sg:d9576d74992f4545993ac33ce0da6c7f,Michaels Stores,CT,2019-07-01T00:00:00-04:00,2019-08-01T00:00:00-04:00,6804,34,10.0,"{""<5"":2,""5-20"":32,""21-60"":0,""61-240"":0,"">240"":0}",405.0,41.434943,-73.413013,451120.0,CT,9.0,9001.0,Fairfield County,90012053003.0
10385,sg:df84dddc14ce4c7298cf6eb339f45b3d,Steam,CT,2019-07-01T00:00:00-04:00,2019-08-01T00:00:00-04:00,6820,229,22.0,"{""<5"":11,""5-20"":88,""21-60"":85,""61-240"":42,"">240"":3}",11611.0,41.076378000000005,-73.471287,722511.0,CT,9.0,9001.0,Fairfield County,90010304001.0
10423,sg:e387c087c9d54e72bd8269932a6f944c,Canterbury Children's Academy,CT,2019-07-01T00:00:00-04:00,2019-08-01T00:00:00-04:00,6331,14,68.5,"{""<5"":0,""5-20"":1,""21-60"":5,""61-240"":5,"">240"":3}",1687.5,41.707757,-71.987854,624410.0,CT,9.0,9015.0,Windham County,90159061002.0
10537,sg:eecc6df1c0774ec5bd0c8f5ea826c913,Bob's Stores,CT,2019-07-01T00:00:00-04:00,2019-08-01T00:00:00-04:00,6460,148,15.0,"{""<5"":4,""5-20"":85,""21-60"":53,""61-240"":6,"">240"":0}",4122.0,41.22814,-73.04777299999999,448140.0,CT,9.0,9009.0,New Haven County,90091509002.0
10624,sg:f7cd04787e65403abc5bf41b082519e3,Camp Bow Wow,CT,2019-07-01T00:00:00-04:00,2019-08-01T00:00:00-04:00,6074,110,23.5,"{""<5"":2,""5-20"":50,""21-60"":11,""61-240"":12,"">240"":35}",11281.5,41.836443,-72.60378299999999,812910.0,CT,9.0,9003.0,Hartford County,90034873001.0
10683,sg:fcb6fd79dc4b447f8d1972a8bf2714bf,Schoetz Real Estate,CT,2019-07-01T00:00:00-04:00,2019-08-01T00:00:00-04:00,6830,6,19.0,"{""<5"":1,""5-20"":2,""21-60"":1,""61-240"":2,"">240"":0}",369.0,41.021728,-73.628345,531210.0,CT,9.0,9001.0,Fairfield County,90010105001.0
10684,sg:fcc87f0cd9474ea4b2b2be37c0e21f7c,Brooksvale Park,CT,2019-07-01T00:00:00-04:00,2019-08-01T00:00:00-04:00,6518,2,24.5,"{""<5"":0,""5-20"":1,""21-60"":1,""61-240"":0,"">240"":0}",53.0,41.45387,-72.920576,712190.0,CT,9.0,9009.0,New Haven County,90091659001.0
10761,sg:03b862e15f5c48659e4b3716164d2105,Thompsonville Fire Department District 2,CT,2019-07-01T00:00:00-04:00,2019-08-01T00:00:00-04:00,6082,12,409.0,"{""<5"":1,""5-20"":2,""21-60"":2,""61-240"":0,"">240"":7}",1788.5,41.998275,-72.600043,922160.0,CT,9.0,9003.0,Hartford County,90034806004.0
10906,sg:1113c993969c445ca8d3b751157aa8ec,Prime Sales Auto Dealers LLC,CT,2019-07-01T00:00:00-04:00,2019-08-01T00:00:00-04:00,6787,23,10.0,"{""<5"":0,""5-20"":16,""21-60"":2,""61-240"":2,"">240"":3}",1302.0,41.659766,-73.08182,441228.0,CT,9.0,9005.0,Litchfield County,90053491003.0
10961,sg:16d167c3cb1141eba4097d81aecc5493,Highland School,CT,2019-07-01T00:00:00-04:00,2019-08-01T00:00:00-04:00,6492,173,69.0,"{""<5"":2,""5-20"":35,""21-60"":43,""61-240"":72,"">240"":21}",18060.0,41.487922999999995,-72.838479,611110.0,CT,9.0,9009.0,New Haven County,90091756004.0
10986,sg:192cc01dab36410cbac03bbc74327b3e,Go Buses,CT,2019-07-01T00:00:00-04:00,2019-08-01T00:00:00-04:00,6103,236,9.0,"{""<5"":27,""5-20"":148,""21-60"":30,""61-240"":26,"">240"":5}",8245.5,41.768832,-72.66994,482111.0,CT,9.0,9003.0,Hartford County,90035021002.0
11030,sg:1dd892721e534d9b8c8e5d2631b8aa69,4Structures com LLC,CT,2019-07-01T00:00:00-04:00,2019-08-01T00:00:00-04:00,6902,38,82.0,"{""<5"":0,""5-20"":12,""21-60"":5,""61-240"":11,"">240"":10}",4408.0,41.039592,-73.529679,524210.0,CT,9.0,9001.0,Fairfield County,90010221003.0
11204,sg:2c99371ae0c448e781adcd6cef6dd2aa,Classy Clipper,CT,2019-07-01T00:00:00-04:00,2019-08-01T00:00:00-04:00,6108,1429,151.0,"{""<5"":18,""5-20"":241,""21-60"":221,""61-240"":415,"">240"":534}",202625.5,41.769032,-72.67463000000001,453910.0,CT,9.0,9003.0,Hartford County,90035021002.0
11263,sg:31e36918251943e989fa35af693838f3,True Value Hardware,CT,2019-07-01T00:00:00-04:00,2019-08-01T00:00:00-04:00,6473,61,56.0,"{""<5"":0,""5-20"":14,""21-60"":19,""61-240"":23,"">240"":5}",5606.0,41.388115,-72.874329,444130.0,,,,,
11290,sg:34a30cf7dbee4d398922deaefe601867,Lyme Academy College of Fine Arts,CT,2019-07-01T00:00:00-04:00,2019-08-01T00:00:00-04:00,6371,73,47.0,"{""<5"":0,""5-20"":27,""21-60"":14,""61-240"":14,"">240"":18}",7331.5,41.322368,-72.329192,611310.0,CT,9.0,9011.0,New London County,90116601013.0
11299,sg:358d72336ffd4779995b9e8aad742228,Patco Handy Stop,CT,2019-07-01T00:00:00-04:00,2019-08-01T00:00:00-04:00,6786,113,8.0,"{""<5"":8,""5-20"":68,""21-60"":13,""61-240"":14,"">240"":10}",5903.5,41.678402,-73.00354,447110.0,CT,9.0,9005.0,Litchfield County,90054255003.0
11336,sg:38cc70a81af646049808ec400bb96469,Vein Centers of Ct,CT,2019-07-01T00:00:00-04:00,2019-08-01T00:00:00-04:00,6443,7,20.0,"{""<5"":0,""5-20"":4,""21-60"":1,""61-240"":1,"">240"":1}",481.0,41.278865,-72.594325,621111.0,CT,9.0,9009.0,New Haven County,90091941005.0
11355,sg:3ab32853bd604c1d8aa03e01b8901532,Elmwood Pastry Shop,CT,2019-07-01T00:00:00-04:00,2019-08-01T00:00:00-04:00,6110,16,10.5,"{""<5"":0,""5-20"":11,""21-60"":2,""61-240"":1,"">240"":2}",849.0,41.733284000000005,-72.732934,722515.0,CT,9.0,9003.0,Hartford County,90034963001.0
11431,sg:41f0043791d7485babe742a52e58f7d9,Gifted Hands Massage &amp Spa,CT,2019-07-01T00:00:00-04:00,2019-08-01T00:00:00-04:00,6770,191,45.0,"{""<5"":2,""5-20"":56,""21-60"":43,""61-240"":57,"">240"":33}",18945.0,41.490132,-73.054727,446120.0,CT,9.0,9009.0,New Haven County,90093453001.0
11477,sg:4510af2678e3480d9e132f9823f467c9,Monroe Psychic Readings By Stephanie,CT,2019-07-01T00:00:00-04:00,2019-08-01T00:00:00-04:00,6468,10,287.0,"{""<5"":0,""5-20"":1,""21-60"":1,""61-240"":3,"">240"":5}",1704.5,41.319556,-73.26280200000001,621330.0,CT,9.0,9001.0,Fairfield County,90011001003.0
11578,sg:4f808f4dedd04bf794f2f5d253146794,Danielle R Pannese DDS,CT,2019-07-01T00:00:00-04:00,2019-08-01T00:00:00-04:00,6825,6,540.0,"{""<5"":0,""5-20"":1,""21-60"":1,""61-240"":0,"">240"":4}",1013.0,41.166451,-73.234735,621210.0,CT,9.0,9001.0,Fairfield County,90010614001.0
11659,sg:5844dce7691540f6806047569aa8764b,Arrow Cab CT,CT,2019-07-01T00:00:00-04:00,2019-08-01T00:00:00-04:00,6117,32,115.5,"{""<5"":0,""5-20"":5,""21-60"":5,""61-240"":12,"">240"":10}",4471.0,41.78371,-72.737833,485310.0,CT,9.0,9003.0,Hartford County,90034972002.0
11758,sg:62bb60d9f4d143adb5435e904baa2327,Knotty Pine Package Store,CT,2019-07-01T00:00:00-04:00,2019-08-01T00:00:00-04:00,6704,37,28.0,"{""<5"":1,""5-20"":16,""21-60"":5,""61-240"":8,"">240"":7}",3289.0,41.575725,-73.02611,445310.0,CT,9.0,9009.0,New Haven County,90093511001.0
11944,sg:73d54907915d4ec080f12bc78490826a,Hartford Tow Truck Company,CT,2019-07-01T00:00:00-04:00,2019-08-01T00:00:00-04:00,6106,511,120.0,"{""<5"":6,""5-20"":131,""21-60"":66,""61-240"":115,"">240"":193}",67953.0,41.759407,-72.695759,488410.0,CT,9.0,9003.0,Hartford County,90035029002.0
11973,sg:76bfe2f0aeab4d8abc93605bfc097ac3,Guilford Savings Bank,CT,2019-07-01T00:00:00-04:00,2019-08-01T00:00:00-04:00,6443,3,5.0,"{""<5"":1,""5-20"":2,""21-60"":0,""61-240"":0,"">240"":0}",27.5,41.360214,-72.635898,522110.0,CT,9.0,9009.0,New Haven County,90091942021.0
11996,sg:78c5e7a60d5344bbaaef8c7e069b6016,Candlewood Lake Club,CT,2019-07-01T00:00:00-04:00,2019-08-01T00:00:00-04:00,6776,114,56.0,"{""<5"":3,""5-20"":35,""21-60"":22,""61-240"":44,"">240"":10}",10358.0,41.49726,-73.44155500000001,453998.0,CT,9.0,9005.0,Litchfield County,90052534003.0
12237,sg:9173b93b12d94e97b7319a45e9ddb4a4,Greenwich Dance Studio,CT,2019-07-01T00:00:00-04:00,2019-08-01T00:00:00-04:00,6830,121,28.0,"{""<5"":5,""5-20"":50,""21-60"":17,""61-240"":35,"">240"":14}",9953.5,41.036507,-73.601861,713940.0,CT,9.0,9001.0,Fairfield County,90010108002.0
12348,sg:9a4f471f98514760b6ae8b8e7b388a02,Jane's Place,CT,2019-07-01T00:00:00-04:00,2019-08-01T00:00:00-04:00,6062,207,70.0,"{""<5"":4,""5-20"":33,""21-60"":50,""61-240"":118,"">240"":2}",20686.5,41.67188,-72.854469,722515.0,CT,9.0,9003.0,Hartford County,90034206004.0
12469,sg:a63a37648d8a43cb89e53594791b64ac,Stevens Alternate High School,CT,2019-07-01T00:00:00-04:00,2019-08-01T00:00:00-04:00,6118,16,59.0,"{""<5"":0,""5-20"":1,""21-60"":8,""61-240"":1,"">240"":6}",1927.0,41.755495,-72.596323,611110.0,CT,9.0,9003.0,Hartford County,90035111002.0
12486,sg:a86b7d696673431d87a8e8a1184db400,Priority Automation & Security,CT,2019-07-01T00:00:00-04:00,2019-08-01T00:00:00-04:00,6351,8,7.0,"{""<5"":0,""5-20"":6,""21-60"":1,""61-240"":1,"">240"":0}",266.0,41.599579999999996,-71.989876,443142.0,CT,9.0,9011.0,New London County,90117101001.0
12743,sg:c3711567dcfe4032879815c9c9f8adf4,Effi's Salon,CT,2019-07-01T00:00:00-04:00,2019-08-01T00:00:00-04:00,6880,4,250.5,"{""<5"":0,""5-20"":0,""21-60"":0,""61-240"":2,"">240"":2}",781.0,41.124075,-73.37208100000001,812112.0,CT,9.0,9001.0,Fairfield County,90010504001.0
12747,sg:c3b701ed3fff45bf8ac041a33956b11b,Brito's Restaurant,CT,2019-07-01T00:00:00-04:00,2019-08-01T00:00:00-04:00,6810,247,70.0,"{""<5"":3,""5-20"":60,""21-60"":52,""61-240"":54,"">240"":78}",29710.5,41.389069,-73.434628,722511.0,CT,9.0,9001.0,Fairfield County,90012104002.0
12835,sg:cce9119b3c3b49f7ac30c0f72e9c5a13,Scott Cameron PT,CT,2019-07-01T00:00:00-04:00,2019-08-01T00:00:00-04:00,6498,6,315.5,"{""<5"":0,""5-20"":2,""21-60"":0,""61-240"":1,"">240"":3}",895.5,41.295394,-72.489008,621340.0,CT,9.0,9007.0,Middlesex County,90076801001.0
12911,sg:d518f522b765426d9881b8947fa0e1c3,Harvey's Kitchen,CT,2019-07-01T00:00:00-04:00,2019-08-01T00:00:00-04:00,6610,129,52.0,"{""<5"":3,""5-20"":39,""21-60"":24,""61-240"":44,"">240"":19}",12649.0,41.195811,-73.158778,722511.0,CT,9.0,9001.0,Fairfield County,90010733001.0
12924,sg:d67898e901af4d329c8559872511151d,Waddell School,CT,2019-07-01T00:00:00-04:00,2019-08-01T00:00:00-04:00,6042,39,98.0,"{""<5"":1,""5-20"":8,""21-60"":7,""61-240"":20,"">240"":3}",4116.0,41.784105,-72.534626,611110.0,CT,9.0,9003.0,Hartford County,90035144004.0
13302,sg:fe2e524798cc4c6d9198d3356e23b503,Indomitable Fitness and Martial Arts,CT,2019-07-01T00:00:00-04:00,2019-08-01T00:00:00-04:00,6111,15,192.0,"{""<5"":0,""5-20"":0,""21-60"":2,""61-240"":8,"">240"":5}",2485.0,41.721927,-72.717555,713940.0,CT,9.0,9003.0,Hartford County,90034945001.0
13306,sg:fe6128d3e5454e9ba9f1c750f6638f58,Verizon Authorized Retailer Wireless Zone,CT,2019-07-01T00:00:00-04:00,2019-08-01T00:00:00-04:00,6468,2,48.0,"{""<5"":0,""5-20"":1,""21-60"":0,""61-240"":1,"">240"":0}",163.0,41.339162,-73.263006,517312.0,CT,9.0,9001.0,Fairfield County,90011001001.0
13324,sg:ffbb088746794a5f994869bfac2b359e,Annie E Vinton School,CT,2019-07-01T00:00:00-04:00,2019-08-01T00:00:00-04:00,6250,37,47.0,"{""<5"":0,""5-20"":12,""21-60"":7,""61-240"":5,"">240"":13}",4306.0,41.74626,-72.259385,611110.0,CT,9.0,9013.0,Tolland County,90138815003.0
13448,sg:0a529c40e2dc4434891174e65188ac1c,Reeves Field,CT,2019-07-01T00:00:00-04:00,2019-08-01T00:00:00-04:00,6787,161,46.0,"{""<5"":7,""5-20"":52,""21-60"":39,""61-240"":41,"">240"":22}",13697.5,41.674972,-73.072327,713940.0,CT,9.0,9005.0,Litchfield County,90053492002.0
13504,sg:0f688e5ad92941e7b75386648d5c55e4,Bank of America,CT,2019-07-01T00:00:00-04:00,2019-08-01T00:00:00-04:00,6067,50,6.0,"{""<5"":3,""5-20"":45,""21-60"":1,""61-240"":1,"">240"":0}",761.0,41.644096000000005,-72.677995,522110.0,CT,9.0,9003.0,Hartford County,90034903024.0
13577,sg:15d4b0b3f355405c8f26067a3173349b,Dunkin',CT,2019-07-01T00:00:00-04:00,2019-08-01T00:00:00-04:00,6379,742,6.0,"{""<5"":67,""5-20"":629,""21-60"":38,""61-240"":5,"">240"":3}",11041.5,41.401990999999995,-71.846861,722515.0,CT,9.0,9011.0,New London County,90117051023.0
13591,sg:17143d20d36a4d32bee713203a552315,Johnson Memorial Hospital,CT,2019-07-01T00:00:00-04:00,2019-08-01T00:00:00-04:00,6076,226,71.0,"{""<5"":2,""5-20"":53,""21-60"":55,""61-240"":45,"">240"":71}",26707.5,41.979136,-72.39097,622110.0,CT,9.0,9013.0,Tolland County,90138902023.0
13611,sg:18c3a6b949e34de78d0510e2736d1b30,Cigar Store & More,CT,2019-07-01T00:00:00-04:00,2019-08-01T00:00:00-04:00,6340,61,10.0,"{""<5"":2,""5-20"":39,""21-60"":16,""61-240"":3,"">240"":1}",1832.0,41.382418,-72.026566,453991.0,CT,9.0,9011.0,New London County,90117021002.0
13666,sg:1df26baaafee4c57a6f68e75c6859b2d,Valero Energy,CT,2019-07-01T00:00:00-04:00,2019-08-01T00:00:00-04:00,6790,71,20.0,"{""<5"":3,""5-20"":38,""21-60"":26,""61-240"":1,"">240"":3}",2406.0,41.797227,-73.12114,447110.0,CT,9.0,9005.0,Litchfield County,90053103002.0
13668,sg:1e25c397fb384bec9d5c71988d491171,Staples,CT,2019-07-01T00:00:00-04:00,2019-08-01T00:00:00-04:00,6241,256,20.0,"{""<5"":3,""5-20"":129,""21-60"":101,""61-240"":20,"">240"":3}",9440.5,41.841463,-71.885159,453210.0,CT,9.0,9015.0,Windham County,90159044003.0
13760,sg:2792d36a7c4b45188cb49a364ace151e,Thiele Chiropractic Life Center,CT,2019-07-01T00:00:00-04:00,2019-08-01T00:00:00-04:00,6040,1,526.0,"{""<5"":0,""5-20"":0,""21-60"":0,""61-240"":0,"">240"":1}",240.0,41.770699,-72.544128,621310.0,CT,9.0,9003.0,Hartford County,90035146004.0
13929,sg:35ad0c1a70904a319edcc24d7f5888a4,BJ's Optical,CT,2019-07-01T00:00:00-04:00,2019-08-01T00:00:00-04:00,6804,568,7.0,"{""<5"":45,""5-20"":397,""21-60"":90,""61-240"":23,"">240"":13}",15301.5,41.437363,-73.411261,621320.0,CT,9.0,9001.0,Fairfield County,90012053003.0
13956,sg:3754e6d74f5b434fb270265b4162e6d1,Comprehensive Psychiatric Care PC,CT,2019-07-01T00:00:00-04:00,2019-08-01T00:00:00-04:00,6360,108,23.0,"{""<5"":4,""5-20"":47,""21-60"":39,""61-240"":16,"">240"":2}",5065.0,41.556319,-72.10878100000001,621111.0,CT,9.0,9011.0,New London County,90116962001.0
14063,sg:4254bde8d5a5437ea7d31150714ff199,Ck Auto Wholesalers,CT,2019-07-01T00:00:00-04:00,2019-08-01T00:00:00-04:00,6479,102,7.0,"{""<5"":5,""5-20"":71,""21-60"":13,""61-240"":8,"">240"":5}",3830.5,41.564118,-72.900221,441120.0,CT,9.0,9003.0,Hartford County,90034304002.0
14069,sg:432fe24f47dc48ca86bc7dbee0cc30dd,The Medicine Shoppe,CT,2019-07-01T00:00:00-04:00,2019-08-01T00:00:00-04:00,6484,65,10.0,"{""<5"":1,""5-20"":53,""21-60"":10,""61-240"":0,"">240"":1}",1310.0,41.331835999999996,-73.137366,446110.0,CT,9.0,9001.0,Fairfield County,90011106002.0
14323,sg:5bb02a3443d84eeabefab7377607d8f5,Pastanch,CT,2019-07-01T00:00:00-04:00,2019-08-01T00:00:00-04:00,6770,12,75.5,"{""<5"":0,""5-20"":5,""21-60"":0,""61-240"":6,"">240"":1}",1205.5,41.507526,-73.037968,445110.0,CT,9.0,9009.0,New Haven County,90093451004.0
14553,sg:701e26c0324d49f18d0e97e57659dd57,Sally & Bob's Eatery,CT,2019-07-01T00:00:00-04:00,2019-08-01T00:00:00-04:00,6107,196,33.5,"{""<5"":2,""5-20"":52,""21-60"":99,""61-240"":29,"">240"":14}",12389.0,41.762739,-72.741538,445120.0,CT,9.0,9003.0,Hartford County,90034971004.0
14718,sg:80ad324db9b94027a0963839217dc528,Firestone Complete Auto Care,CT,2019-07-01T00:00:00-04:00,2019-08-01T00:00:00-04:00,6705,107,23.0,"{""<5"":4,""5-20"":46,""21-60"":21,""61-240"":17,"">240"":19}",8554.0,41.563697999999995,-73.010193,441310.0,CT,9.0,9009.0,New Haven County,90093512001.0
14813,sg:8bb0d913b1724bf38af7ebbbcffedaca,Party Magic N' More,CT,2019-07-01T00:00:00-04:00,2019-08-01T00:00:00-04:00,6477,244,23.0,"{""<5"":3,""5-20"":108,""21-60"":75,""61-240"":49,"">240"":9}",13929.5,41.278249,-72.988642,453220.0,CT,9.0,9009.0,New Haven County,90091571002.0
14898,sg:91ded52f34cb404d9d80512b73fa1741,Kern Park,CT,2019-07-01T00:00:00-04:00,2019-08-01T00:00:00-04:00,6010,158,29.5,"{""<5"":3,""5-20"":58,""21-60"":34,""61-240"":44,"">240"":19}",13291.5,41.702372,-72.901329,712190.0,CT,9.0,9003.0,Hartford County,90034060022.0
15202,sg:b3aeb737b2c94f2d97970c5bbec2a931,Modern Tire & Auto Service,CT,2019-07-01T00:00:00-04:00,2019-08-01T00:00:00-04:00,6032,30,8.0,"{""<5"":1,""5-20"":26,""21-60"":3,""61-240"":0,"">240"":0}",449.0,41.730012,-72.829403,441310.0,CT,9.0,9003.0,Hartford County,90034602031.0
15226,sg:b5c36a3ec54846b4ad278a7ad135ac47,Bill Landan Marine Service,CT,2019-07-01T00:00:00-04:00,2019-08-01T00:00:00-04:00,6854,11,32.0,"{""<5"":0,""5-20"":5,""21-60"":4,""61-240"":2,"">240"":0}",525.5,41.096149,-73.415491,441222.0,CT,9.0,9001.0,Fairfield County,90010441002.0
15389,sg:c4c01131233a4fac96d2483ae457dd2e,Fitness Showrooms,CT,2019-07-01T00:00:00-04:00,2019-08-01T00:00:00-04:00,6905,116,11.0,"{""<5"":7,""5-20"":61,""21-60"":24,""61-240"":7,"">240"":17}",6885.5,41.102134,-73.548479,451110.0,CT,9.0,9001.0,Fairfield County,90010206001.0
15402,sg:c5f0b94e63484fdfbfcd2f875de015a2,Jazzi Auto Sales,CT,2019-07-01T00:00:00-04:00,2019-08-01T00:00:00-04:00,6450,3,98.0,"{""<5"":0,""5-20"":0,""21-60"":1,""61-240"":1,"">240"":1}",431.0,41.514655,-72.804987,,CT,9.0,9009.0,New Haven County,90091711003.0
15600,sg:d8fd32e0550c4e3a842cbb768b4bc43a,Farmers Insurance Group,CT,2019-07-01T00:00:00-04:00,2019-08-01T00:00:00-04:00,6413,5,293.0,"{""<5"":0,""5-20"":1,""21-60"":0,""61-240"":0,"">240"":4}",972.5,41.271378000000006,-72.50439899999999,524210.0,CT,9.0,9007.0,Middlesex County,90076102002.0
15712,sg:e5757d08da954f418b91d8baeb9508fe,Torrington Fire Department North End Station,CT,2019-07-01T00:00:00-04:00,2019-08-01T00:00:00-04:00,6790,56,74.5,"{""<5"":1,""5-20"":15,""21-60"":10,""61-240"":12,"">240"":18}",6721.0,41.818889,-73.122336,922160.0,CT,9.0,9005.0,Litchfield County,90053107004.0
15735,sg:e8684c79eedb493da1bbcb5300b458ab,Dream Builders,CT,2019-07-01T00:00:00-04:00,2019-08-01T00:00:00-04:00,6085,13,11.0,"{""<5"":0,""5-20"":11,""21-60"":2,""61-240"":0,"">240"":0}",218.5,41.745275,-72.870209,442299.0,CT,9.0,9003.0,Hartford County,90034603011.0
15978,sg:ff1ac394cfba4f198bd75f4883b76c76,Hertz,CT,2019-07-01T00:00:00-04:00,2019-08-01T00:00:00-04:00,6478,3,12.0,"{""<5"":1,""5-20"":2,""21-60"":0,""61-240"":0,"">240"":0}",27.5,41.480748,-73.142404,532111.0,,,,,
16018,sg:0225cd7d09e443e29022e3e971d4442c,NewBrook Kitchen Artisan Market,CT,2019-07-01T00:00:00-04:00,2019-08-01T00:00:00-04:00,6880,40,78.5,"{""<5"":2,""5-20"":13,""21-60"":2,""61-240"":17,"">240"":6}",4247.0,41.123425,-73.372353,445110.0,CT,9.0,9001.0,Fairfield County,90010504001.0
16067,sg:06388a409f8d45dc93e2cea81f390cb0,Center Spirit Shoppe,CT,2019-07-01T00:00:00-04:00,2019-08-01T00:00:00-04:00,6019,51,12.0,"{""<5"":4,""5-20"":27,""21-60"":5,""61-240"":15,"">240"":0}",2807.5,41.811514,-72.92258100000001,445310.0,CT,9.0,9003.0,Hartford County,90034641023.0
16159,sg:0dd008653025407eb24e37257a6fd2e9,Center For Pain Rehabilitation,CT,2019-07-01T00:00:00-04:00,2019-08-01T00:00:00-04:00,6810,163,52.0,"{""<5"":2,""5-20"":14,""21-60"":73,""61-240"":68,"">240"":6}",14810.5,41.413616,-73.406723,621111.0,CT,9.0,9001.0,Fairfield County,90012104001.0
16161,sg:0e2e866fd31c48138b1db82490ff01f2,NewLife Christian Fellowship,CT,2019-07-01T00:00:00-04:00,2019-08-01T00:00:00-04:00,6109,91,72.0,"{""<5"":3,""5-20"":18,""21-60"":24,""61-240"":20,"">240"":26}",10454.5,41.689896000000005,-72.657013,813110.0,CT,9.0,9003.0,Hartford County,90034926001.0
16387,sg:22efbdf3a88f4810b032d2a6da13626b,Adriana's Italian Restaurant & Catering,CT,2019-07-01T00:00:00-04:00,2019-08-01T00:00:00-04:00,6511,434,80.0,"{""<5"":5,""5-20"":98,""21-60"":67,""61-240"":192,"">240"":72}",50127.0,41.308244,-72.915276,722511.0,CT,9.0,9009.0,New Haven County,90091421001.0
16410,sg:252385e6d93143cbbcc05954bc8ca0ef,G&K Services,CT,2019-07-01T00:00:00-04:00,2019-08-01T00:00:00-04:00,6114,384,30.0,"{""<5"":7,""5-20"":155,""21-60"":78,""61-240"":114,"">240"":30}",29471.0,41.741474,-72.652454,453310.0,CT,9.0,9003.0,Hartford County,90035025001.0
16468,sg:2a683553663d4916a328187a0cdb7e95,Whole Body Wellness & Physical Therapy,CT,2019-07-01T00:00:00-04:00,2019-08-01T00:00:00-04:00,6033,58,46.0,"{""<5"":1,""5-20"":10,""21-60"":28,""61-240"":19,"">240"":0}",4121.0,41.717662,-72.584767,621340.0,CT,9.0,9003.0,Hartford County,90035203011.0
16499,sg:2d188faca6d7466aa081dcf86300c576,Prospect Nursery School,CT,2019-07-01T00:00:00-04:00,2019-08-01T00:00:00-04:00,6712,20,338.5,"{""<5"":2,""5-20"":6,""21-60"":0,""61-240"":1,"">240"":11}",2870.5,41.501759,-72.978711,624410.0,CT,9.0,9009.0,New Haven County,90093471002.0
16515,sg:2e72bc7e2a684e4090d594699f16aa77,The Pickle Barrel,CT,2019-07-01T00:00:00-04:00,2019-08-01T00:00:00-04:00,6615,261,13.0,"{""<5"":10,""5-20"":157,""21-60"":40,""61-240"":24,"">240"":30}",14419.5,41.186721999999996,-73.130652,445120.0,CT,9.0,9001.0,Fairfield County,90010806001.0
16552,sg:3207ee5f16fc43788b9e376dbf55ffe3,Church of the Christian Brotherhood,CT,2019-07-01T00:00:00-04:00,2019-08-01T00:00:00-04:00,6422,3,530.0,"{""<5"":0,""5-20"":0,""21-60"":1,""61-240"":0,"">240"":2}",520.5,41.446739,-72.727868,813110.0,CT,9.0,9007.0,Middlesex County,90075851004.0
16567,sg:3388860129974b47b98ed804e960e815,Greater Hartford Academy of Arts,CT,2019-07-01T00:00:00-04:00,2019-08-01T00:00:00-04:00,6106,248,51.0,"{""<5"":8,""5-20"":76,""21-60"":50,""61-240"":81,"">240"":33}",23105.5,41.750688000000004,-72.685563,611310.0,CT,9.0,9003.0,Hartford County,90035027003.0
16802,sg:4797b327031a48cdbff1c064c6a8f2a8,First Church of Christ Scientist,CT,2019-07-01T00:00:00-04:00,2019-08-01T00:00:00-04:00,6033,15,267.0,"{""<5"":0,""5-20"":0,""21-60"":0,""61-240"":6,"">240"":9}",3063.0,41.71075,-72.606094,813110.0,CT,9.0,9003.0,Hartford County,90035203021.0
16842,sg:4acd851910cc4259bfcc760b94d0ac79,Unitarian Universalist Society Shoreline Office,CT,2019-07-01T00:00:00-04:00,2019-08-01T00:00:00-04:00,6443,13,36.0,"{""<5"":0,""5-20"":5,""21-60"":3,""61-240"":4,"">240"":1}",1026.0,41.278519,-72.623923,813110.0,CT,9.0,9009.0,New Haven County,90091941004.0
16986,sg:567af48989e44484b7f5d78e0b12fd02,Midas,CT,2019-07-01T00:00:00-04:00,2019-08-01T00:00:00-04:00,6489,4,61.5,"{""<5"":0,""5-20"":1,""21-60"":1,""61-240"":2,"">240"":0}",354.0,41.619181,-72.87425,811111.0,CT,9.0,9003.0,Hartford County,90034306011.0
17104,sg:5f6b29dee7a14d74a1b1ca66977c32da,Mona Lisa Restaurant,CT,2019-07-01T00:00:00-04:00,2019-08-01T00:00:00-04:00,6716,169,60.0,"{""<5"":1,""5-20"":38,""21-60"":46,""61-240"":79,"">240"":5}",15430.0,41.576884,-72.999898,722511.0,CT,9.0,9009.0,New Haven County,90093612003.0
17115,sg:60a29df58c134e35952358cdef6f4179,Friend To Friend Thrift Shop,CT,2019-07-01T00:00:00-04:00,2019-08-01T00:00:00-04:00,6026,16,24.0,"{""<5"":0,""5-20"":7,""21-60"":6,""61-240"":1,"">240"":2}",961.0,41.912521999999996,-72.739527,453310.0,CT,9.0,9003.0,Hartford County,90034701003.0
17119,sg:610df9db4b2b4277b119dcbf9b68f5fb,Jan Fitzgerald Briscoe LMFT,CT,2019-07-01T00:00:00-04:00,2019-08-01T00:00:00-04:00,6371,10,232.5,"{""<5"":0,""5-20"":2,""21-60"":1,""61-240"":2,"">240"":5}",1566.5,41.324259999999995,-72.335452,621330.0,CT,9.0,9011.0,New London County,90116601012.0
17209,sg:69b5afa7acf44fbeaa33092da063b535,Meriden Municipal Federal Credit Union,CT,2019-07-01T00:00:00-04:00,2019-08-01T00:00:00-04:00,6451,11,47.0,"{""<5"":0,""5-20"":5,""21-60"":1,""61-240"":3,"">240"":2}",1034.5,41.553214000000004,-72.846007,522110.0,CT,9.0,9003.0,Hartford County,90034303011.0
17332,sg:75cd1e54c32648c8905689ee3c17906b,Danny's Drive In,CT,2019-07-01T00:00:00-04:00,2019-08-01T00:00:00-04:00,6614,117,21.0,"{""<5"":3,""5-20"":55,""21-60"":39,""61-240"":8,"">240"":12}",6358.5,41.200082,-73.114385,722511.0,CT,9.0,9001.0,Fairfield County,90010807001.0
17386,sg:7b99eda530204bf6ba99a0874657e802,Jenny Mathews DDS MS PhD,CT,2019-07-01T00:00:00-04:00,2019-08-01T00:00:00-04:00,6880,41,53.0,"{""<5"":0,""5-20"":3,""21-60"":27,""61-240"":7,"">240"":4}",3144.5,41.147024,-73.36619300000001,621210.0,CT,9.0,9001.0,Fairfield County,90010501002.0
17393,sg:7c7f717eb4724afcaa0b127e3d1ca778,Aldos,CT,2019-07-01T00:00:00-04:00,2019-08-01T00:00:00-04:00,6110,286,14.0,"{""<5"":16,""5-20"":143,""21-60"":77,""61-240"":44,"">240"":6}",13008.0,41.723807,-72.761637,448120.0,CT,9.0,9003.0,Hartford County,90034962004.0
17410,sg:7d903ed2299e4f1fa226f073db68e637,Weston's Antiques,CT,2019-07-01T00:00:00-04:00,2019-08-01T00:00:00-04:00,6238,136,11.0,"{""<5"":7,""5-20"":70,""21-60"":19,""61-240"":21,"">240"":19}",9382.5,41.796079999999996,-72.414022,453310.0,CT,9.0,9013.0,Tolland County,90138501002.0
17415,sg:7e0552648159471dae5eaef1d903fbd8,GNC (General Nutrition Centers),CT,2019-07-01T00:00:00-04:00,2019-08-01T00:00:00-04:00,6032,15,8.0,"{""<5"":0,""5-20"":12,""21-60"":3,""61-240"":0,"">240"":0}",271.5,41.722524,-72.76241999999999,446191.0,CT,9.0,9003.0,Hartford County,90034962004.0
17501,sg:84eb73090c29495b9ea1e5a4bc02abb7,Dockside Resort Bar,CT,2019-07-01T00:00:00-04:00,2019-08-01T00:00:00-04:00,6320,164,29.0,"{""<5"":4,""5-20"":56,""21-60"":51,""61-240"":38,"">240"":15}",12094.5,41.353596,-72.09397299999999,722515.0,CT,9.0,9011.0,New London County,90116905002.0
17564,sg:8a3aecc500f24270bb332f09b73d3b4c,Park Lane Pizza,CT,2019-07-01T00:00:00-04:00,2019-08-01T00:00:00-04:00,6119,167,20.0,"{""<5"":4,""5-20"":81,""21-60"":36,""61-240"":16,"">240"":30}",12088.5,41.755578,-72.72912099999999,722511.0,CT,9.0,9003.0,Hartford County,90034967003.0
17569,sg:8b3b61c083f740008545e34b4d0226c2,Adamo's Garage,CT,2019-07-01T00:00:00-04:00,2019-08-01T00:00:00-04:00,6492,2,13.5,"{""<5"":0,""5-20"":1,""21-60"":1,""61-240"":0,"">240"":0}",53.0,41.451198,-72.812096,811111.0,CT,9.0,9009.0,New Haven County,90091759004.0
17819,sg:a440fd809c7a483bbca9ac7dbb1cf1e2,Wooster Memorial Park,CT,2019-07-01T00:00:00-04:00,2019-08-01T00:00:00-04:00,6511,153,37.0,"{""<5"":2,""5-20"":52,""21-60"":40,""61-240"":37,"">240"":22}",13123.5,41.303183000000004,-72.919225,712190.0,CT,9.0,9009.0,New Haven County,90091422002.0
17857,sg:a73aefbb362e42c1b25b7d351f2545c1,Charlene Elizabeth Salon,CT,2019-07-01T00:00:00-04:00,2019-08-01T00:00:00-04:00,6492,7,122.0,"{""<5"":0,""5-20"":0,""21-60"":2,""61-240"":5,"">240"":0}",833.5,41.465070000000004,-72.819558,812112.0,CT,9.0,9009.0,New Haven County,90091754001.0
17873,sg:a85499ca572047e2a6866ea5fcb1c593,ZStrict,CT,2019-07-01T00:00:00-04:00,2019-08-01T00:00:00-04:00,6902,2138,49.0,"{""<5"":47,""5-20"":605,""21-60"":513,""61-240"":793,"">240"":180}",191003.0,41.050876,-73.516317,713910.0,CT,9.0,9001.0,Fairfield County,90010220002.0
17914,sg:ac598c75f3194834ba46607ce7f377a3,Hartford HealthCare Rehabilitation Network,CT,2019-07-01T00:00:00-04:00,2019-08-01T00:00:00-04:00,6035,42,302.0,"{""<5"":1,""5-20"":6,""21-60"":8,""61-240"":2,"">240"":25}",6702.5,41.954137,-72.786233,621340.0,CT,9.0,9003.0,Hartford County,90034681021.0
17982,sg:b2c1d4d78cd04eb3a0d49e5bb96d8731,Lincare,CT,2019-07-01T00:00:00-04:00,2019-08-01T00:00:00-04:00,6385,18,118.0,"{""<5"":0,""5-20"":3,""21-60"":4,""61-240"":6,"">240"":5}",2302.5,41.341253,-72.11985,621999.0,CT,9.0,9011.0,New London County,90116934003.0
18014,sg:b57631d8483e455b845c8c6d802d065d,Lisbon Furniture & Appliances,CT,2019-07-01T00:00:00-04:00,2019-08-01T00:00:00-04:00,6106,1,36.0,"{""<5"":0,""5-20"":0,""21-60"":1,""61-240"":0,"">240"":0}",40.5,41.7565,-72.709172,442110.0,CT,9.0,9003.0,Hartford County,90035043002.0
18309,sg:d1406df1cff6429a9261f57bca1950e3,Joe's Yellow Sub Machine,CT,2019-07-01T00:00:00-04:00,2019-08-01T00:00:00-04:00,6256,3,12.0,"{""<5"":0,""5-20"":3,""21-60"":0,""61-240"":0,"">240"":0}",37.5,41.746546,-72.16475799999999,722515.0,CT,9.0,9015.0,Windham County,90158005001.0
18414,sg:dd7596b805fc42f8b504648b764018b7,Shoreline Neuropsychiatric Services,CT,2019-07-01T00:00:00-04:00,2019-08-01T00:00:00-04:00,6460,22,19.5,"{""<5"":1,""5-20"":11,""21-60"":5,""61-240"":4,"">240"":1}",1184.5,41.21976,-73.062986,621111.0,CT,9.0,9009.0,New Haven County,90091501002.0
18448,sg:e09ec129f96c4d65a8def1d7764d9f5e,Northeast Farrier Supply,CT,2019-07-01T00:00:00-04:00,2019-08-01T00:00:00-04:00,6098,92,80.5,"{""<5"":2,""5-20"":15,""21-60"":20,""61-240"":32,"">240"":23}",11338.5,41.92349,-73.058657,451110.0,CT,9.0,9005.0,Litchfield County,90053201002.0
18571,sg:eb982ca9b77e473db02c8acb1f6babd9,Shree Skin Care,CT,2019-07-01T00:00:00-04:00,2019-08-01T00:00:00-04:00,6074,87,105.0,"{""<5"":0,""5-20"":18,""21-60"":14,""61-240"":33,"">240"":22}",11038.5,41.826231,-72.52362600000001,446120.0,CT,9.0,9003.0,Hartford County,90034872013.0
18604,sg:ee4f5e23fab84d9ca8e8051272064e65,Family Dollar Stores,CT,2019-07-01T00:00:00-04:00,2019-08-01T00:00:00-04:00,6515,289,13.0,"{""<5"":13,""5-20"":170,""21-60"":63,""61-240"":31,"">240"":12}",12254.5,41.329108000000005,-72.969538,452319.0,CT,9.0,9009.0,New Haven County,90091412003.0
18722,sg:fb136fd3600c4b56b427a4f25818a7d3,SCRANTON CHEVROLET OF NORWICH,CT,2019-07-01T00:00:00-04:00,2019-08-01T00:00:00-04:00,6360,144,23.5,"{""<5"":4,""5-20"":62,""21-60"":28,""61-240"":35,"">240"":15}",10786.5,41.496408,-72.097649,441110.0,CT,9.0,9011.0,New London County,90116967001.0
18766,sg:ffb158f422e947438db23f18246ba9da,Ultimate MMA & Jiu jitsu Training Center,CT,2019-07-01T00:00:00-04:00,2019-08-01T00:00:00-04:00,6473,121,38.0,"{""<5"":3,""5-20"":40,""21-60"":29,""61-240"":42,"">240"":7}",9683.0,41.386988,-72.873414,713940.0,CT,9.0,9009.0,New Haven County,90091671002.0
18874,sg:0839f36cbf374c9f97fee3460b3471c5,AAA Dura Glaze Bathtub Reglazing & Repairs,CT,2019-07-01T00:00:00-04:00,2019-08-01T00:00:00-04:00,6040,23,50.0,"{""<5"":1,""5-20"":6,""21-60"":5,""61-240"":9,"">240"":2}",2114.5,41.767076,-72.504971,423910.0,CT,9.0,9003.0,Hartford County,90035150002.0
19075,sg:1c5689d56c4b4439a3f2563ea9ca2a1f,Edward Jones,CT,2019-07-01T00:00:00-04:00,2019-08-01T00:00:00-04:00,6413,4,5.5,"{""<5"":0,""5-20"":3,""21-60"":1,""61-240"":0,"">240"":0}",78.0,41.271401000000004,-72.502401,523999.0,CT,9.0,9007.0,Middlesex County,90076102004.0
19077,sg:1c748cb3a8b749a9a97ab7609d922e73,BrightStar Care,CT,2019-07-01T00:00:00-04:00,2019-08-01T00:00:00-04:00,6107,10,25.5,"{""<5"":1,""5-20"":4,""21-60"":1,""61-240"":2,"">240"":2}",874.0,41.762902000000004,-72.73949,621610.0,CT,9.0,9003.0,Hartford County,90034971004.0
19084,sg:1ce7c06ba9b844caaf4fde68a09b98bc,Hill Regional Career High School,CT,2019-07-01T00:00:00-04:00,2019-08-01T00:00:00-04:00,6519,341,84.0,"{""<5"":3,""5-20"":70,""21-60"":79,""61-240"":112,"">240"":77}",39418.0,41.305659000000006,-72.941046,611110.0,CT,9.0,9009.0,New Haven County,90091406001.0
19106,sg:202fff7eecab45cbb41a147d678749e9,Imperial Nurseries,CT,2019-07-01T00:00:00-04:00,2019-08-01T00:00:00-04:00,6026,75,70.0,"{""<5"":1,""5-20"":18,""21-60"":15,""61-240"":29,"">240"":12}",8079.5,41.928688,-72.781979,811411.0,CT,9.0,9003.0,Hartford County,90034701002.0
19151,sg:249cd2f088614229ae457114314a5b6e,Kato Counseling,CT,2019-07-01T00:00:00-04:00,2019-08-01T00:00:00-04:00,6811,36,25.0,"{""<5"":0,""5-20"":12,""21-60"":14,""61-240"":6,"">240"":4}",2580.0,41.394034000000005,-73.51397800000001,621330.0,CT,9.0,9001.0,Fairfield County,90012108003.0
19165,sg:25391a575a974c8eae82e18cd41b32a1,Harbour Light Baptist Church,CT,2019-07-01T00:00:00-04:00,2019-08-01T00:00:00-04:00,6477,9,146.0,"{""<5"":0,""5-20"":1,""21-60"":1,""61-240"":3,"">240"":4}",1464.5,41.259999,-73.007961,813110.0,CT,9.0,9009.0,New Haven County,90091571001.0
19167,sg:2551183ead1f489291dfd9fc7a9816ce,Sunoco,CT,2019-07-01T00:00:00-04:00,2019-08-01T00:00:00-04:00,6902,66,13.5,"{""<5"":3,""5-20"":38,""21-60"":10,""61-240"":9,"">240"":6}",3682.0,41.047911,-73.554829,447110.0,CT,9.0,9001.0,Fairfield County,90010214003.0
19296,sg:3299fb96e0ce4d1ab733d50a38b52893,Pollack Orthodontics,CT,2019-07-01T00:00:00-04:00,2019-08-01T00:00:00-04:00,6226,202,57.0,"{""<5"":6,""5-20"":41,""21-60"":56,""61-240"":40,"">240"":59}",22975.5,41.713452000000004,-72.212866,621210.0,CT,9.0,9015.0,Windham County,90158006003.0
19359,sg:397a7e0cab41465f8f30b49460f909d9,Diamond Kings,CT,2019-07-01T00:00:00-04:00,2019-08-01T00:00:00-04:00,6010,225,61.0,"{""<5"":0,""5-20"":42,""21-60"":68,""61-240"":83,"">240"":32}",23450.5,41.685103000000005,-72.982848,713940.0,CT,9.0,9003.0,Hartford County,90034058001.0
19397,sg:3d1b07d4d4ff4251a226e2442cc1799e,Bliss Bridal,CT,2019-07-01T00:00:00-04:00,2019-08-01T00:00:00-04:00,6410,52,55.0,"{""<5"":1,""5-20"":17,""21-60"":10,""61-240"":18,"">240"":6}",4769.0,41.495465,-72.902821,448120.0,CT,9.0,9009.0,New Haven County,90093433003.0
19657,sg:5377aba9d1d747e1a0a294991dc7b3d1,Autotek,CT,2019-07-01T00:00:00-04:00,2019-08-01T00:00:00-04:00,6071,5,7.0,"{""<5"":0,""5-20"":4,""21-60"":1,""61-240"":0,"">240"":0}",90.5,41.965816,-72.456676,811111.0,CT,9.0,9013.0,Tolland County,90135382013.0
19670,sg:54e4c24b3e304c96a33c93a61dd5bc73,T Maria's,CT,2019-07-01T00:00:00-04:00,2019-08-01T00:00:00-04:00,6071,35,31.0,"{""<5"":1,""5-20"":11,""21-60"":13,""61-240"":8,"">240"":2}",2350.5,41.984895,-72.490215,722511.0,CT,9.0,9013.0,Tolland County,90135382014.0
19724,sg:59a06550c88f4f36926f50a9df5515e7,Jason Scully DDS and Francis Zaino DDS,CT,2019-07-01T00:00:00-04:00,2019-08-01T00:00:00-04:00,6824,6,551.5,"{""<5"":0,""5-20"":0,""21-60"":0,""61-240"":0,"">240"":6}",1440.0,41.139784999999996,-73.258361,621210.0,CT,9.0,9001.0,Fairfield County,90010616001.0
19749,sg:5c637033573749849b6a9d35d6bc9c32,Kbarr,CT,2019-07-01T00:00:00-04:00,2019-08-01T00:00:00-04:00,6106,92,23.0,"{""<5"":1,""5-20"":42,""21-60"":19,""61-240"":9,"">240"":21}",7691.5,41.756096,-72.713537,722511.0,CT,9.0,9003.0,Hartford County,90035043002.0
19783,sg:605390e06e9448309f010369dcc0b0e5,Minuteman Press,CT,2019-07-01T00:00:00-04:00,2019-08-01T00:00:00-04:00,6320,1,7.0,"{""<5"":0,""5-20"":1,""21-60"":0,""61-240"":0,"">240"":0}",12.5,41.354786,-72.095835,323113.0,CT,9.0,9011.0,New London County,90116905002.0
19816,sg:630c2208ca044f208b7641a04254d35d,Jarrel Photography,CT,2019-07-01T00:00:00-04:00,2019-08-01T00:00:00-04:00,6488,3,649.0,"{""<5"":0,""5-20"":0,""21-60"":0,""61-240"":0,"">240"":3}",720.0,41.428711,-73.199278,541921.0,CT,9.0,9009.0,New Haven County,90093481232.0
20003,sg:75d44f0c0c1c4baa99259c81b033f011,Associated Urologists PC,CT,2019-07-01T00:00:00-04:00,2019-08-01T00:00:00-04:00,6066,36,192.0,"{""<5"":1,""5-20"":5,""21-60"":2,""61-240"":16,"">240"":12}",5434.0,41.834157,-72.468238,621111.0,CT,9.0,9013.0,Tolland County,90135303022.0
20091,sg:7df5a151444e41c1a85324409a583011,Webster Bank,CT,2019-07-01T00:00:00-04:00,2019-08-01T00:00:00-04:00,6604,202,10.0,"{""<5"":7,""5-20"":145,""21-60"":36,""61-240"":10,"">240"":4}",5753.0,41.177853999999996,-73.187353,522110.0,CT,9.0,9001.0,Fairfield County,90010706001.0
20153,sg:832d8c47399d46fcba2165e54f3e8e34,Stamford Physical Medicine,CT,2019-07-01T00:00:00-04:00,2019-08-01T00:00:00-04:00,6905,70,71.5,"{""<5"":0,""5-20"":15,""21-60"":17,""61-240"":20,"">240"":18}",8206.0,41.064425,-73.53656,621340.0,CT,9.0,9001.0,Fairfield County,90010216004.0
20155,sg:83368eb49ade40788516fbb02d06980f,St Peter & St Andrew Coptic Orthodox Church,CT,2019-07-01T00:00:00-04:00,2019-08-01T00:00:00-04:00,6902,101,41.0,"{""<5"":4,""5-20"":27,""21-60"":25,""61-240"":21,"">240"":24}",10280.5,41.058647,-73.524147,712190.0,CT,9.0,9001.0,Fairfield County,90010218013.0
20212,sg:8862bbd72ee84a27ad12d8f360db218d,Crafters Haven,CT,2019-07-01T00:00:00-04:00,2019-08-01T00:00:00-04:00,6511,8,9.5,"{""<5"":1,""5-20"":7,""21-60"":0,""61-240"":0,"">240"":0}",90.0,41.316039,-72.90341,451130.0,CT,9.0,9009.0,New Haven County,90091424001.0
20215,sg:888e2c81e2e44574889e216f43148e4f,Officers Club of Conn,CT,2019-07-01T00:00:00-04:00,2019-08-01T00:00:00-04:00,6105,536,118.5,"{""<5"":13,""5-20"":115,""21-60"":77,""61-240"":172,"">240"":159}",68634.5,41.764972,-72.685806,721110.0,CT,9.0,9003.0,Hartford County,90035021002.0
20441,sg:a066864453274548826dee838ac0fa68,Subway,CT,2019-07-01T00:00:00-04:00,2019-08-01T00:00:00-04:00,6357,447,49.0,"{""<5"":5,""5-20"":135,""21-60"":106,""61-240"":172,"">240"":29}",38839.0,41.323305,-72.19433199999999,722513.0,CT,9.0,9011.0,New London County,90118707042.0
20492,sg:a60b9ecea1b544e18ae496226b4f5b53,County Mall,CT,2019-07-01T00:00:00-04:00,2019-08-01T00:00:00-04:00,6851,503,40.0,"{""<5"":6,""5-20"":167,""21-60"":158,""61-240"":143,"">240"":29}",36983.0,41.124132,-73.396103,531120.0,CT,9.0,9001.0,Fairfield County,90010435002.0
20564,sg:acea5836dc994ce3a32237b3148584e1,Inner Healing Therapy,CT,2019-07-01T00:00:00-04:00,2019-08-01T00:00:00-04:00,6067,8,25.5,"{""<5"":0,""5-20"":2,""21-60"":6,""61-240"":0,"">240"":0}",268.0,41.655485,-72.681478,621330.0,CT,9.0,9003.0,Hartford County,90034903022.0
20614,sg:b226cdd742b440d49e4d361fdf6739bc,Seymour Historical Society,CT,2019-07-01T00:00:00-04:00,2019-08-01T00:00:00-04:00,6483,10,10.5,"{""<5"":0,""5-20"":8,""21-60"":2,""61-240"":0,"">240"":0}",181.0,41.394116,-73.079565,712120.0,CT,9.0,9009.0,New Haven County,90091302002.0
20624,sg:b33dfc94ebec40f6a3797db267bbf621,StonePost Bakery Cafe,CT,2019-07-01T00:00:00-04:00,2019-08-01T00:00:00-04:00,6001,14,20.5,"{""<5"":1,""5-20"":6,""21-60"":3,""61-240"":1,"">240"":3}",1069.5,41.814187,-72.856437,722515.0,CT,9.0,9003.0,Hartford County,90034622011.0
20660,sg:b6885d87384c4f52bdcd05656eadcc88,Seventh Day Adventist Church Calvary,CT,2019-07-01T00:00:00-04:00,2019-08-01T00:00:00-04:00,6606,7,15.0,"{""<5"":0,""5-20"":5,""21-60"":1,""61-240"":1,"">240"":0}",253.5,41.218647,-73.201584,813110.0,CT,9.0,9001.0,Fairfield County,90010728002.0
20891,sg:cc4a8cfa08fd4731bc19de25b2b71de4,Midstate Tractor & Equipment,CT,2019-07-01T00:00:00-04:00,2019-08-01T00:00:00-04:00,6457,89,11.0,"{""<5"":5,""5-20"":56,""21-60"":22,""61-240"":3,"">240"":3}",2775.0,41.541295,-72.652422,444130.0,CT,9.0,9007.0,Middlesex County,90075420003.0
20919,sg:cf2acd658edd4b1992003a2644e5c381,Dumas Tree Farm,CT,2019-07-01T00:00:00-04:00,2019-08-01T00:00:00-04:00,6455,2,35.0,"{""<5"":0,""5-20"":1,""21-60"":0,""61-240"":1,"">240"":0}",163.0,41.497671000000004,-72.684382,111421.0,CT,9.0,9007.0,Middlesex County,90075801004.0
20940,sg:d12eb8619e9247b68ec7bde9b80b5457,Shoreline Quick Lube And Car Wash,CT,2019-07-01T00:00:00-04:00,2019-08-01T00:00:00-04:00,6475,182,19.5,"{""<5"":3,""5-20"":92,""21-60"":51,""61-240"":12,"">240"":24}",10789.0,41.286833,-72.411173,811111.0,CT,9.0,9007.0,Middlesex County,90076701002.0
21209,sg:ecd373406b7949eea8f5475791ccef13,Carini's Restaurant,CT,2019-07-01T00:00:00-04:00,2019-08-01T00:00:00-04:00,6492,67,19.0,"{""<5"":3,""5-20"":33,""21-60"":19,""61-240"":12,"">240"":0}",2995.5,41.448122999999995,-72.802835,722511.0,CT,9.0,9009.0,New Haven County,90091759003.0
21332,sg:fb2f429b1d304c478bc86cc680e99560,Il Panino Eatery & Bakery,CT,2019-07-01T00:00:00-04:00,2019-08-01T00:00:00-04:00,6450,1,612.0,"{""<5"":0,""5-20"":0,""21-60"":0,""61-240"":0,"">240"":1}",240.0,41.541940000000004,-72.79091700000001,722511.0,CT,9.0,9009.0,New Haven County,90091714001.0
21377,sg:0029951baf2a4a4a9346c1d54eb3db0b,Dragon East,CT,2019-07-01T00:00:00-04:00,2019-08-01T00:00:00-04:00,6405,70,16.0,"{""<5"":4,""5-20"":35,""21-60"":21,""61-240"":5,"">240"":5}",3250.5,41.286776,-72.816924,722511.0,CT,9.0,9009.0,New Haven County,90091841005.0
21390,sg:01239a8876ca41458c46fa2554c6590d,Dunkin',CT,2019-07-01T00:00:00-04:00,2019-08-01T00:00:00-04:00,6880,122,6.0,"{""<5"":17,""5-20"":79,""21-60"":14,""61-240"":9,"">240"":3}",3671.5,41.138872,-73.311001,722515.0,CT,9.0,9001.0,Fairfield County,90010503003.0
21547,sg:0e40cb87854a48fbb0828b9c215214ea,Dolly Madison Inn & Restaurant,CT,2019-07-01T00:00:00-04:00,2019-08-01T00:00:00-04:00,6443,568,43.0,"{""<5"":6,""5-20"":110,""21-60"":288,""61-240"":150,"">240"":14}",38989.0,41.272107,-72.60759499999999,721110.0,CT,9.0,9009.0,New Haven County,90091941005.0
21627,sg:146d36e665da42c18ff82b8818058fe8,Exxon Fuels Lindstedt Oil Co,CT,2019-07-01T00:00:00-04:00,2019-08-01T00:00:00-04:00,6776,25,10.0,"{""<5"":1,""5-20"":12,""21-60"":6,""61-240"":6,"">240"":0}",1298.5,41.579744,-73.41723,447110.0,CT,9.0,9005.0,Litchfield County,90052536002.0
21685,sg:186240ee8c6d49e59bf60f38185b1dc5,Breiner Whole Body Health Center,CT,2019-07-01T00:00:00-04:00,2019-08-01T00:00:00-04:00,6825,13,498.0,"{""<5"":0,""5-20"":2,""21-60"":1,""61-240"":0,"">240"":10}",2465.5,41.17219,-73.228086,621210.0,CT,9.0,9001.0,Fairfield County,90010614001.0
21693,sg:1954c544c350494faab8986355d3bd47,Dollar General,CT,2019-07-01T00:00:00-04:00,2019-08-01T00:00:00-04:00,6063,153,10.0,"{""<5"":6,""5-20"":111,""21-60"":28,""61-240"":5,"">240"":3}",4009.0,41.909929,-73.044605,452319.0,CT,9.0,9005.0,Litchfield County,90052901003.0
21703,sg:19fd155c574d40e889a85a3586c002a9,Barnum Benefit Advisors,CT,2019-07-01T00:00:00-04:00,2019-08-01T00:00:00-04:00,6484,271,142.0,"{""<5"":2,""5-20"":46,""21-60"":34,""61-240"":123,"">240"":66}",36308.5,41.275534,-73.127204,524210.0,CT,9.0,9001.0,Fairfield County,90011103022.0
21785,sg:22c3e3fc5e534f2f8b9b2fb65eaece5c,Shell Oil,CT,2019-07-01T00:00:00-04:00,2019-08-01T00:00:00-04:00,6854,222,11.0,"{""<5"":9,""5-20"":120,""21-60"":28,""61-240"":24,"">240"":41}",16108.5,41.105249,-73.419978,447110.0,CT,9.0,9001.0,Fairfield County,90010440001.0
21847,sg:29a5212ab0b649ff884286a3d2ebe5e6,Breakwater Books,CT,2019-07-01T00:00:00-04:00,2019-08-01T00:00:00-04:00,6437,348,23.0,"{""<5"":11,""5-20"":127,""21-60"":147,""61-240"":39,"">240"":24}",19198.0,41.281372,-72.682041,451211.0,CT,9.0,9009.0,New Haven County,90091901001.0
21909,sg:2fcb85cb6ae44299b884b12af07d1f2e,Middlesex Hospital Marlborough Medical Center,CT,2019-07-01T00:00:00-04:00,2019-08-01T00:00:00-04:00,6447,119,95.0,"{""<5"":1,""5-20"":27,""21-60"":27,""61-240"":31,"">240"":33}",14019.0,41.633565000000004,-72.46038399999999,623312.0,CT,9.0,9003.0,Hartford County,90035241004.0
21935,sg:32945d1801fb45e89f6917c21360bed8,Ren Dumpling & Noodle House,CT,2019-07-01T00:00:00-04:00,2019-08-01T00:00:00-04:00,6897,27,41.0,"{""<5"":2,""5-20"":9,""21-60"":15,""61-240"":1,"">240"":0}",875.5,41.161429999999996,-73.41793100000001,722511.0,CT,9.0,9001.0,Fairfield County,90010454002.0
21992,sg:376a733505064d67877394589b5eaa11,BJ's Wholesale Club,CT,2019-07-01T00:00:00-04:00,2019-08-01T00:00:00-04:00,6614,1974,22.0,"{""<5"":40,""5-20"":819,""21-60"":891,""61-240"":179,"">240"":45}",84162.5,41.20282,-73.11279499999999,452319.0,CT,9.0,9001.0,Fairfield County,90010808001.0
21995,sg:37916c238d804b4db70c4d215c9c9437,Hallmark Cards,CT,2019-07-01T00:00:00-04:00,2019-08-01T00:00:00-04:00,6019,195,22.0,"{""<5"":5,""5-20"":80,""21-60"":79,""61-240"":27,"">240"":4}",9235.5,41.821785,-72.880054,453220.0,CT,9.0,9003.0,Hartford County,90034641023.0
22078,sg:4032abbb3a0d4012866c099917495fff,St Patrick Church Religous Education,CT,2019-07-01T00:00:00-04:00,2019-08-01T00:00:00-04:00,6355,53,31.0,"{""<5"":0,""5-20"":24,""21-60"":7,""61-240"":21,"">240"":1}",3984.0,41.353839,-71.96526800000001,813110.0,CT,9.0,9011.0,New London County,90117053002.0
22156,sg:4654ec7b83054bd98def643ca025f69f,Jw Home Construction,CT,2019-07-01T00:00:00-04:00,2019-08-01T00:00:00-04:00,6513,195,111.0,"{""<5"":5,""5-20"":38,""21-60"":38,""61-240"":37,"">240"":77}",26075.0,41.307142,-72.897315,621610.0,CT,9.0,9009.0,New Haven County,90091423004.0
22297,sg:52f3238b07c2485d9db4e1d0353e9321,Phillips 66,CT,2019-07-01T00:00:00-04:00,2019-08-01T00:00:00-04:00,6479,5,5.0,"{""<5"":2,""5-20"":3,""21-60"":0,""61-240"":0,"">240"":0}",42.5,41.562504,-72.872437,447110.0,CT,9.0,9003.0,Hartford County,90034303011.0
22337,sg:5686509ba3144c17bbbe8accce54c998,Charles Cheney Inn,CT,2019-07-01T00:00:00-04:00,2019-08-01T00:00:00-04:00,6040,8,16.0,"{""<5"":0,""5-20"":4,""21-60"":3,""61-240"":1,"">240"":0}",322.0,41.765803000000005,-72.526337,721110.0,CT,9.0,9003.0,Hartford County,90035147003.0
22375,sg:59f11c5037b14a709185428553396151,Michael Reiss LMFT PhD,CT,2019-07-01T00:00:00-04:00,2019-08-01T00:00:00-04:00,6492,3,30.0,"{""<5"":0,""5-20"":1,""21-60"":1,""61-240"":1,"">240"":0}",203.5,41.439735,-72.750463,621330.0,CT,9.0,9009.0,New Haven County,90091760003.0
22401,sg:5d03472eb86f4c5787d02ebecdc7b16d,Walgreens,CT,2019-07-01T00:00:00-04:00,2019-08-01T00:00:00-04:00,6053,240,9.0,"{""<5"":15,""5-20"":162,""21-60"":33,""61-240"":18,"">240"":12}",8988.0,41.68392,-72.76804399999999,446110.0,CT,9.0,9003.0,Hartford County,90034168001.0
22437,sg:605c2f4fabdd41c9ba4756b5c3844ae9,Jos. A. Bank Clothiers,CT,2019-07-01T00:00:00-04:00,2019-08-01T00:00:00-04:00,6033,111,43.0,"{""<5"":1,""5-20"":32,""21-60"":41,""61-240"":28,"">240"":9}",8437.0,41.719808,-72.620991,448110.0,CT,9.0,9003.0,Hartford County,90035203022.0
22452,sg:618bb7e1d3f742419d311ae9c83507b6,Recreation Commission,CT,2019-07-01T00:00:00-04:00,2019-08-01T00:00:00-04:00,6880,8,22.5,"{""<5"":0,""5-20"":4,""21-60"":2,""61-240"":2,"">240"":0}",432.0,41.117665,-73.319204,712190.0,CT,9.0,9001.0,Fairfield County,90010506002.0
22499,sg:66d158d2358b42fba96cdc5a92ac4e42,T.J. Maxx,CT,2019-07-01T00:00:00-04:00,2019-08-01T00:00:00-04:00,6109,844,22.0,"{""<5"":8,""5-20"":329,""21-60"":400,""61-240"":80,"">240"":27}",38852.5,41.692336,-72.657749,452210.0,CT,9.0,9003.0,Hartford County,90034926001.0
22638,sg:7261d038ad394b45977d3dcc8885ce03,Stafford Fun Club,CT,2019-07-01T00:00:00-04:00,2019-08-01T00:00:00-04:00,6010,8,20.5,"{""<5"":0,""5-20"":4,""21-60"":3,""61-240"":1,"">240"":0}",322.0,41.688579,-72.917732,624410.0,CT,9.0,9003.0,Hartford County,90034052002.0
22690,sg:77ef23bf51a74e1dbd78c3e67b662f89,0degree Thai Ice Cream,CT,2019-07-01T00:00:00-04:00,2019-08-01T00:00:00-04:00,6119,136,24.0,"{""<5"":2,""5-20"":54,""21-60"":49,""61-240"":17,"">240"":14}",8583.0,41.757773,-72.720075,722515.0,CT,9.0,9003.0,Hartford County,90034969003.0
22918,sg:8e5be82f05d54d66b86bae0a82bcd2c5,Webster Bank,CT,2019-07-01T00:00:00-04:00,2019-08-01T00:00:00-04:00,6514,3,192.0,"{""<5"":0,""5-20"":0,""21-60"":1,""61-240"":1,"">240"":1}",431.0,41.346765000000005,-72.934446,522110.0,CT,9.0,9009.0,New Haven County,90091656004.0
22992,sg:946c95af72a443a2a2d8d7d228ed9575,Blackledge Soccer Field,CT,2019-07-01T00:00:00-04:00,2019-08-01T00:00:00-04:00,6447,32,29.0,"{""<5"":0,""5-20"":13,""21-60"":8,""61-240"":11,"">240"":0}",2142.0,41.668693,-72.462963,451140.0,CT,9.0,9003.0,Hartford County,90035241002.0
23080,sg:9c9e0d1f16ea48e88694af1346057f7d,La Piccolina,CT,2019-07-01T00:00:00-04:00,2019-08-01T00:00:00-04:00,6776,213,12.0,"{""<5"":11,""5-20"":129,""21-60"":23,""61-240"":36,"">240"":14}",11349.5,41.578041999999996,-73.411488,722511.0,CT,9.0,9005.0,Litchfield County,90052536002.0
23086,sg:9d6ed6de29c9495aba8645aa7af40bb0,Sutton Dental,CT,2019-07-01T00:00:00-04:00,2019-08-01T00:00:00-04:00,6511,3,784.0,"{""<5"":0,""5-20"":0,""21-60"":1,""61-240"":0,"">240"":2}",520.5,41.314306,-72.93771600000001,621210.0,CT,9.0,9009.0,New Haven County,90091407005.0
23094,sg:9e13912aa61749d5b1e6dda17cd2e806,CubeSmart,CT,2019-07-01T00:00:00-04:00,2019-08-01T00:00:00-04:00,6514,31,31.0,"{""<5"":0,""5-20"":9,""21-60"":14,""61-240"":4,"">240"":4}",2241.5,41.40247,-72.915702,531130.0,CT,9.0,9009.0,New Haven County,90091659004.0
23102,sg:9f23cf7f09ab4b8f96ea34857739efff,UBS,CT,2019-07-01T00:00:00-04:00,2019-08-01T00:00:00-04:00,6103,2,327.0,"{""<5"":0,""5-20"":0,""21-60"":0,""61-240"":1,"">240"":1}",390.5,41.767127,-72.672632,522110.0,CT,9.0,9003.0,Hartford County,90035021002.0
23131,sg:a221da2fba73438f9d8e88143f43f91d,St Lawrence Cemetery,CT,2019-07-01T00:00:00-04:00,2019-08-01T00:00:00-04:00,6516,173,30.0,"{""<5"":4,""5-20"":68,""21-60"":68,""61-240"":33,"">240"":0}",8580.5,41.309667,-72.961904,812210.0,,,,,
23146,sg:a3c2c990f0d242a18b1313c01bd90986,Buy Rite Liquors,CT,2019-07-01T00:00:00-04:00,2019-08-01T00:00:00-04:00,6109,140,14.0,"{""<5"":10,""5-20"":70,""21-60"":30,""61-240"":21,"">240"":9}",7435.5,41.701927000000005,-72.65949499999999,445310.0,CT,9.0,9003.0,Hartford County,90034922002.0
23194,sg:a7ddc56811ba4ef38bf25805fbb032db,Bunting and Somma Ameriprise Financial Services,CT,2019-07-01T00:00:00-04:00,2019-08-01T00:00:00-04:00,6890,3,10.0,"{""<5"":0,""5-20"":2,""21-60"":1,""61-240"":0,"">240"":0}",65.5,41.139497,-73.274912,523930.0,CT,9.0,9001.0,Fairfield County,90010606001.0
23199,sg:a81717561a3f4a22a6ac48710507efe8,Calvary Baptist Church,CT,2019-07-01T00:00:00-04:00,2019-08-01T00:00:00-04:00,6096,117,79.0,"{""<5"":2,""5-20"":21,""21-60"":29,""61-240"":55,"">240"":10}",12119.5,41.926632,-72.660374,813110.0,CT,9.0,9003.0,Hartford County,90034762001.0
23201,sg:a83b93d9963b4f14b432a6da623b4dbf,BRBG Insurance,CT,2019-07-01T00:00:00-04:00,2019-08-01T00:00:00-04:00,6484,2,505.0,"{""<5"":0,""5-20"":0,""21-60"":0,""61-240"":0,"">240"":2}",480.0,41.267595,-73.128498,524210.0,CT,9.0,9001.0,Fairfield County,90011103022.0
23225,sg:a9a54eca858c46c79969d419517bf297,C&C Delicatessen,CT,2019-07-01T00:00:00-04:00,2019-08-01T00:00:00-04:00,6810,102,8.0,"{""<5"":12,""5-20"":66,""21-60"":11,""61-240"":8,"">240"":5}",3704.5,41.404589,-73.459386,722511.0,CT,9.0,9001.0,Fairfield County,90012101001.0
23332,sg:b3390f9f22c4458ab17cf23f3fdaf591,Navy Federal Credit Union Restricted Access,CT,2019-07-01T00:00:00-04:00,2019-08-01T00:00:00-04:00,6340,401,86.0,"{""<5"":4,""5-20"":109,""21-60"":58,""61-240"":102,"">240"":128}",49792.5,41.3903,-72.080738,522110.0,CT,9.0,9011.0,New London County,90119800001.0
23352,sg:b516055942a64f2a98acf8e9309e17fd,North Town Center,CT,2019-07-01T00:00:00-04:00,2019-08-01T00:00:00-04:00,6614,2405,20.0,"{""<5"":52,""5-20"":1154,""21-60"":885,""61-240"":218,"">240"":96}",106246.5,41.232116,-73.14850200000001,531120.0,CT,9.0,9001.0,Fairfield County,90010811003.0
23354,sg:b5350ef6226d4cd99ad97ea61927fbf3,Medical Laser Systems,CT,2019-07-01T00:00:00-04:00,2019-08-01T00:00:00-04:00,6405,4,16.0,"{""<5"":0,""5-20"":3,""21-60"":0,""61-240"":1,"">240"":0}",188.0,41.307227000000005,-72.756738,621111.0,CT,9.0,9009.0,New Haven County,90091847001.0
23356,sg:b5420024af89446b842cf9f93618e808,Bristol Pizza Restaurant,CT,2019-07-01T00:00:00-04:00,2019-08-01T00:00:00-04:00,6010,192,32.5,"{""<5"":5,""5-20"":64,""21-60"":64,""61-240"":31,"">240"":28}",14790.0,41.67521,-72.950549,722511.0,CT,9.0,9003.0,Hartford County,90034057002.0
23385,sg:b87712db559c40539d413b45ef7b8964,Achieve,CT,2019-07-01T00:00:00-04:00,2019-08-01T00:00:00-04:00,6117,22,126.0,"{""<5"":0,""5-20"":0,""21-60"":4,""61-240"":13,"">240"":5}",3318.5,41.800042,-72.750546,611110.0,CT,9.0,9003.0,Hartford County,90034975002.0
23417,sg:bbc06f660a7d4045b4d6e6691fed64af,Best Buy Auto,CT,2019-07-01T00:00:00-04:00,2019-08-01T00:00:00-04:00,6457,63,113.0,"{""<5"":2,""5-20"":18,""21-60"":7,""61-240"":11,"">240"":25}",8169.0,41.589873,-72.67511999999999,441120.0,CT,9.0,9007.0,Middlesex County,90075412001.0
23422,sg:bbe5feb48ef1446c8be1a9b9988de429,Cove Landing Marine,CT,2019-07-01T00:00:00-04:00,2019-08-01T00:00:00-04:00,6371,22,35.5,"{""<5"":1,""5-20"":8,""21-60"":5,""61-240"":5,"">240"":3}",1777.5,41.38534,-72.350946,441222.0,CT,9.0,9011.0,New London County,90116501001.0
23564,sg:cbc61d38038041848e3d65027cecd288,Kingdom Way Pentecostal Church,CT,2019-07-01T00:00:00-04:00,2019-08-01T00:00:00-04:00,6810,102,72.0,"{""<5"":3,""5-20"":25,""21-60"":20,""61-240"":48,"">240"":6}",9794.0,41.397698999999996,-73.460298,813110.0,CT,9.0,9001.0,Fairfield County,90012107012.0
23585,sg:ce26c308b29e4a1993a71b19d4ef82f4,Granby Historical Marker,CT,2019-07-01T00:00:00-04:00,2019-08-01T00:00:00-04:00,6035,8,12.0,"{""<5"":0,""5-20"":6,""21-60"":0,""61-240"":2,"">240"":0}",376.0,41.945904999999996,-72.789948,712120.0,CT,9.0,9003.0,Hartford County,90034681022.0
23611,sg:d0a07a29d9a04064a04a06c0925af641,Timeless By Erika Bessette,CT,2019-07-01T00:00:00-04:00,2019-08-01T00:00:00-04:00,6467,1,24.0,"{""<5"":0,""5-20"":0,""21-60"":1,""61-240"":0,"">240"":0}",40.5,41.565427,-72.90000500000001,812112.0,CT,9.0,9003.0,Hartford County,90034304002.0
23882,sg:ea0f8a1d2f484d5ba121026e51df362c,People's Choice,CT,2019-07-01T00:00:00-04:00,2019-08-01T00:00:00-04:00,6040,31,13.0,"{""<5"":0,""5-20"":20,""21-60"":8,""61-240"":2,"">240"":1}",1115.0,41.782540999999995,-72.532657,722511.0,CT,9.0,9003.0,Hartford County,90035144004.0
23888,sg:ea88d5f73c124f76b2af6c1d82a65ac2,Happy Nails 2,CT,2019-07-01T00:00:00-04:00,2019-08-01T00:00:00-04:00,6226,5,11.0,"{""<5"":0,""5-20"":3,""21-60"":0,""61-240"":0,"">240"":2}",517.5,41.712193,-72.21445200000001,812113.0,CT,9.0,9015.0,Windham County,90158006003.0
24074,sg:ff2aec26333b459786a6614d2ee0ef01,Christ Church Episcopal,CT,2019-07-01T00:00:00-04:00,2019-08-01T00:00:00-04:00,6069,1,50.0,"{""<5"":0,""5-20"":0,""21-60"":1,""61-240"":0,"">240"":0}",40.5,41.879146999999996,-73.47711,813110.0,CT,9.0,9005.0,Litchfield County,90052621002.0
24086,sg:002224842aba48d4b62fbb70204001d3,Chart Radiator Service,CT,2019-07-01T00:00:00-04:00,2019-08-01T00:00:00-04:00,6514,127,100.0,"{""<5"":0,""5-20"":16,""21-60"":24,""61-240"":73,"">240"":14}",15518.5,41.364296,-72.927104,811111.0,CT,9.0,9009.0,New Haven County,90091656001.0
24089,sg:005e0663e0cc4aa2b3626d318d64778a,United States Life Insurance Company,CT,2019-07-01T00:00:00-04:00,2019-08-01T00:00:00-04:00,6082,30,261.0,"{""<5"":0,""5-20"":0,""21-60"":0,""61-240"":9,"">240"":21}",6394.5,41.985257,-72.511666,524210.0,CT,9.0,9003.0,Hartford County,90034809002.0
24105,sg:01b17ee33d49404fa5cf69fa58cc0bb3,Fresh Yoga,CT,2019-07-01T00:00:00-04:00,2019-08-01T00:00:00-04:00,6513,83,29.0,"{""<5"":6,""5-20"":29,""21-60"":17,""61-240"":24,"">240"":7}",6358.0,41.316288,-72.899734,713940.0,CT,9.0,9009.0,New Haven County,90091424001.0
24256,sg:11432fc58bf54e3ab88667700e520822,Jacques Pittman YB Realty,CT,2019-07-01T00:00:00-04:00,2019-08-01T00:00:00-04:00,6461,1,15.0,"{""<5"":0,""5-20"":1,""21-60"":0,""61-240"":0,"">240"":0}",12.5,41.225671999999996,-73.07968100000001,531210.0,CT,9.0,9009.0,New Haven County,90091506002.0
24439,sg:212191a5054a43708d8e5832656a1e5e,Dreams Nail & Spa,CT,2019-07-01T00:00:00-04:00,2019-08-01T00:00:00-04:00,6830,1,514.0,"{""<5"":0,""5-20"":0,""21-60"":0,""61-240"":0,"">240"":1}",240.0,41.021225,-73.631023,812113.0,CT,9.0,9001.0,Fairfield County,90010105001.0
24468,sg:248f1280096f4579b154fdc832f9611e,Childrens Neurology Services,CT,2019-07-01T00:00:00-04:00,2019-08-01T00:00:00-04:00,6457,29,23.0,"{""<5"":0,""5-20"":10,""21-60"":15,""61-240"":1,"">240"":3}",1603.0,41.5467,-72.634738,621111.0,CT,9.0,9007.0,Middlesex County,90075420001.0
24513,sg:2859a5d87edb46daaa2c4a1a47d5043b,Meadow Street Park,CT,2019-07-01T00:00:00-04:00,2019-08-01T00:00:00-04:00,6854,247,31.0,"{""<5"":7,""5-20"":95,""21-60"":57,""61-240"":60,"">240"":28}",19263.5,41.088402,-73.41775799999999,712190.0,CT,9.0,9001.0,Fairfield County,90010444001.0
24804,sg:44ba1ddc67c04c0e883956b58bd24b1d,Mattress Firm,CT,2019-07-01T00:00:00-04:00,2019-08-01T00:00:00-04:00,6902,2,8.5,"{""<5"":0,""5-20"":2,""21-60"":0,""61-240"":0,"">240"":0}",25.0,41.048531,-73.563819,442110.0,CT,9.0,9001.0,Fairfield County,90010214003.0
24843,sg:485a4177a5da4af2901c4fd65de1df71,Marlborough Pizza,CT,2019-07-01T00:00:00-04:00,2019-08-01T00:00:00-04:00,6447,298,38.0,"{""<5"":6,""5-20"":92,""21-60"":122,""61-240"":52,"">240"":26}",20172.0,41.629317,-72.46229,722511.0,CT,9.0,9003.0,Hartford County,90035241004.0
24854,sg:4998cc871b944a7184e1dd4ba00c74fd,Stonington Borough Fire Department,CT,2019-07-01T00:00:00-04:00,2019-08-01T00:00:00-04:00,6378,103,10.0,"{""<5"":2,""5-20"":66,""21-60"":17,""61-240"":13,"">240"":5}",4675.0,41.337839,-71.906533,922160.0,CT,9.0,9011.0,New London County,90117052002.0
24964,sg:5675072c5b7e4c0ea5abd1a960a50679,Connecticut State Police Troop A,CT,2019-07-01T00:00:00-04:00,2019-08-01T00:00:00-04:00,6488,151,68.0,"{""<5"":2,""5-20"":38,""21-60"":33,""61-240"":40,"">240"":38}",16956.5,41.456558,-73.234473,922120.0,CT,9.0,9009.0,New Haven County,90093481231.0
25098,sg:640f4213d4604811bec2bbecc7806772,Federal Hill Financial,CT,2019-07-01T00:00:00-04:00,2019-08-01T00:00:00-04:00,6010,134,202.0,"{""<5"":1,""5-20"":17,""21-60"":18,""61-240"":39,"">240"":59}",20973.5,41.678289,-72.944317,621210.0,CT,9.0,9003.0,Hartford County,90034061001.0
25100,sg:64299485a0cc40f6b07881d784815693,Webster Bank,CT,2019-07-01T00:00:00-04:00,2019-08-01T00:00:00-04:00,6790,77,6.0,"{""<5"":7,""5-20"":54,""21-60"":5,""61-240"":4,"">240"":7}",3177.0,41.815212,-73.094511,522110.0,CT,9.0,9005.0,Litchfield County,90053105002.0
25198,sg:6e1f5a5268264ca08e99efd9439c6c6d,Wilton Hospital For Animals PC,CT,2019-07-01T00:00:00-04:00,2019-08-01T00:00:00-04:00,6897,1,193.0,"{""<5"":0,""5-20"":0,""21-60"":0,""61-240"":1,"">240"":0}",150.5,41.186931,-73.42423000000001,541940.0,CT,9.0,9001.0,Fairfield County,90010452002.0
25270,sg:742bd613aa394805a84e32d9b7717a65,Preston Trading Post,CT,2019-07-01T00:00:00-04:00,2019-08-01T00:00:00-04:00,6365,25,34.0,"{""<5"":0,""5-20"":7,""21-60"":7,""61-240"":4,"">240"":7}",2653.0,41.535469,-71.930474,442110.0,CT,9.0,9011.0,New London County,90117001001.0
25329,sg:7a0fd29e99e44c4ab2fd882205d3cafb,Essentials For The Special Woman,CT,2019-07-01T00:00:00-04:00,2019-08-01T00:00:00-04:00,6066,48,10.0,"{""<5"":0,""5-20"":31,""21-60"":9,""61-240"":8,"">240"":0}",1956.0,41.816666999999995,-72.50326,448120.0,CT,9.0,9013.0,Tolland County,90135305002.0
25350,sg:7bbcb84a2ece4818927046f98fb54dfa,Post Road Plaza,CT,2019-07-01T00:00:00-04:00,2019-08-01T00:00:00-04:00,6820,1119,16.0,"{""<5"":59,""5-20"":604,""21-60"":347,""61-240"":56,"">240"":53}",42899.0,41.084226,-73.461949,531120.0,CT,9.0,9001.0,Fairfield County,90010302001.0
25369,sg:7d273a72f8e24d219127811e44dd83b6,Kim's Gift Shop,CT,2019-07-01T00:00:00-04:00,2019-08-01T00:00:00-04:00,6002,460,17.5,"{""<5"":4,""5-20"":254,""21-60"":178,""61-240"":23,"">240"":1}",14095.5,41.815697,-72.713279,453220.0,CT,9.0,9003.0,Hartford County,90034712002.0
25538,sg:8ed99f30355b4bb2a13b556f80acdd6e,Dixie Donuts,CT,2019-07-01T00:00:00-04:00,2019-08-01T00:00:00-04:00,6360,102,9.0,"{""<5"":5,""5-20"":66,""21-60"":15,""61-240"":8,"">240"":8}",4569.0,41.557885999999996,-72.11477,722515.0,CT,9.0,9011.0,New London County,90116962003.0
25546,sg:8ff48407061e4840a0d79cee8658c5be,Artisan Vapor Company,CT,2019-07-01T00:00:00-04:00,2019-08-01T00:00:00-04:00,6111,25,18.0,"{""<5"":1,""5-20"":15,""21-60"":7,""61-240"":1,"">240"":1}",864.0,41.682214,-72.711585,444120.0,CT,9.0,9003.0,Hartford County,90034941004.0
25591,sg:944842bc9f0147099188140ed6abd554,My Italian Fig Tree,CT,2019-07-01T00:00:00-04:00,2019-08-01T00:00:00-04:00,6460,19,81.0,"{""<5"":2,""5-20"":3,""21-60"":1,""61-240"":10,"">240"":3}",2308.0,41.198311,-73.099875,811411.0,CT,9.0,9009.0,New Haven County,90091505002.0
25609,sg:959afb91eb904847881fb5c651b741c3,Sweet Basil,CT,2019-07-01T00:00:00-04:00,2019-08-01T00:00:00-04:00,6062,24,42.5,"{""<5"":0,""5-20"":8,""21-60"":9,""61-240"":7,"">240"":0}",1518.0,41.671958000000004,-72.860233,722511.0,CT,9.0,9003.0,Hartford County,90034205004.0
25759,sg:a3a7e08441c941c3939f3cf1e61b8d62,Le Pain Quotidien,CT,2019-07-01T00:00:00-04:00,2019-08-01T00:00:00-04:00,6840,163,42.0,"{""<5"":1,""5-20"":39,""21-60"":63,""61-240"":39,"">240"":21}",13951.0,41.147017,-73.493841,722513.0,CT,9.0,9001.0,Fairfield County,90010351003.0
25814,sg:aa66136497b14ce2b95af34b766ae07f,Belltown Hill Orchards,CT,2019-07-01T00:00:00-04:00,2019-08-01T00:00:00-04:00,6073,165,12.0,"{""<5"":7,""5-20"":108,""21-60"":35,""61-240"":15,"">240"":0}",5042.5,41.651498,-72.576263,445110.0,CT,9.0,9003.0,Hartford County,90035205012.0
25860,sg:aeb822f1326749c39412701fef285da3,Greenwich Florist,CT,2019-07-01T00:00:00-04:00,2019-08-01T00:00:00-04:00,6830,95,20.0,"{""<5"":2,""5-20"":49,""21-60"":17,""61-240"":12,"">240"":15}",6712.0,41.039823,-73.596936,453110.0,CT,9.0,9001.0,Fairfield County,90010108004.0
25867,sg:afcd6b2cbbbf484592eae5ade16b367a,Bell Glass Service,CT,2019-07-01T00:00:00-04:00,2019-08-01T00:00:00-04:00,6066,39,18.0,"{""<5"":1,""5-20"":20,""21-60"":11,""61-240"":7,"">240"":0}",1751.5,41.852934999999995,-72.48304,444120.0,CT,9.0,9013.0,Tolland County,90135303013.0
25903,sg:b37e2bc3484348b0a316cab498690e1e,Prushko's Tire & Propane Gas,CT,2019-07-01T00:00:00-04:00,2019-08-01T00:00:00-04:00,6468,35,17.0,"{""<5"":2,""5-20"":18,""21-60"":5,""61-240"":4,"">240"":6}",2474.5,41.318613,-73.214078,447110.0,CT,9.0,9001.0,Fairfield County,90011002001.0
25977,sg:ba15efa3dbdd484b90594f0f406ab14b,Beijing Chinese Restaurant,CT,2019-07-01T00:00:00-04:00,2019-08-01T00:00:00-04:00,6810,58,10.0,"{""<5"":2,""5-20"":48,""21-60"":8,""61-240"":0,"">240"":0}",929.0,41.399188,-73.440719,722511.0,CT,9.0,9001.0,Fairfield County,90012102002.0
25980,sg:ba6d0ee7e16849be9d39b32e951694d4,Tony D's Craft Creamery,CT,2019-07-01T00:00:00-04:00,2019-08-01T00:00:00-04:00,6357,416,20.0,"{""<5"":10,""5-20"":200,""21-60"":160,""61-240"":26,"">240"":20}",17718.0,41.321957,-72.20003100000001,722511.0,CT,9.0,9011.0,New London County,90118707042.0
26083,sg:c3bcc2c2ff984d7081dd3c73c9abcff6,The Learning Experience,CT,2019-07-01T00:00:00-04:00,2019-08-01T00:00:00-04:00,6519,171,64.0,"{""<5"":4,""5-20"":63,""21-60"":17,""61-240"":47,"">240"":40}",18159.5,41.306798,-72.941154,624410.0,CT,9.0,9009.0,New Haven County,90091408001.0
26161,sg:cbc793888e1d4cc4a62c09e403b68fd4,Stop & Shop,CT,2019-07-01T00:00:00-04:00,2019-08-01T00:00:00-04:00,6451,868,16.0,"{""<5"":26,""5-20"":515,""21-60"":263,""61-240"":37,"">240"":27}",29202.5,41.540044,-72.82466099999999,445110.0,CT,9.0,9009.0,New Haven County,90091706001.0
26380,sg:e38cebaf3b764122a6a93b77206c370b,New York Deli & More,CT,2019-07-01T00:00:00-04:00,2019-08-01T00:00:00-04:00,6103,65,12.0,"{""<5"":5,""5-20"":36,""21-60"":12,""61-240"":8,"">240"":4}",3112.5,41.768279,-72.675223,722511.0,CT,9.0,9003.0,Hartford County,90035021001.0
26391,sg:e52a67e3dc134fb6bf336b5bf9fcbac6,Icm Woodrow Wilson Middle School,CT,2019-07-01T00:00:00-04:00,2019-08-01T00:00:00-04:00,6457,7,20.0,"{""<5"":0,""5-20"":4,""21-60"":2,""61-240"":1,"">240"":0}",281.5,41.539849,-72.645504,611110.0,CT,9.0,9007.0,Middlesex County,90075420002.0
26395,sg:e58932caa9234ff0ba15e78e222366da,Walmart,CT,2019-07-01T00:00:00-04:00,2019-08-01T00:00:00-04:00,6256,3919,21.0,"{""<5"":59,""5-20"":1797,""21-60"":1636,""61-240"":337,"">240"":90}",161186.5,41.741039,-72.174189,452319.0,CT,9.0,9015.0,Windham County,90158005001.0
26476,sg:edcf4aec5ed5412e886c53bf391d00e7,Admire Dental,CT,2019-07-01T00:00:00-04:00,2019-08-01T00:00:00-04:00,6405,9,60.0,"{""<5"":0,""5-20"":1,""21-60"":4,""61-240"":3,"">240"":1}",866.0,41.273790000000005,-72.832312,621210.0,CT,9.0,9009.0,New Haven County,90091843001.0
26584,sg:f90ebca7bdfe4e308a459a6ddcdd63f8,Mackavi Martial Arts,CT,2019-07-01T00:00:00-04:00,2019-08-01T00:00:00-04:00,6351,40,10.0,"{""<5"":2,""5-20"":23,""21-60"":6,""61-240"":9,"">240"":0}",1890.0,41.594767,-71.976862,713940.0,CT,9.0,9011.0,New London County,90117092002.0
26666,sg:014ae76c691e40728860c9411f065934,Starbucks,CT,2019-07-01T00:00:00-04:00,2019-08-01T00:00:00-04:00,6067,620,9.0,"{""<5"":36,""5-20"":414,""21-60"":83,""61-240"":42,"">240"":45}",25747.5,41.647161,-72.677449,722515.0,CT,9.0,9003.0,Hartford County,90035242003.0
26710,sg:04e3b0ae120d452486f3755ddc9e2da2,Lyme Old Lyme High School,CT,2019-07-01T00:00:00-04:00,2019-08-01T00:00:00-04:00,6371,194,62.0,"{""<5"":4,""5-20"":46,""21-60"":46,""61-240"":70,"">240"":28}",19703.0,41.318335999999995,-72.325041,611110.0,CT,9.0,9011.0,New London County,90116601013.0
26728,sg:06773a2d93c041898fe949f498e37dbc,Creative Stone & Tile,CT,2019-07-01T00:00:00-04:00,2019-08-01T00:00:00-04:00,6513,231,184.0,"{""<5"":2,""5-20"":39,""21-60"":31,""61-240"":51,"">240"":108}",35343.5,41.311488,-72.903818,442299.0,CT,9.0,9009.0,New Haven County,90091424004.0
26761,sg:095494cd2da640769668907ff7e31344,Shell Oil,CT,2019-07-01T00:00:00-04:00,2019-08-01T00:00:00-04:00,6359,398,9.0,"{""<5"":23,""5-20"":287,""21-60"":70,""61-240"":17,"">240"":1}",9278.5,41.44168,-71.799992,447110.0,CT,9.0,9011.0,New London County,90117071003.0
26840,sg:1016e2a96a584a468b47e11c134d40a5,Vernon Collision Center,CT,2019-07-01T00:00:00-04:00,2019-08-01T00:00:00-04:00,6040,1,10.0,"{""<5"":0,""5-20"":1,""21-60"":0,""61-240"":0,"">240"":0}",12.5,41.780812,-72.53605,811121.0,CT,9.0,9003.0,Hartford County,90035145002.0
26938,sg:17eac35037784b32a82fb5c66f03ed3b,Danielson Medical Associates PC,CT,2019-07-01T00:00:00-04:00,2019-08-01T00:00:00-04:00,6239,47,27.0,"{""<5"":0,""5-20"":9,""21-60"":32,""61-240"":5,"">240"":1}",2401.0,41.795783,-71.880732,621111.0,CT,9.0,9015.0,Windham County,90159045005.0
26971,sg:1ae7f308cda34082aff6b260c1dcd1b7,The Herbal Room,CT,2019-07-01T00:00:00-04:00,2019-08-01T00:00:00-04:00,6109,2,18.5,"{""<5"":0,""5-20"":1,""21-60"":1,""61-240"":0,"">240"":0}",53.0,41.710052000000005,-72.654988,621111.0,CT,9.0,9003.0,Hartford County,90034921002.0
27082,sg:26114b5026af4c069f9bc2a7b507af19,Sergio's Pizza,CT,2019-07-01T00:00:00-04:00,2019-08-01T00:00:00-04:00,6010,14,6.0,"{""<5"":3,""5-20"":9,""21-60"":2,""61-240"":0,"">240"":0}",201.0,41.701558,-72.91029,722511.0,CT,9.0,9003.0,Hartford County,90034060022.0
27229,sg:3312c7edf3a643f7ab9c9a1520788564,Woodbury Financial Services Inc,CT,2019-07-01T00:00:00-04:00,2019-08-01T00:00:00-04:00,6410,5,6.0,"{""<5"":0,""5-20"":5,""21-60"":0,""61-240"":0,"">240"":0}",62.5,41.554276,-72.909671,523930.0,CT,9.0,9009.0,New Haven County,90093432001.0
27378,sg:41b14b1f50a9466cbd3cf1e965a3e399,Sliders Grill & Bar,CT,2019-07-01T00:00:00-04:00,2019-08-01T00:00:00-04:00,6062,326,61.0,"{""<5"":7,""5-20"":52,""21-60"":100,""61-240"":120,"">240"":47}",34057.5,41.67588,-72.853015,722511.0,CT,9.0,9003.0,Hartford County,90034206004.0
27404,sg:44a150068c914b37aac0a4eb8d91a2f5,Ophthalmic Consultants of Connecticut,CT,2019-07-01T00:00:00-04:00,2019-08-01T00:00:00-04:00,6450,47,307.0,"{""<5"":2,""5-20"":8,""21-60"":5,""61-240"":8,"">240"":24}",7271.5,41.520142,-72.762697,621111.0,CT,9.0,9009.0,New Haven County,90091712001.0
27419,sg:4638c7d331204eeb9fecbac143f84d8d,Milford Yacht Club,CT,2019-07-01T00:00:00-04:00,2019-08-01T00:00:00-04:00,6460,595,79.0,"{""<5"":4,""5-20"":119,""21-60"":127,""61-240"":268,"">240"":77}",65455.0,41.211308,-73.04992,441222.0,CT,9.0,9009.0,New Haven County,90091501002.0
27743,sg:63c2648c64ff429ca4610a9f802ffaa1,National Helicopter Museum,CT,2019-07-01T00:00:00-04:00,2019-08-01T00:00:00-04:00,6615,463,11.0,"{""<5"":26,""5-20"":315,""21-60"":95,""61-240"":26,"">240"":1}",12003.0,41.194727,-73.130488,712110.0,CT,9.0,9001.0,Fairfield County,90010807001.0
27831,sg:6c32de42711c4ccabcee55fa9c90af55,Strong Women's Health,CT,2019-07-01T00:00:00-04:00,2019-08-01T00:00:00-04:00,6519,12,29.5,"{""<5"":0,""5-20"":2,""21-60"":8,""61-240"":0,"">240"":2}",829.0,41.300888,-72.930205,621111.0,CT,9.0,9009.0,New Haven County,90091403002.0
28029,sg:8024ab9527e7415fa8033309f6588bac,Compass Care,CT,2019-07-01T00:00:00-04:00,2019-08-01T00:00:00-04:00,6905,27,39.0,"{""<5"":1,""5-20"":10,""21-60"":6,""61-240"":7,"">240"":3}",2144.0,41.065012,-73.54350500000001,492110.0,CT,9.0,9001.0,Fairfield County,90010216003.0
28069,sg:8452f08104524b3fae0fd82df33e1ad5,Tractor Supply Co.,CT,2019-07-01T00:00:00-04:00,2019-08-01T00:00:00-04:00,6477,313,33.0,"{""<5"":10,""5-20"":118,""21-60"":45,""61-240"":56,"">240"":84}",31910.5,41.265436,-72.998035,444130.0,CT,9.0,9009.0,New Haven County,90091571001.0
28118,sg:88890bd373244e6faa3b56e60fb81792,Brito's Grocery,CT,2019-07-01T00:00:00-04:00,2019-08-01T00:00:00-04:00,6114,289,64.0,"{""<5"":3,""5-20"":84,""21-60"":55,""61-240"":83,"">240"":64}",31136.5,41.735253,-72.678251,445110.0,CT,9.0,9003.0,Hartford County,90035023002.0
28555,sg:b08212f624144609bc436791bc00d25c,Crown Trophy,CT,2019-07-01T00:00:00-04:00,2019-08-01T00:00:00-04:00,6851,23,36.0,"{""<5"":1,""5-20"":7,""21-60"":8,""61-240"":7,"">240"":0}",1467.5,41.120022999999996,-73.413143,453998.0,CT,9.0,9001.0,Fairfield County,90010437001.0
