,safegraph_place_id,location_name,region,date_range_start,date_range_end,postal_code,raw_visit_counts,median_dwell,bucketed_dwell_times,est_total_dwell,latitude,longitude,naics_code,state,stateFIPS,countyFIPS,countyName,CBGFIPS
7,sg:00da634456874229879515902ff7d064,Compassionate Care at Home,CT,2019-11-01T00:00:00-04:00,2019-12-01T00:00:00-05:00,6405,14,8.5,"{""<5"":0,""5-20"":11,""21-60"":3,""61-240"":0,"">240"":0}",259.0,41.301691,-72.759381,621610.0,CT,9.0,9009.0,New Haven County,90091847001.0
38,sg:027ccb1468ba4db2a66cd440cc03cf0a,Crestbrook Pro Shop,CT,2019-11-01T00:00:00-04:00,2019-12-01T00:00:00-05:00,6795,6,151.0,"{""<5"":0,""5-20"":1,""21-60"":1,""61-240"":2,"">240"":2}",834.0,41.63525,-73.11585,451110.0,CT,9.0,9005.0,Litchfield County,90053602003.0
60,sg:04f99e799b2b4261910a4de606502371,Acme Markets,CT,2019-11-01T00:00:00-04:00,2019-12-01T00:00:00-05:00,6840,581,17.0,"{""<5"":17,""5-20"":316,""21-60"":201,""61-240"":16,"">240"":31}",21981.0,41.144742,-73.500174,445110.0,CT,9.0,9001.0,Fairfield County,90010351005.0
64,sg:053f7fec82fc428389f4d5147d0082f4,Davco Activities Program,CT,2019-11-01T00:00:00-04:00,2019-12-01T00:00:00-05:00,6905,131,27.0,"{""<5"":10,""5-20"":45,""21-60"":17,""61-240"":14,"">240"":45}",14183.0,41.10437,-73.533198,624410.0,CT,9.0,9001.0,Fairfield County,90010207004.0
130,sg:0a7012e59485439abe50fa018f7e839a,Mem Alencar Sounds,CT,2019-11-01T00:00:00-04:00,2019-12-01T00:00:00-05:00,6804,2,8.0,"{""<5"":0,""5-20"":2,""21-60"":0,""61-240"":0,"">240"":0}",25.0,41.458984,-73.405505,443142.0,CT,9.0,9001.0,Fairfield County,90012053002.0
150,sg:0c364103d0724c639a813526dcce5712,Christ Episcopal Church,CT,2019-11-01T00:00:00-04:00,2019-12-01T00:00:00-05:00,6855,6,41.5,"{""<5"":0,""5-20"":1,""21-60"":3,""61-240"":2,"">240"":0}",435.0,41.102636,-73.402324,813110.0,CT,9.0,9001.0,Fairfield County,90010443002.0
168,sg:0da0141670c2418c8ae9d9714e0f37b3,CubeSmart,CT,2019-11-01T00:00:00-04:00,2019-12-01T00:00:00-05:00,6902,3,14.0,"{""<5"":0,""5-20"":2,""21-60"":0,""61-240"":0,"">240"":1}",265.0,41.047759,-73.553789,531130.0,CT,9.0,9001.0,Fairfield County,90010215003.0
457,sg:28f18494d4ac4c3ebeb43b4f0dc97907,Banksville Pizza & Pasta,CT,2019-11-01T00:00:00-04:00,2019-12-01T00:00:00-05:00,6831,165,21.0,"{""<5"":7,""5-20"":70,""21-60"":49,""61-240"":25,"">240"":14}",9999.5,41.141040999999994,-73.639824,722511.0,CT,9.0,9001.0,Fairfield County,90010101023.0
701,sg:3dfccc698d304e479f7562139feb3d1a,Futo Maki Japanese Steakhouse,CT,2019-11-01T00:00:00-04:00,2019-12-01T00:00:00-05:00,6451,124,24.0,"{""<5"":7,""5-20"":50,""21-60"":21,""61-240"":26,"">240"":20}",10206.0,41.536164,-72.790151,722511.0,CT,9.0,9009.0,New Haven County,90091714001.0
822,sg:48c91c9c1e284903abd0b0fab6ff2d19,Three Amigos Mexican Taqueria,CT,2019-11-01T00:00:00-04:00,2019-12-01T00:00:00-05:00,6040,9,60.0,"{""<5"":0,""5-20"":2,""21-60"":3,""61-240"":4,"">240"":0}",748.5,41.780878,-72.53678000000001,722511.0,CT,9.0,9003.0,Hartford County,90035145002.0
963,sg:55ca3f871cc54483958b7388aac8c520,Team Zak Wentworth DeAngelis & Kaufman,CT,2019-11-01T00:00:00-04:00,2019-12-01T00:00:00-05:00,6033,2,429.0,"{""<5"":0,""5-20"":0,""21-60"":0,""61-240"":1,"">240"":1}",390.5,41.710653,-72.605614,524210.0,CT,9.0,9003.0,Hartford County,90035203021.0
1054,sg:5ed7eadf7aa74a088825191ee1a873f0,North Madison Wine & Spirits,CT,2019-11-01T00:00:00-04:00,2019-12-01T00:00:00-05:00,6443,21,10.0,"{""<5"":2,""5-20"":16,""21-60"":2,""61-240"":0,"">240"":1}",526.0,41.359639,-72.634964,445310.0,CT,9.0,9009.0,New Haven County,90091942021.0
1110,sg:643dfbcf12394734b409534e7332c174,Market on Main,CT,2019-11-01T00:00:00-04:00,2019-12-01T00:00:00-05:00,6040,99,71.0,"{""<5"":1,""5-20"":13,""21-60"":28,""61-240"":49,"">240"":8}",10593.5,41.771273,-72.520736,445110.0,CT,9.0,9003.0,Hartford County,90035147001.0
1269,sg:749e4315dff1436c810dfde95736949f,Urban Floral,CT,2019-11-01T00:00:00-04:00,2019-12-01T00:00:00-05:00,6716,86,47.5,"{""<5"":4,""5-20"":24,""21-60"":18,""61-240"":36,"">240"":4}",7417.0,41.556163,-72.950766,453110.0,CT,9.0,9009.0,New Haven County,90093611001.0
1460,sg:87830a788e89482e94758768b8a51bc0,A Child's Garden Shelton,CT,2019-11-01T00:00:00-04:00,2019-12-01T00:00:00-05:00,6484,58,50.0,"{""<5"":0,""5-20"":23,""21-60"":9,""61-240"":9,"">240"":17}",6086.5,41.292028,-73.08760799999999,624410.0,CT,9.0,9001.0,Fairfield County,90011102021.0
1608,sg:97ae0f0dd49146b3a9b16f38515da760,Bangkok Room,CT,2019-11-01T00:00:00-04:00,2019-12-01T00:00:00-05:00,6401,120,46.5,"{""<5"":0,""5-20"":27,""21-60"":44,""61-240"":48,"">240"":1}",9583.5,41.345165,-73.079746,722511.0,CT,9.0,9009.0,New Haven County,90091252002.0
1629,sg:99e2b1446fa24c95b745b232c296c1ea,Breeze Cuisine,CT,2019-11-01T00:00:00-04:00,2019-12-01T00:00:00-05:00,6484,265,144.0,"{""<5"":2,""5-20"":33,""21-60"":42,""61-240"":103,"">240"":85}",38020.0,41.317452,-73.093982,722511.0,CT,9.0,9001.0,Fairfield County,90011101001.0
1642,sg:9b88bcfad46443909b6dd3037340eb57,Flower Girl,CT,2019-11-01T00:00:00-04:00,2019-12-01T00:00:00-05:00,6877,18,7.0,"{""<5"":1,""5-20"":15,""21-60"":0,""61-240"":2,"">240"":0}",491.0,41.26553,-73.439993,453110.0,CT,9.0,9001.0,Fairfield County,90012453002.0
1661,sg:9d27c8162efa45808ef171fd0e91ecec,Tea More Cafe,CT,2019-11-01T00:00:00-04:00,2019-12-01T00:00:00-05:00,6268,213,21.0,"{""<5"":8,""5-20"":92,""21-60"":63,""61-240"":26,"">240"":24}",13394.5,41.804183,-72.241101,722515.0,CT,9.0,9013.0,Tolland County,90138811002.0
1696,sg:a0de62acdf094f4b9e51910840004b58,Kenneth Egan Dermatologist,CT,2019-11-01T00:00:00-04:00,2019-12-01T00:00:00-05:00,6851,16,73.5,"{""<5"":0,""5-20"":3,""21-60"":5,""61-240"":3,"">240"":5}",1891.5,41.149269,-73.425436,621111.0,CT,9.0,9001.0,Fairfield County,90010427001.0
1708,sg:a248396935b94827b1b22af6b1093397,Willow Tree Montessori,CT,2019-11-01T00:00:00-04:00,2019-12-01T00:00:00-05:00,6524,19,18.0,"{""<5"":1,""5-20"":10,""21-60"":2,""61-240"":5,"">240"":1}",1201.0,41.402845,-73.002268,624410.0,CT,9.0,9009.0,New Haven County,90091611004.0
1908,sg:b4203503c478439785c54258339987a1,Elmo's Dockside,CT,2019-11-01T00:00:00-04:00,2019-12-01T00:00:00-05:00,6066,78,56.5,"{""<5"":0,""5-20"":14,""21-60"":29,""61-240"":33,"">240"":2}",6796.0,41.816513,-72.503553,722511.0,CT,9.0,9013.0,Tolland County,90135305002.0
1926,sg:b605e8fa2bc340e589af5d22883b50c6,I Love Sushi,CT,2019-11-01T00:00:00-04:00,2019-12-01T00:00:00-05:00,6119,7,7.0,"{""<5"":0,""5-20"":7,""21-60"":0,""61-240"":0,"">240"":0}",87.5,41.756957,-72.726858,722511.0,CT,9.0,9003.0,Hartford County,90034969004.0
1941,sg:b72d8aba26094ffcbf73e172fefb1dd4,Laurel Wire Company,CT,2019-11-01T00:00:00-04:00,2019-12-01T00:00:00-05:00,6062,3,8.0,"{""<5"":0,""5-20"":2,""21-60"":0,""61-240"":1,"">240"":0}",175.5,41.651157,-72.872226,444130.0,CT,9.0,9003.0,Hartford County,90034205003.0
2006,sg:bdf2f8a1044c4d908bb694464db1a8b2,Ramos Athletic Conditioning Center,CT,2019-11-01T00:00:00-04:00,2019-12-01T00:00:00-05:00,6460,149,69.0,"{""<5"":2,""5-20"":25,""21-60"":36,""61-240"":76,"">240"":10}",15613.5,41.200496,-73.099929,713940.0,CT,9.0,9009.0,New Haven County,90091503004.0
2047,sg:c1c88bae9cfe49708fccd08fc4c6053c,Ducks on the Ave,CT,2019-11-01T00:00:00-04:00,2019-12-01T00:00:00-05:00,6105,258,22.0,"{""<5"":4,""5-20"":115,""21-60"":75,""61-240"":47,"">240"":17}",15638.5,41.766535,-72.711526,713950.0,CT,9.0,9003.0,Hartford County,90035245021.0
2136,sg:ca80e8bc80a44c6eadf129b0388e5f16,Salon Moda,CT,2019-11-01T00:00:00-04:00,2019-12-01T00:00:00-05:00,6850,2,69.5,"{""<5"":0,""5-20"":0,""21-60"":1,""61-240"":1,"">240"":0}",191.0,41.126591,-73.431119,812112.0,CT,9.0,9001.0,Fairfield County,90010430002.0
2233,sg:d4e50a7f038244fd99d68f53efcaf657,Aspen Dental,CT,2019-11-01T00:00:00-04:00,2019-12-01T00:00:00-05:00,6010,26,15.5,"{""<5"":1,""5-20"":13,""21-60"":6,""61-240"":6,"">240"":0}",1311.0,41.696428999999995,-72.905822,621210.0,CT,9.0,9003.0,Hartford County,90034053001.0
2361,sg:e1acf7b3244b42deb8489f118da69ff0,Elite Soccer Performance,CT,2019-11-01T00:00:00-04:00,2019-12-01T00:00:00-05:00,6114,55,23.0,"{""<5"":0,""5-20"":26,""21-60"":17,""61-240"":11,"">240"":1}",2909.0,41.737457,-72.653363,713940.0,CT,9.0,9003.0,Hartford County,90035025001.0
2558,sg:f724519058fc4b868863eb206092f0ec,American Steakhouse,CT,2019-11-01T00:00:00-04:00,2019-12-01T00:00:00-05:00,6450,114,27.0,"{""<5"":0,""5-20"":40,""21-60"":59,""61-240"":15,"">240"":0}",5147.0,41.526043,-72.76396700000001,722511.0,CT,9.0,9009.0,New Haven County,90091712005.0
2625,sg:fefd30ac0a6a4512bf7580f7c1a1048c,Philip R Mascia DDS,CT,2019-11-01T00:00:00-04:00,2019-12-01T00:00:00-05:00,6804,3,18.0,"{""<5"":0,""5-20"":2,""21-60"":1,""61-240"":0,"">240"":0}",65.5,41.452541,-73.402398,621210.0,CT,9.0,9001.0,Fairfield County,90012053003.0
2693,sg:0485866f2aae4890a1464dfe8c00ba68,Once Upon a Child,CT,2019-11-01T00:00:00-04:00,2019-12-01T00:00:00-05:00,6010,27,10.0,"{""<5"":1,""5-20"":19,""21-60"":6,""61-240"":1,"">240"":0}",633.5,41.685218,-72.941707,453310.0,CT,9.0,9003.0,Hartford County,90034059003.0
2712,sg:067b2f4e425a4d50b70605f8902179c0,Denny's,CT,2019-11-01T00:00:00-04:00,2019-12-01T00:00:00-05:00,6109,662,58.0,"{""<5"":12,""5-20"":118,""21-60"":220,""61-240"":199,"">240"":113}",67484.5,41.685619,-72.654176,722511.0,CT,9.0,9003.0,Hartford County,90034926001.0
2806,sg:0eef21b27a734bf9aa909bbd5a8efa79,Torrington High School,CT,2019-11-01T00:00:00-04:00,2019-12-01T00:00:00-05:00,6790,2018,112.0,"{""<5"":20,""5-20"":305,""21-60"":364,""61-240"":737,"">240"":592}",271603.0,41.816179999999996,-73.109967,611110.0,CT,9.0,9005.0,Litchfield County,90053101001.0
2877,sg:1503826c9b324bfa92534ec7af95f67f,Firestone Complete Auto Care,CT,2019-11-01T00:00:00-04:00,2019-12-01T00:00:00-05:00,6516,166,18.5,"{""<5"":3,""5-20"":94,""21-60"":36,""61-240"":12,"">240"":21}",9486.5,41.269208,-72.97753,441310.0,CT,9.0,9009.0,New Haven County,90091542005.0
2891,sg:15b362a403994cc4860f0f8bb2d30b3b,St Joseph's Brookfield,CT,2019-11-01T00:00:00-04:00,2019-12-01T00:00:00-05:00,6804,176,53.0,"{""<5"":1,""5-20"":37,""21-60"":71,""61-240"":62,"">240"":5}",13871.5,41.465751000000004,-73.386763,813110.0,CT,9.0,9001.0,Fairfield County,90012052002.0
2918,sg:195e89488d7340ed81762d37c48bd312,Campbell Motor Sales,CT,2019-11-01T00:00:00-04:00,2019-12-01T00:00:00-05:00,6516,16,259.5,"{""<5"":0,""5-20"":0,""21-60"":3,""61-240"":5,"">240"":8}",2794.0,41.262914,-72.94637900000001,,CT,9.0,9009.0,New Haven County,90091550003.0
2936,sg:1a5027613ea64bda809e0e63bb8407f3,New Age Flooring,CT,2019-11-01T00:00:00-04:00,2019-12-01T00:00:00-05:00,6877,10,173.0,"{""<5"":0,""5-20"":2,""21-60"":1,""61-240"":3,"">240"":4}",1477.0,41.275324,-73.458152,561740.0,CT,9.0,9001.0,Fairfield County,90012453002.0
2948,sg:1b51742ec1ec4b808ee79d116cd571b5,Magnificent Tint,CT,2019-11-01T00:00:00-04:00,2019-12-01T00:00:00-05:00,6120,72,13.5,"{""<5"":2,""5-20"":39,""21-60"":11,""61-240"":18,"">240"":2}",4127.0,41.786896999999996,-72.669827,441120.0,CT,9.0,9003.0,Hartford County,90035009001.0
2994,sg:1fd1148b4ec44feabbd6dd1ebd88166a,Plumb Memorial Library,CT,2019-11-01T00:00:00-04:00,2019-12-01T00:00:00-05:00,6484,79,58.0,"{""<5"":2,""5-20"":15,""21-60"":23,""61-240"":29,"">240"":10}",7888.5,41.319666,-73.098026,519120.0,CT,9.0,9001.0,Fairfield County,90011101001.0
3008,sg:20c260f0e179498f9d0cf34bfc972104,Connecticut Dermatology Group,CT,2019-11-01T00:00:00-04:00,2019-12-01T00:00:00-05:00,6460,134,33.5,"{""<5"":2,""5-20"":31,""21-60"":60,""61-240"":18,"">240"":23}",11051.5,41.219493,-73.063672,812199.0,CT,9.0,9009.0,New Haven County,90091501002.0
3142,sg:2d5921869ce84df38c5ed9303300024f,Metro Taxi,CT,2019-11-01T00:00:00-04:00,2019-12-01T00:00:00-05:00,6516,91,20.0,"{""<5"":0,""5-20"":47,""21-60"":29,""61-240"":11,"">240"":4}",4377.5,41.291111,-72.985291,485310.0,CT,9.0,9009.0,New Haven County,90091541005.0
3166,sg:2fec9a3b8546412788930abf88c776f6,Old Lyme Wellness,CT,2019-11-01T00:00:00-04:00,2019-12-01T00:00:00-05:00,6371,70,90.0,"{""<5"":1,""5-20"":7,""21-60"":17,""61-240"":19,"">240"":26}",9878.0,41.324827,-72.33619200000001,713940.0,CT,9.0,9011.0,New London County,90116601012.0
3170,sg:3043b98bf3aa43b8a06befbe6158c426,Sprouts Vietnamese Eatery,CT,2019-11-01T00:00:00-04:00,2019-12-01T00:00:00-05:00,6801,99,29.0,"{""<5"":4,""5-20"":28,""21-60"":42,""61-240"":8,"">240"":17}",7345.0,41.370289,-73.415373,722511.0,CT,9.0,9001.0,Fairfield County,90012001002.0
3252,sg:38540d8ddab847968caf2c621563aeb6,The Children's Corner,CT,2019-11-01T00:00:00-04:00,2019-12-01T00:00:00-05:00,6877,137,28.0,"{""<5"":2,""5-20"":62,""21-60"":18,""61-240"":31,"">240"":24}",11934.5,41.32373,-73.512568,624410.0,CT,9.0,9001.0,Fairfield County,90012451002.0
3286,sg:3af3f6fa416644f2b724617c9768e7c6,First Choice College Placement,CT,2019-11-01T00:00:00-04:00,2019-12-01T00:00:00-05:00,6460,45,79.0,"{""<5"":0,""5-20"":6,""21-60"":13,""61-240"":19,"">240"":7}",5141.0,41.222871000000005,-73.054092,611691.0,CT,9.0,9009.0,New Haven County,90091509001.0
3357,sg:4200151125694563a98645dedc048451,Goodwill Industries,CT,2019-11-01T00:00:00-04:00,2019-12-01T00:00:00-05:00,6042,569,20.0,"{""<5"":19,""5-20"":293,""21-60"":205,""61-240"":33,"">240"":19}",21539.0,41.811077000000004,-72.51373000000001,453310.0,CT,9.0,9003.0,Hartford County,90035141024.0
3416,sg:478c6bfeb0794bd39fc27e5beb2f854e,Sweet Pea's Florist,CT,2019-11-01T00:00:00-04:00,2019-12-01T00:00:00-05:00,6795,205,83.0,"{""<5"":2,""5-20"":40,""21-60"":42,""61-240"":69,"">240"":52}",25070.5,41.601252,-73.11515,453110.0,CT,9.0,9005.0,Litchfield County,90053601003.0
3476,sg:4e8b3d1c3e9741bd8b40a701f070fb61,Grand Apizza Guilford,CT,2019-11-01T00:00:00-04:00,2019-12-01T00:00:00-05:00,6437,45,42.0,"{""<5"":1,""5-20"":15,""21-60"":12,""61-240"":15,"">240"":2}",3413.5,41.288872999999995,-72.660478,722511.0,CT,9.0,9009.0,New Haven County,90091901003.0
3765,sg:6ac9534fe6ab44dfa51206b5b047d8e3,Quest Diagnostics,CT,2019-11-01T00:00:00-04:00,2019-12-01T00:00:00-05:00,6156,2735,184.0,"{""<5"":32,""5-20"":475,""21-60"":331,""61-240"":692,"">240"":1205}",412769.0,41.766686,-72.689164,621511.0,CT,9.0,9003.0,Hartford County,90035246004.0
3799,sg:6db7be14b6b24395981bdafe98c518ab,Next Step Technologies,CT,2019-11-01T00:00:00-04:00,2019-12-01T00:00:00-05:00,6801,275,227.0,"{""<5"":2,""5-20"":27,""21-60"":20,""61-240"":93,"">240"":133}",47069.0,41.422443,-73.403697,621111.0,CT,9.0,9001.0,Fairfield County,90012003013.0
3817,sg:6f47516041ba46d194898bb571b51f14,Circle K,CT,2019-11-01T00:00:00-04:00,2019-12-01T00:00:00-05:00,6095,193,7.0,"{""<5"":20,""5-20"":138,""21-60"":15,""61-240"":18,"">240"":2}",5571.5,41.872487,-72.659881,445120.0,CT,9.0,9003.0,Hartford County,90034736021.0
3866,sg:745c38a28ff74646a57c09bbd3e7a914,WebIT Internet Solutions,CT,2019-11-01T00:00:00-04:00,2019-12-01T00:00:00-05:00,6905,88,40.0,"{""<5"":3,""5-20"":24,""21-60"":32,""61-240"":17,"">240"":12}",7042.0,41.078537,-73.53365699999999,448120.0,CT,9.0,9001.0,Fairfield County,90010210002.0
3955,sg:7d01090dc5624c92a0f1032a4c0e67a2,Jeffrey Ciarlelli DC,CT,2019-11-01T00:00:00-04:00,2019-12-01T00:00:00-05:00,6708,215,44.0,"{""<5"":8,""5-20"":71,""21-60"":41,""61-240"":54,"">240"":41}",20535.0,41.558105,-73.058406,621310.0,CT,9.0,9009.0,New Haven County,90093518001.0
4051,sg:85e6fe9b23e64fa8899f8fbed6b6d305,Clean Home Center of Milford,CT,2019-11-01T00:00:00-04:00,2019-12-01T00:00:00-05:00,6460,65,11.0,"{""<5"":5,""5-20"":39,""21-60"":19,""61-240"":1,"">240"":1}",1660.0,41.238886,-73.03641400000001,444130.0,CT,9.0,9009.0,New Haven County,90091508003.0
4203,sg:96ddb563c8934f1ca93dd320484476f0,Hyde Leadership School,CT,2019-11-01T00:00:00-04:00,2019-12-01T00:00:00-05:00,6511,135,10.0,"{""<5"":13,""5-20"":72,""21-60"":32,""61-240"":13,"">240"":5}",5385.0,41.288768,-72.926361,611110.0,CT,9.0,9009.0,New Haven County,90091402001.0
4208,sg:9753cb949ccc4f339ce16747a0e0add4,Flavia Pedraza Beauty Studio,CT,2019-11-01T00:00:00-04:00,2019-12-01T00:00:00-05:00,6111,2,6.0,"{""<5"":0,""5-20"":2,""21-60"":0,""61-240"":0,"">240"":0}",25.0,41.69624,-72.722122,446120.0,CT,9.0,9003.0,Hartford County,90034944002.0
4285,sg:9f5c3f28658c4ca28ca8e4daca7c2d60,Bethany Nails and Spa,CT,2019-11-01T00:00:00-04:00,2019-12-01T00:00:00-05:00,6524,2,211.5,"{""<5"":0,""5-20"":1,""21-60"":0,""61-240"":0,"">240"":1}",252.5,41.437324,-72.991073,446120.0,CT,9.0,9009.0,New Haven County,90091611002.0
4321,sg:a2b0f649253545e3a46240df9f1a26b1,Yamari's Unisex Salon,CT,2019-11-01T00:00:00-04:00,2019-12-01T00:00:00-05:00,6105,336,22.0,"{""<5"":24,""5-20"":138,""21-60"":62,""61-240"":78,"">240"":34}",24195.0,41.768443,-72.68484699999999,812112.0,CT,9.0,9003.0,Hartford County,90035246002.0
4343,sg:a4aeab920cdc4896aeb96296c42ea627,University Of Connecticut Tri Campus,CT,2019-11-01T00:00:00-04:00,2019-12-01T00:00:00-05:00,6702,193,179.0,"{""<5"":3,""5-20"":17,""21-60"":32,""61-240"":74,"">240"":67}",28733.0,41.555845,-73.038556,611210.0,CT,9.0,9009.0,New Haven County,90093501001.0
4420,sg:aafd8191d6a64bbc8a8b8f8f9c341351,Smoke For Less,CT,2019-11-01T00:00:00-04:00,2019-12-01T00:00:00-05:00,6824,60,48.0,"{""<5"":3,""5-20"":14,""21-60"":18,""61-240"":22,"">240"":3}",4942.5,41.140202,-73.270269,453991.0,CT,9.0,9001.0,Fairfield County,90010616001.0
4427,sg:abfe776c53ab41a19367f0aa63b13a48,The Vapor Edge,CT,2019-11-01T00:00:00-04:00,2019-12-01T00:00:00-05:00,6451,238,57.0,"{""<5"":7,""5-20"":72,""21-60"":44,""61-240"":75,"">240"":40}",23587.0,41.536561999999996,-72.80648000000001,444120.0,CT,9.0,9009.0,New Haven County,90091702003.0
4440,sg:acef3b8f76f94630b435c3f68824c4bc,Hornets Nest Deli,CT,2019-11-01T00:00:00-04:00,2019-12-01T00:00:00-05:00,6405,166,20.0,"{""<5"":5,""5-20"":82,""21-60"":53,""61-240"":15,"">240"":11}",8081.5,41.292095,-72.79258100000001,722511.0,CT,9.0,9009.0,New Haven County,90091841001.0
4510,sg:b29873fbc86d4754ab91ad187a335254,Crawford's Cigar Shoppe,CT,2019-11-01T00:00:00-04:00,2019-12-01T00:00:00-05:00,6066,35,22.0,"{""<5"":0,""5-20"":14,""21-60"":14,""61-240"":6,"">240"":1}",1885.0,41.830283,-72.482003,453991.0,CT,9.0,9013.0,Tolland County,90135303021.0
4514,sg:b34d8f7ad9de43528bb77a1d5ca351ed,White House Black Market,CT,2019-11-01T00:00:00-04:00,2019-12-01T00:00:00-05:00,6032,78,20.0,"{""<5"":1,""5-20"":39,""21-60"":25,""61-240"":10,"">240"":3}",3727.5,41.72332,-72.76248000000001,448120.0,CT,9.0,9003.0,Hartford County,90034601002.0
4795,sg:d26a4c29ae6b409baea6afd73f94e822,Blue Cactus Grill,CT,2019-11-01T00:00:00-04:00,2019-12-01T00:00:00-05:00,6850,233,32.0,"{""<5"":9,""5-20"":68,""21-60"":87,""61-240"":35,"">240"":34}",17823.5,41.110053,-73.424573,722511.0,CT,9.0,9001.0,Fairfield County,90010438003.0
4796,sg:d275e194de1542a1a44962f0ccb1d8a7,Wells Fargo,CT,2019-11-01T00:00:00-04:00,2019-12-01T00:00:00-05:00,6880,43,181.0,"{""<5"":0,""5-20"":14,""21-60"":7,""61-240"":1,"">240"":21}",5649.0,41.139773,-73.351167,522110.0,CT,9.0,9001.0,Fairfield County,90010505001.0
4925,sg:e02a76fcdb274946ba965cb8b210ead9,Sunbeam Service Center,CT,2019-11-01T00:00:00-04:00,2019-12-01T00:00:00-05:00,6513,470,11.5,"{""<5"":10,""5-20"":308,""21-60"":93,""61-240"":45,"">240"":14}",17774.0,41.324652,-72.885163,811111.0,CT,9.0,9009.0,New Haven County,90091426014.0
4988,sg:e6f59759b423433f92e3829d7a6e4283,Copper Skillet,CT,2019-11-01T00:00:00-04:00,2019-12-01T00:00:00-05:00,6419,339,34.0,"{""<5"":2,""5-20"":58,""21-60"":188,""61-240"":82,"">240"":9}",22845.0,41.350066,-72.561625,722511.0,CT,9.0,9007.0,Middlesex County,90076401005.0
5076,sg:ef40eccf4cc44e9f9ae6676f890c7739,Windsor,CT,2019-11-01T00:00:00-04:00,2019-12-01T00:00:00-05:00,6451,12,14.0,"{""<5"":0,""5-20"":7,""21-60"":4,""61-240"":1,"">240"":0}",400.0,41.551122,-72.806931,448120.0,CT,9.0,9009.0,New Haven County,90091716003.0
5242,sg:01d8212cd7ad42f3b798f279ebf4316e,Thai Sawasdee,CT,2019-11-01T00:00:00-04:00,2019-12-01T00:00:00-05:00,6340,110,32.0,"{""<5"":3,""5-20"":42,""21-60"":25,""61-240"":38,"">240"":2}",7744.0,41.348471999999994,-72.052952,722511.0,CT,9.0,9011.0,New London County,90117027001.0
5333,sg:09bcaa8bcd664e049bd7c6e73549a2b8,Sherman's Taphouse,CT,2019-11-01T00:00:00-04:00,2019-12-01T00:00:00-05:00,6489,45,52.0,"{""<5"":0,""5-20"":7,""21-60"":21,""61-240"":14,"">240"":3}",3765.0,41.601997,-72.878922,445310.0,CT,9.0,9003.0,Hartford County,90034306021.0
5405,sg:114a05f53ab646ee91c27020b348e4bd,St Peter & Paul Orthodox Church,CT,2019-11-01T00:00:00-04:00,2019-12-01T00:00:00-05:00,6450,106,206.5,"{""<5"":1,""5-20"":21,""21-60"":8,""61-240"":28,"">240"":48}",16323.0,41.545640999999996,-72.79128399999999,813110.0,CT,9.0,9009.0,New Haven County,90091715003.0
5520,sg:1a7b600021b44670ba02bd4a94f82023,Five Guys,CT,2019-11-01T00:00:00-04:00,2019-12-01T00:00:00-05:00,6804,343,23.0,"{""<5"":8,""5-20"":131,""21-60"":114,""61-240"":36,"">240"":54}",24652.5,41.435216,-73.41104200000001,722513.0,CT,9.0,9001.0,Fairfield County,90012053003.0
5567,sg:1eac2b884894475b9db9a9e93d5159ee,Modzelewski's Auto Body Works,CT,2019-11-01T00:00:00-04:00,2019-12-01T00:00:00-05:00,6810,30,9.0,"{""<5"":2,""5-20"":20,""21-60"":7,""61-240"":1,"">240"":0}",689.0,41.408626,-73.429449,811121.0,CT,9.0,9001.0,Fairfield County,90012103002.0
5699,sg:2bacfc2679eb43408062fb1573685dee,Bais Yaakov Of Waterbury High School,CT,2019-11-01T00:00:00-04:00,2019-12-01T00:00:00-05:00,6710,104,178.0,"{""<5"":1,""5-20"":12,""21-60"":23,""61-240"":22,"">240"":46}",15435.0,41.563016999999995,-73.041507,611110.0,CT,9.0,9009.0,New Haven County,90093508001.0
5906,sg:3e262d2fdce84d9b8f2e24b3c4caab8f,New England Hypnosis & Weight Loss,CT,2019-11-01T00:00:00-04:00,2019-12-01T00:00:00-05:00,6037,48,151.5,"{""<5"":0,""5-20"":7,""21-60"":10,""61-240"":14,"">240"":17}",6679.5,41.612043,-72.74691,713940.0,CT,9.0,9003.0,Hartford County,90034001002.0
6254,sg:5e37336549a64eac827ff16f87344386,Saw Mill Package Store,CT,2019-11-01T00:00:00-04:00,2019-12-01T00:00:00-05:00,6516,114,19.0,"{""<5"":6,""5-20"":59,""21-60"":30,""61-240"":16,"">240"":3}",5095.5,41.274296,-72.96491999999999,445310.0,CT,9.0,9009.0,New Haven County,90091546004.0
7075,sg:b2040cb733a04c05a0a71234c892f64d,Face It Medical Aesthetics and Spa,CT,2019-11-01T00:00:00-04:00,2019-12-01T00:00:00-05:00,6107,1,545.0,"{""<5"":0,""5-20"":0,""21-60"":0,""61-240"":0,"">240"":1}",240.0,41.762578000000005,-72.742253,812199.0,CT,9.0,9003.0,Hartford County,90034976002.0
7142,sg:b857e21c2fde43f8ba233cc0fe5cd535,Richter Asset Management,CT,2019-11-01T00:00:00-04:00,2019-12-01T00:00:00-05:00,6831,23,365.0,"{""<5"":0,""5-20"":0,""21-60"":1,""61-240"":3,"">240"":19}",5052.0,41.01979,-73.648219,523930.0,CT,9.0,9001.0,Fairfield County,90010103005.0
7147,sg:b89dd6bb981048aeae6e435ce170716f,Unlimited RV,CT,2019-11-01T00:00:00-04:00,2019-12-01T00:00:00-05:00,6712,86,28.5,"{""<5"":1,""5-20"":29,""21-60"":36,""61-240"":16,"">240"":4}",5191.0,41.505253,-73.00183100000001,451110.0,CT,9.0,9009.0,New Haven County,90093472002.0
7186,sg:be0ef333242647b392ccdb8dc10278ce,Burger King,CT,2019-11-01T00:00:00-04:00,2019-12-01T00:00:00-05:00,6516,630,10.0,"{""<5"":32,""5-20"":413,""21-60"":81,""61-240"":71,"">240"":33}",27128.5,41.275236,-72.95289100000001,722513.0,CT,9.0,9009.0,New Haven County,90091546003.0
7281,sg:c68ef5252f8146039b233db963d83105,Phillips 66,CT,2019-11-01T00:00:00-04:00,2019-12-01T00:00:00-05:00,6111,172,10.0,"{""<5"":13,""5-20"":115,""21-60"":27,""61-240"":10,"">240"":7}",5748.5,41.716959,-72.737954,447110.0,CT,9.0,9003.0,Hartford County,90034946001.0
7293,sg:c7f58ffb7ede4b11b3366c2cfb6e8a53,Camp Newhoca,CT,2019-11-01T00:00:00-04:00,2019-12-01T00:00:00-05:00,6066,2,20.0,"{""<5"":0,""5-20"":1,""21-60"":1,""61-240"":0,"">240"":0}",53.0,41.81228,-72.42403399999999,712190.0,CT,9.0,9013.0,Tolland County,90135306002.0
7300,sg:c8463aac51fb4689ac1227c53841f5bf,Subway,CT,2019-11-01T00:00:00-04:00,2019-12-01T00:00:00-05:00,6226,132,26.0,"{""<5"":1,""5-20"":52,""21-60"":35,""61-240"":28,"">240"":16}",10124.0,41.713823,-72.21699,722513.0,CT,9.0,9015.0,Windham County,90158006003.0
7461,sg:d79387e321aa4ef79924e76c1dac7d77,Freshwater Commons,CT,2019-11-01T00:00:00-04:00,2019-12-01T00:00:00-05:00,6082,3017,21.0,"{""<5"":79,""5-20"":1405,""21-60"":1059,""61-240"":320,"">240"":154}",145769.5,41.990725,-72.5702,531120.0,CT,9.0,9003.0,Hartford County,90034808002.0
7658,sg:ead346116b134dd5919f047398578b9c,Epic Driving School Ridgefield,CT,2019-11-01T00:00:00-04:00,2019-12-01T00:00:00-05:00,6877,255,36.0,"{""<5"":5,""5-20"":75,""21-60"":92,""61-240"":58,"">240"":25}",19405.0,41.27952,-73.49761099999999,453310.0,CT,9.0,9001.0,Fairfield County,90012453003.0
7696,sg:ef38a4a050c046b18cff4d61ad58f270,Sunrise Market,CT,2019-11-01T00:00:00-04:00,2019-12-01T00:00:00-05:00,6782,277,11.0,"{""<5"":12,""5-20"":165,""21-60"":45,""61-240"":37,"">240"":18}",13803.5,41.673967,-73.073934,722511.0,CT,9.0,9005.0,Litchfield County,90053492002.0
7767,sg:f5775f044fd8448db74231f00e841c5f,Cat Hospital of Canterbury,CT,2019-11-01T00:00:00-04:00,2019-12-01T00:00:00-05:00,6331,24,20.0,"{""<5"":1,""5-20"":12,""21-60"":10,""61-240"":1,"">240"":0}",708.0,41.694138,-71.97120100000001,541940.0,CT,9.0,9015.0,Windham County,90159061001.0
7783,sg:f6fb811041dd44e394953e9420d41896,Abbott Appliance Service & Repair,CT,2019-11-01T00:00:00-04:00,2019-12-01T00:00:00-05:00,6611,18,108.5,"{""<5"":0,""5-20"":6,""21-60"":2,""61-240"":3,"">240"":7}",2287.5,41.24628,-73.207274,811412.0,CT,9.0,9001.0,Fairfield County,90010904002.0
7806,sg:fa722ae23a984ea19f3ca77cfaf3e961,CO Sports Academy,CT,2019-11-01T00:00:00-04:00,2019-12-01T00:00:00-05:00,6704,96,476.0,"{""<5"":0,""5-20"":4,""21-60"":8,""61-240"":14,"">240"":70}",19281.0,41.607442,-73.0323,623312.0,CT,9.0,9009.0,New Haven County,90093524002.0
7832,sg:fc925acab5af486b9ceac39b5f3513bb,Connecticut Eye Physicians,CT,2019-11-01T00:00:00-04:00,2019-12-01T00:00:00-05:00,6457,9,9.0,"{""<5"":0,""5-20"":7,""21-60"":2,""61-240"":0,"">240"":0}",168.5,41.539953999999994,-72.62248000000001,446130.0,CT,9.0,9007.0,Middlesex County,90076802001.0
7949,sg:076186499d2e417b9b933abafc24e7b2,Litchfield County Vein Center,CT,2019-11-01T00:00:00-04:00,2019-12-01T00:00:00-05:00,6776,10,8.5,"{""<5"":0,""5-20"":9,""21-60"":1,""61-240"":0,"">240"":0}",153.0,41.589381,-73.406349,621111.0,CT,9.0,9005.0,Litchfield County,90052531001.0
7963,sg:080aadcdde2245d78b5d6972e847038c,Mosaico Cuisine,CT,2019-11-01T00:00:00-04:00,2019-12-01T00:00:00-05:00,6405,29,121.0,"{""<5"":0,""5-20"":2,""21-60"":6,""61-240"":9,"">240"":12}",4502.5,41.277573,-72.818013,722511.0,CT,9.0,9009.0,New Haven County,90091841003.0
8066,sg:1241d3442e344c978290979fe5f5f996,Weight Watchers,CT,2019-11-01T00:00:00-04:00,2019-12-01T00:00:00-05:00,6483,49,47.0,"{""<5"":1,""5-20"":17,""21-60"":14,""61-240"":16,"">240"":1}",3430.0,41.391659999999995,-73.07573000000001,812191.0,CT,9.0,9009.0,New Haven County,90091302002.0
8069,sg:12a699a6265b408ab655d8704ead4a09,Gulf Oil,CT,2019-11-01T00:00:00-04:00,2019-12-01T00:00:00-05:00,6605,504,29.0,"{""<5"":16,""5-20"":204,""21-60"":99,""61-240"":86,"">240"":99}",43302.5,41.173618,-73.208387,447110.0,CT,9.0,9001.0,Fairfield County,90010711002.0
8076,sg:12f767710a854f4f890675b3992e38ed,State Farm,CT,2019-11-01T00:00:00-04:00,2019-12-01T00:00:00-05:00,6360,6,185.5,"{""<5"":0,""5-20"":2,""21-60"":0,""61-240"":2,"">240"":2}",806.0,41.523469,-72.08868299999999,524210.0,CT,9.0,9011.0,New London County,90116967001.0
8084,sg:13e33f0986eb419da30f6504c16b8710,Beneath the Sheaths,CT,2019-11-01T00:00:00-04:00,2019-12-01T00:00:00-05:00,6096,14,119.5,"{""<5"":0,""5-20"":3,""21-60"":1,""61-240"":7,"">240"":3}",1851.5,41.914716,-72.651895,812910.0,CT,9.0,9003.0,Hartford County,90034763004.0
8199,sg:1d407a5a08b14028b530401f7155ee5d,The Happy Coin,CT,2019-11-01T00:00:00-04:00,2019-12-01T00:00:00-05:00,6807,128,41.5,"{""<5"":4,""5-20"":37,""21-60"":26,""61-240"":25,"">240"":36}",13928.0,41.040221,-73.59529,448310.0,CT,9.0,9001.0,Fairfield County,90010108001.0
8403,sg:2ef92905668b47a8b7b05dda60e549db,Matthew P Keefe DMD,CT,2019-11-01T00:00:00-04:00,2019-12-01T00:00:00-05:00,6019,8,35.5,"{""<5"":0,""5-20"":2,""21-60"":4,""61-240"":1,"">240"":1}",577.5,41.825376,-72.89519200000001,621210.0,CT,9.0,9003.0,Hartford County,90034641013.0
8710,sg:4a55d0ed94b543b6b4a9a59f9e810771,Fidelity,CT,2019-11-01T00:00:00-04:00,2019-12-01T00:00:00-05:00,6510,34,477.0,"{""<5"":0,""5-20"":0,""21-60"":1,""61-240"":4,"">240"":29}",7602.5,41.310029,-72.922736,523999.0,CT,9.0,9009.0,New Haven County,90091401001.0
8714,sg:4ad00b162f0748b58f04277dc3aa3eda,Hanger Prosthetics & Orthotics,CT,2019-11-01T00:00:00-04:00,2019-12-01T00:00:00-05:00,6320,132,55.0,"{""<5"":0,""5-20"":40,""21-60"":33,""61-240"":25,"">240"":34}",13759.0,41.345838,-72.101671,423450.0,CT,9.0,9011.0,New London County,90116907001.0
8760,sg:50307950b4f148adbb50598a8085083b,The UPS Store,CT,2019-11-01T00:00:00-04:00,2019-12-01T00:00:00-05:00,6070,27,7.0,"{""<5"":4,""5-20"":16,""21-60"":3,""61-240"":2,"">240"":2}",1112.5,41.861391999999995,-72.809712,492110.0,CT,9.0,9003.0,Hartford County,90034661012.0
8794,sg:531570dea92547e9af162dde34b090f5,Apostolic Refuge Tabernacle,CT,2019-11-01T00:00:00-04:00,2019-12-01T00:00:00-05:00,6401,218,40.0,"{""<5"":7,""5-20"":78,""21-60"":45,""61-240"":52,"">240"":36}",19281.0,41.341535,-73.072661,813110.0,CT,9.0,9009.0,New Haven County,90091252002.0
8841,sg:56dd55b4ba5f4d30b6fa096201ca732a,RES Fitness & Pro Fit Judo,CT,2019-11-01T00:00:00-04:00,2019-12-01T00:00:00-05:00,6513,103,63.0,"{""<5"":0,""5-20"":23,""21-60"":27,""61-240"":33,"">240"":20}",11147.5,41.316137,-72.89940899999999,713940.0,CT,9.0,9009.0,New Haven County,90091424001.0
8856,sg:58d93aef41ff4136a505abe33c033c8e,Krauszer's,CT,2019-11-01T00:00:00-04:00,2019-12-01T00:00:00-05:00,6416,49,7.0,"{""<5"":9,""5-20"":36,""21-60"":4,""61-240"":0,"">240"":0}",634.5,41.603237,-72.70246800000001,445110.0,CT,9.0,9007.0,Middlesex County,90075701001.0
8862,sg:596bf54634f9429890e369a925c428b6,Convalescent Center of Bloomfield,CT,2019-11-01T00:00:00-04:00,2019-12-01T00:00:00-05:00,6002,258,149.5,"{""<5"":1,""5-20"":51,""21-60"":37,""61-240"":76,"">240"":93}",35896.5,41.821887,-72.713048,621610.0,CT,9.0,9003.0,Hartford County,90034712002.0
8872,sg:5a3909f0615a44528201ae59354c5ea4,Cingari Family Boutique at Smilow Hospital,CT,2019-11-01T00:00:00-04:00,2019-12-01T00:00:00-05:00,6510,2685,38.0,"{""<5"":29,""5-20"":874,""21-60"":764,""61-240"":701,"">240"":317}",223520.0,41.304562,-72.935777,448310.0,CT,9.0,9009.0,New Haven County,90091403002.0
8874,sg:5a685598927b4900b7ea9016b003f1b6,The Outdoor Kitchen Design Store,CT,2019-11-01T00:00:00-04:00,2019-12-01T00:00:00-05:00,6410,2,16.5,"{""<5"":0,""5-20"":1,""21-60"":1,""61-240"":0,"">240"":0}",53.0,41.540846,-72.89246899999999,442110.0,CT,9.0,9009.0,New Haven County,90093431013.0
8917,sg:5f1207a2c0164332af9e22f1d4a0ffef,Parkside Plaza,CT,2019-11-01T00:00:00-04:00,2019-12-01T00:00:00-05:00,6002,570,13.0,"{""<5"":25,""5-20"":349,""21-60"":142,""61-240"":40,"">240"":14}",19556.0,41.823392,-72.69755699999999,531120.0,CT,9.0,9003.0,Hartford County,90034712001.0
9042,sg:68f22fe358b94d8c9bea47ba05ec2e40,Pequot Plant Farm,CT,2019-11-01T00:00:00-04:00,2019-12-01T00:00:00-05:00,6378,6,71.5,"{""<5"":0,""5-20"":1,""21-60"":2,""61-240"":2,"">240"":1}",634.5,41.410140999999996,-71.90711,811411.0,CT,9.0,9011.0,New London County,90117054001.0
9048,sg:69a8d009821a4637b398d36070ab7fe6,Aetna Cafeteria,CT,2019-11-01T00:00:00-04:00,2019-12-01T00:00:00-05:00,6156,200,43.0,"{""<5"":10,""5-20"":55,""21-60"":50,""61-240"":48,"">240"":37}",18841.5,41.767812,-72.69094,722515.0,CT,9.0,9003.0,Hartford County,90035246004.0
9066,sg:6b43877daa734510b22e39f4889c448b,My People Clinical Services,CT,2019-11-01T00:00:00-04:00,2019-12-01T00:00:00-05:00,6105,176,83.5,"{""<5"":7,""5-20"":47,""21-60"":20,""61-240"":48,"">240"":54}",21599.0,41.771642,-72.69919200000001,621330.0,CT,9.0,9003.0,Hartford County,90035031004.0
9078,sg:6c7abafeed7249d89a967805dcafcf65,Ming Feng Chinese,CT,2019-11-01T00:00:00-04:00,2019-12-01T00:00:00-05:00,6460,62,20.0,"{""<5"":2,""5-20"":33,""21-60"":11,""61-240"":9,"">240"":7}",3897.5,41.206762,-73.08789,722511.0,CT,9.0,9009.0,New Haven County,90091503002.0
9117,sg:702219fd49dc4cb58a1ba51572284e0f,Sheridane Kennels Pet Resort,CT,2019-11-01T00:00:00-04:00,2019-12-01T00:00:00-05:00,6248,1,83.0,"{""<5"":0,""5-20"":0,""21-60"":0,""61-240"":1,"">240"":0}",150.5,41.665026,-72.344859,453910.0,CT,9.0,9013.0,Tolland County,90135261012.0
9306,sg:82ca219565ab42af830e6ec4390eb365,Jasinski John M Ms,CT,2019-11-01T00:00:00-04:00,2019-12-01T00:00:00-05:00,6905,1,1414.0,"{""<5"":0,""5-20"":0,""21-60"":0,""61-240"":0,"">240"":1}",240.0,41.061119,-73.541652,621111.0,CT,9.0,9001.0,Fairfield County,90010216002.0
9505,sg:985b825b5a3545339894ad70891ce579,Panic Room,CT,2019-11-01T00:00:00-04:00,2019-12-01T00:00:00-05:00,6851,18,56.5,"{""<5"":0,""5-20"":6,""21-60"":3,""61-240"":9,"">240"":0}",1551.0,41.12192,-73.40791999999999,423830.0,CT,9.0,9001.0,Fairfield County,90010428003.0
9593,sg:a10e0c14ce4046c3b6d2b225b68e2aeb,Dunkin',CT,2019-11-01T00:00:00-04:00,2019-12-01T00:00:00-05:00,6473,630,7.0,"{""<5"":53,""5-20"":473,""21-60"":34,""61-240"":49,"">240"":21}",19836.5,41.396218,-72.85458299999999,722515.0,CT,9.0,9009.0,New Haven County,90091672022.0
9651,sg:a878211cc3854f82b6ab38936710198b,Air Heating & Air Conditioning,CT,2019-11-01T00:00:00-04:00,2019-12-01T00:00:00-05:00,6405,45,546.0,"{""<5"":0,""5-20"":6,""21-60"":4,""61-240"":7,"">240"":28}",8010.5,41.262586,-72.83453100000001,561740.0,CT,9.0,9009.0,New Haven County,90091843001.0
9655,sg:a8d3d5bc2e054d5da066b88e223f8e29,Sakura Japanese Restaurant,CT,2019-11-01T00:00:00-04:00,2019-12-01T00:00:00-05:00,6880,473,41.0,"{""<5"":9,""5-20"":95,""21-60"":220,""61-240"":145,"">240"":4}",32902.5,41.13752,-73.342226,722511.0,CT,9.0,9001.0,Fairfield County,90010505001.0
9658,sg:a93ded868dea4b929f684b0c7378e44a,El Classico Restaurant &amp Bar,CT,2019-11-01T00:00:00-04:00,2019-12-01T00:00:00-05:00,6704,26,49.5,"{""<5"":1,""5-20"":10,""21-60"":4,""61-240"":3,"">240"":8}",2661.0,41.582108000000005,-73.04856,722511.0,,,,,
9711,sg:aeacaafc20d14120aff0285662fb3ce5,First Street Apizza,CT,2019-11-01T00:00:00-04:00,2019-12-01T00:00:00-05:00,6483,40,41.0,"{""<5"":2,""5-20"":14,""21-60"":6,""61-240"":11,"">240"":7}",3758.5,41.395276,-73.073921,722511.0,CT,9.0,9009.0,New Haven County,90091301012.0
9831,sg:b9d0f52991964c6ea3a7624cf8560199,Lucibello's Italian Pastry Shop,CT,2019-11-01T00:00:00-04:00,2019-12-01T00:00:00-05:00,6511,130,38.0,"{""<5"":3,""5-20"":47,""21-60"":24,""61-240"":27,"">240"":29}",12590.5,41.307577,-72.918903,311811.0,CT,9.0,9009.0,New Haven County,90091421001.0
10193,sg:dfc3fa4240004bbc8f8b3fe5023c76d7,Camp Avenue Car Wash,CT,2019-11-01T00:00:00-04:00,2019-12-01T00:00:00-05:00,6907,16,603.5,"{""<5"":0,""5-20"":1,""21-60"":0,""61-240"":0,"">240"":15}",3612.5,41.095734,-73.515271,811192.0,CT,9.0,9001.0,Fairfield County,90010209001.0
10280,sg:e840a119c65445f9a14593095291bef4,Ergo Chef,CT,2019-11-01T00:00:00-04:00,2019-12-01T00:00:00-05:00,6810,68,61.5,"{""<5"":2,""5-20"":18,""21-60"":12,""61-240"":19,"">240"":17}",7655.5,41.411502,-73.418075,442299.0,CT,9.0,9001.0,Fairfield County,90012104003.0
10423,sg:f9fdb10d0be540f8934398d24d61079c,Balmoral Pet Cemetery & Crematory,CT,2019-11-01T00:00:00-04:00,2019-12-01T00:00:00-05:00,6755,2,9.5,"{""<5"":0,""5-20"":2,""21-60"":0,""61-240"":0,"">240"":0}",25.0,41.658959,-73.489354,812910.0,CT,9.0,9005.0,Litchfield County,90052535001.0
10492,sg:00cedbb461334b8ebd639f6a16f8026d,Inner Strength Martial Arts,CT,2019-11-01T00:00:00-04:00,2019-12-01T00:00:00-05:00,6424,89,40.0,"{""<5"":2,""5-20"":20,""21-60"":38,""61-240"":22,"">240"":7}",6785.0,41.564527000000005,-72.537768,713940.0,CT,9.0,9007.0,Middlesex County,90075502022.0
10552,sg:06fe59a8cd454d0c816525b9c7d10826,Marrone Chiropractic,CT,2019-11-01T00:00:00-04:00,2019-12-01T00:00:00-05:00,6831,22,27.0,"{""<5"":0,""5-20"":6,""21-60"":9,""61-240"":4,"">240"":3}",1761.5,41.030719,-73.631734,621310.0,CT,9.0,9001.0,Fairfield County,90010103004.0
10610,sg:0c3b184f016040248aecfc887deeebc6,Northeastern Pulmonary Associates LLC,CT,2019-11-01T00:00:00-04:00,2019-12-01T00:00:00-05:00,6066,153,46.0,"{""<5"":1,""5-20"":34,""21-60"":65,""61-240"":39,"">240"":14}",12289.5,41.839069,-72.492723,621111.0,CT,9.0,9013.0,Tolland County,90135303021.0
10638,sg:0e9664149c2f43918dcd10dbff6f5559,Catapano Towing,CT,2019-11-01T00:00:00-04:00,2019-12-01T00:00:00-05:00,6519,1,449.0,"{""<5"":0,""5-20"":0,""21-60"":0,""61-240"":0,"">240"":1}",240.0,41.28519,-72.937211,488410.0,CT,9.0,9009.0,New Haven County,90091404001.0
10750,sg:18fc7a59a49c47c1aa6b97b0bea4d8f7,YMCA,CT,2019-11-01T00:00:00-04:00,2019-12-01T00:00:00-05:00,6260,561,59.0,"{""<5"":7,""5-20"":73,""21-60"":216,""61-240"":257,"">240"":8}",50276.5,41.899658,-71.90345699999999,624190.0,CT,9.0,9015.0,Windham County,90159032001.0
10789,sg:1d019ae50cac429b865f2cd65d3c4265,Family Physical Therapy,CT,2019-11-01T00:00:00-04:00,2019-12-01T00:00:00-05:00,6415,31,29.0,"{""<5"":0,""5-20"":12,""21-60"":15,""61-240"":4,"">240"":0}",1359.5,41.577979,-72.337486,621111.0,CT,9.0,9011.0,New London County,90117141011.0
10832,sg:2064fe0b06f643679d5d1f4519aa5fcd,Schaller Mitsubishi,CT,2019-11-01T00:00:00-04:00,2019-12-01T00:00:00-05:00,6051,834,35.5,"{""<5"":7,""5-20"":288,""21-60"":272,""61-240"":232,"">240"":35}",57949.5,41.649358,-72.77064,441110.0,CT,9.0,9003.0,Hartford County,90034154005.0
10857,sg:2312e6c114b241ce9de35fc868b113ff,Hartford HealthCare Medical Group,CT,2019-11-01T00:00:00-04:00,2019-12-01T00:00:00-05:00,6489,3,29.0,"{""<5"":0,""5-20"":1,""21-60"":2,""61-240"":0,"">240"":0}",93.5,41.628972,-72.877112,621111.0,CT,9.0,9003.0,Hartford County,90034306011.0
10914,sg:26e08eb1a21f49799a38ca3049a72746,First Congregational Church Pastoral Counselng Ofc,CT,2019-11-01T00:00:00-04:00,2019-12-01T00:00:00-05:00,6371,65,61.0,"{""<5"":2,""5-20"":7,""21-60"":23,""61-240"":31,"">240"":2}",6169.5,41.312963,-72.332008,813110.0,CT,9.0,9011.0,New London County,90116601013.0
11171,sg:40643ae4556441d9be5962cd3a803237,Thomaston Feed of Cheshire,CT,2019-11-01T00:00:00-04:00,2019-12-01T00:00:00-05:00,6410,764,21.0,"{""<5"":27,""5-20"":333,""21-60"":273,""61-240"":97,"">240"":34}",38045.0,41.479599,-72.907093,453910.0,CT,9.0,9009.0,New Haven County,90093434001.0
11179,sg:40f902a9df40417c823e173d6d83835b,Danbury Hospital,CT,2019-11-01T00:00:00-04:00,2019-12-01T00:00:00-05:00,6810,43,184.0,"{""<5"":0,""5-20"":2,""21-60"":10,""61-240"":13,"">240"":18}",6706.5,41.411534,-73.431874,621610.0,CT,9.0,9001.0,Fairfield County,90012103002.0
11224,sg:44cf61c0572f414b9ac2cce8701d84b7,New England Country Day School,CT,2019-11-01T00:00:00-04:00,2019-12-01T00:00:00-05:00,6810,109,243.0,"{""<5"":4,""5-20"":35,""21-60"":5,""61-240"":10,"">240"":55}",15355.0,41.378009999999996,-73.493669,624410.0,CT,9.0,9001.0,Fairfield County,90012105003.0
11227,sg:44dba232ae2c447ab3c930dc4151217a,Kiwanis Easter Seal Day Camp,CT,2019-11-01T00:00:00-04:00,2019-12-01T00:00:00-05:00,6716,33,24.0,"{""<5"":2,""5-20"":14,""21-60"":5,""61-240"":3,"">240"":9}",2994.0,41.588227,-72.987845,713940.0,CT,9.0,9009.0,New Haven County,90093611002.0
11307,sg:4c7d06f8bd70409abe1bd0c6bfbbee62,Greenwich Bicycles,CT,2019-11-01T00:00:00-04:00,2019-12-01T00:00:00-05:00,6830,197,204.0,"{""<5"":2,""5-20"":47,""21-60"":17,""61-240"":40,"">240"":91}",29141.0,41.03027,-73.625772,451110.0,CT,9.0,9001.0,Fairfield County,90010106003.0
11532,sg:61c767fbcf624495b2bd601b2732fb85,Knit New Haven,CT,2019-11-01T00:00:00-04:00,2019-12-01T00:00:00-05:00,6510,97,26.0,"{""<5"":0,""5-20"":40,""21-60"":32,""61-240"":23,"">240"":2}",5737.5,41.311252,-72.922554,451130.0,CT,9.0,9009.0,New Haven County,90091420003.0
11534,sg:61ec0bd5dcc94c749028acb473b01da0,St Mary Parish,CT,2019-11-01T00:00:00-04:00,2019-12-01T00:00:00-05:00,6511,2,156.5,"{""<5"":0,""5-20"":0,""21-60"":0,""61-240"":2,"">240"":0}",301.0,41.311879,-72.923688,813110.0,CT,9.0,9009.0,New Haven County,90093614021.0
11546,sg:62ba2ddad43640249b018fbd31710dd4,Williams-Sonoma,CT,2019-11-01T00:00:00-04:00,2019-12-01T00:00:00-05:00,6498,154,23.0,"{""<5"":3,""5-20"":57,""21-60"":56,""61-240"":24,"">240"":14}",9960.0,41.289382,-72.430912,442299.0,CT,9.0,9007.0,Middlesex County,90076801005.0
11714,sg:73766095cfd349f983d0d674a3bfb40c,El Cochinito,CT,2019-11-01T00:00:00-04:00,2019-12-01T00:00:00-05:00,6608,196,10.0,"{""<5"":9,""5-20"":142,""21-60"":21,""61-240"":22,"">240"":2}",6439.0,41.186755,-73.18101800000001,722511.0,CT,9.0,9001.0,Fairfield County,90010739002.0
11753,sg:76a31b3e39ad4004bc8314afef16f815,Calvary Independent Baptist Church,CT,2019-11-01T00:00:00-04:00,2019-12-01T00:00:00-05:00,6896,15,102.0,"{""<5"":0,""5-20"":3,""21-60"":2,""61-240"":8,"">240"":2}",1802.5,41.331252,-73.42161999999999,813110.0,CT,9.0,9001.0,Fairfield County,90012401001.0
11770,sg:78bb4c2e52c0458485a77b3ae78a69e9,Monro,CT,2019-11-01T00:00:00-04:00,2019-12-01T00:00:00-05:00,6118,102,39.0,"{""<5"":7,""5-20"":37,""21-60"":18,""61-240"":28,"">240"":12}",8303.0,41.751739,-72.640333,811198.0,CT,9.0,9003.0,Hartford County,90035106003.0
11844,sg:7f88e31d969247efacc34a81f70850e9,Enterprise Rent-A-Car,CT,2019-11-01T00:00:00-04:00,2019-12-01T00:00:00-05:00,6042,2,5.5,"{""<5"":0,""5-20"":2,""21-60"":0,""61-240"":0,"">240"":0}",25.0,41.798522999999996,-72.55148100000001,532111.0,CT,9.0,9003.0,Hartford County,90035141021.0
11861,sg:812c7b3fdfa64c6f87e8cd0e13f694ec,Avis Rent A Car,CT,2019-11-01T00:00:00-04:00,2019-12-01T00:00:00-05:00,6340,35,13.0,"{""<5"":1,""5-20"":22,""21-60"":6,""61-240"":2,"">240"":4}",1781.5,41.334841,-72.047721,532111.0,CT,9.0,9011.0,New London County,90117027003.0
11889,sg:832d813c91cf4dd79264957aacc08a64,Sunglass Hut,CT,2019-11-01T00:00:00-04:00,2019-12-01T00:00:00-05:00,6460,1,20.0,"{""<5"":0,""5-20"":1,""21-60"":0,""61-240"":0,"">240"":0}",12.5,41.236034000000004,-73.03573,446130.0,,,,,
11921,sg:861a900ed03b48c6aa539fd4f7717e55,GEORGE HARTE NISSAN,CT,2019-11-01T00:00:00-04:00,2019-12-01T00:00:00-05:00,6516,191,25.0,"{""<5"":6,""5-20"":78,""21-60"":49,""61-240"":48,"">240"":10}",12598.5,41.307445,-72.968429,441110.0,CT,9.0,9009.0,New Haven County,90091541001.0
11992,sg:8ce7a7dd64eb4a91977ee98ff33e87bd,Nick's Coastal Hardwood Flooring,CT,2019-11-01T00:00:00-04:00,2019-12-01T00:00:00-05:00,6443,12,168.0,"{""<5"":0,""5-20"":0,""21-60"":0,""61-240"":8,"">240"":4}",2164.0,41.405701,-72.66637,561740.0,CT,9.0,9009.0,New Haven County,90091942011.0
12007,sg:8e2cf8632a1c401eb16824a8c0f89e3b,DaVita,CT,2019-11-01T00:00:00-04:00,2019-12-01T00:00:00-05:00,6002,97,288.0,"{""<5"":0,""5-20"":7,""21-60"":6,""61-240"":33,"">240"":51}",17537.0,41.872446999999994,-72.73484499999999,621492.0,CT,9.0,9003.0,Hartford County,90034715001.0
12105,sg:96ba2006242145fbb0ccff954371ba7a,Reit Management,CT,2019-11-01T00:00:00-04:00,2019-12-01T00:00:00-05:00,6492,128,220.0,"{""<5"":0,""5-20"":10,""21-60"":20,""61-240"":37,"">240"":61}",21143.5,41.48987,-72.791698,621111.0,CT,9.0,9009.0,New Haven County,90091758001.0
12224,sg:a1b8c27c6e024bd2b49c0d401512d01d,Stop & Shop,CT,2019-11-01T00:00:00-04:00,2019-12-01T00:00:00-05:00,6483,1711,20.0,"{""<5"":33,""5-20"":902,""21-60"":663,""61-240"":79,"">240"":34}",58258.5,41.397976,-73.073041,445110.0,CT,9.0,9009.0,New Haven County,90091302001.0
12325,sg:ac71f4d35b9e4b7bac7564965bb0f87b,Like New Auto Sales,CT,2019-11-01T00:00:00-04:00,2019-12-01T00:00:00-05:00,6810,40,21.0,"{""<5"":2,""5-20"":18,""21-60"":6,""61-240"":7,"">240"":7}",3206.5,41.382207,-73.466482,441120.0,CT,9.0,9001.0,Fairfield County,90012106001.0
12376,sg:b165b44631f441f7ad12dacfebece379,Subway,CT,2019-11-01T00:00:00-04:00,2019-12-01T00:00:00-05:00,6606,127,23.0,"{""<5"":6,""5-20"":55,""21-60"":33,""61-240"":28,"">240"":5}",7453.0,41.196051000000004,-73.19305,722513.0,CT,9.0,9001.0,Fairfield County,90012572002.0
12423,sg:b5a4530794c2464eabf638b8ab69f6b0,AGN Dental Associates,CT,2019-11-01T00:00:00-04:00,2019-12-01T00:00:00-05:00,6078,253,10.0,"{""<5"":15,""5-20"":188,""21-60"":34,""61-240"":8,"">240"":8}",6888.5,41.982963,-72.65602,621210.0,CT,9.0,9003.0,Hartford County,90034771011.0
12532,sg:bfa6f730705941d2aa7413cf4a9d6ac3,Walgreens,CT,2019-11-01T00:00:00-04:00,2019-12-01T00:00:00-05:00,6840,265,16.0,"{""<5"":8,""5-20"":144,""21-60"":62,""61-240"":42,"">240"":9}",12812.0,41.144708,-73.496262,446110.0,CT,9.0,9001.0,Fairfield County,90010351004.0
12555,sg:c1bb198430b5421da3fd129025b6d44e,Farmington Ave Baptist Church,CT,2019-11-01T00:00:00-04:00,2019-12-01T00:00:00-05:00,6107,21,68.0,"{""<5"":0,""5-20"":6,""21-60"":1,""61-240"":13,"">240"":1}",2312.0,41.754647999999996,-72.764552,624410.0,CT,9.0,9003.0,Hartford County,90034966001.0
12624,sg:ca2f07c2c6f54ba0a7f18d8b36f0b9d7,The Village at Mariner's Point,CT,2019-11-01T00:00:00-04:00,2019-12-01T00:00:00-05:00,6512,239,41.0,"{""<5"":1,""5-20"":86,""21-60"":49,""61-240"":74,"">240"":29}",21159.0,41.246365999999995,-72.87713199999999,621610.0,CT,9.0,9009.0,New Haven County,90091801005.0
12641,sg:cc08496eca15443b90e36ab1d37fe531,Bridgeport Fire Department Engine Company And Ladder 10,CT,2019-11-01T00:00:00-04:00,2019-12-01T00:00:00-05:00,6610,179,63.0,"{""<5"":4,""5-20"":52,""21-60"":32,""61-240"":41,"">240"":50}",20126.5,41.194743,-73.175973,922160.0,CT,9.0,9001.0,Fairfield County,90010736001.0
12646,sg:ccd9b0d4325f4d87aeafe144d814d97f,Trackside Brick Oven Pizzeria,CT,2019-11-01T00:00:00-04:00,2019-12-01T00:00:00-05:00,6492,83,21.0,"{""<5"":4,""5-20"":35,""21-60"":22,""61-240"":21,"">240"":1}",4739.0,41.444715,-72.83068399999999,722511.0,CT,9.0,9009.0,New Haven County,90091754001.0
12686,sg:d0f2c9d853a54cc6840c88faec1f80b9,Franco's Pizza,CT,2019-11-01T00:00:00-04:00,2019-12-01T00:00:00-05:00,6460,174,20.0,"{""<5"":10,""5-20"":78,""21-60"":35,""61-240"":39,"">240"":12}",11167.0,41.223893,-73.057715,722511.0,CT,9.0,9009.0,New Haven County,90091501001.0
13025,sg:f4e88366f16247b1971f34668ee75fbd,Dunkin',CT,2019-11-01T00:00:00-04:00,2019-12-01T00:00:00-05:00,6078,8,18.0,"{""<5"":1,""5-20"":3,""21-60"":1,""61-240"":1,"">240"":2}",711.0,41.996655,-72.613566,722515.0,CT,9.0,9003.0,Hartford County,90034771021.0
13157,sg:02cb7f718e9c4aa69c80aacefe6b175c,Lombard Ford Service,CT,2019-11-01T00:00:00-04:00,2019-12-01T00:00:00-05:00,6063,4,85.0,"{""<5"":0,""5-20"":0,""21-60"":1,""61-240"":3,"">240"":0}",492.0,41.909651000000004,-73.042464,441310.0,CT,9.0,9005.0,Litchfield County,90052901002.0
13188,sg:06656a9346c0478daa6a45a594f55977,Parrilla Bar & Lounge,CT,2019-11-01T00:00:00-04:00,2019-12-01T00:00:00-05:00,6810,259,26.0,"{""<5"":7,""5-20"":107,""21-60"":71,""61-240"":68,"">240"":6}",15904.5,41.396842,-73.452916,722511.0,CT,9.0,9001.0,Fairfield County,90012101001.0
13293,sg:1111cc2c88114d598ba3dcdc3bb879a6,Doctors' Pediatric PC,CT,2019-11-01T00:00:00-04:00,2019-12-01T00:00:00-05:00,6897,76,26.0,"{""<5"":1,""5-20"":23,""21-60"":43,""61-240"":8,"">240"":1}",3475.5,41.167415000000005,-73.417408,621111.0,CT,9.0,9001.0,Fairfield County,90010454002.0
13350,sg:165497b3a0b0439587088361f8c62ecc,Speech and Language Consultants,CT,2019-11-01T00:00:00-04:00,2019-12-01T00:00:00-05:00,6851,8,133.5,"{""<5"":0,""5-20"":0,""21-60"":2,""61-240"":5,"">240"":1}",1073.5,41.131612,-73.42325699999999,611630.0,CT,9.0,9001.0,Fairfield County,90010427002.0
13582,sg:2b591183e0a14d49bd1380ef47c6d398,Calvary Church of South Windsor,CT,2019-11-01T00:00:00-04:00,2019-12-01T00:00:00-05:00,6074,15,12.0,"{""<5"":1,""5-20"":7,""21-60"":2,""61-240"":5,"">240"":0}",923.5,41.820952,-72.55006,813110.0,CT,9.0,9003.0,Hartford County,90034875002.0
13645,sg:31bc771637c942adbbfaa960310d0212,GROSSMAN CHEVROLET,CT,2019-11-01T00:00:00-04:00,2019-12-01T00:00:00-05:00,6475,139,74.0,"{""<5"":4,""5-20"":40,""21-60"":21,""61-240"":23,"">240"":51}",17062.0,41.309403,-72.381271,441110.0,CT,9.0,9007.0,Middlesex County,90076701003.0
13655,sg:325321f34c934e389e39ad7ef30579d2,Mikes' Auto Service,CT,2019-11-01T00:00:00-04:00,2019-12-01T00:00:00-05:00,6438,55,261.0,"{""<5"":0,""5-20"":2,""21-60"":4,""61-240"":19,"">240"":30}",10246.5,41.449373,-72.477147,441310.0,CT,9.0,9007.0,Middlesex County,90075901004.0
13703,sg:36eb5d7d5f85404492c931bba9cecc8c,Piercing Pagoda,CT,2019-11-01T00:00:00-04:00,2019-12-01T00:00:00-05:00,6040,276,10.0,"{""<5"":14,""5-20"":195,""21-60"":53,""61-240"":14,"">240"":0}",6726.0,41.806159,-72.546277,448310.0,CT,9.0,9003.0,Hartford County,90035141021.0
13822,sg:3feccb1ed6094209ac52e83b95866639,Saver Zone,CT,2019-11-01T00:00:00-04:00,2019-12-01T00:00:00-05:00,6082,843,20.0,"{""<5"":22,""5-20"":425,""21-60"":278,""61-240"":79,"">240"":39}",37876.0,42.000003,-72.58423,452319.0,CT,9.0,9003.0,Hartford County,90034804002.0
13898,sg:454330a064e642d2805ea3cb77838c66,O'Connor's Public House,CT,2019-11-01T00:00:00-04:00,2019-12-01T00:00:00-05:00,6804,45,30.0,"{""<5"":0,""5-20"":15,""21-60"":9,""61-240"":18,"">240"":3}",3981.0,41.44941,-73.401263,722511.0,CT,9.0,9001.0,Fairfield County,90012053002.0
13946,sg:49e61960046845a7b2387f9ae80634eb,Haus of Dog,CT,2019-11-01T00:00:00-04:00,2019-12-01T00:00:00-05:00,6468,73,34.0,"{""<5"":2,""5-20"":26,""21-60"":17,""61-240"":15,"">240"":13}",6396.0,41.301781,-73.253128,453910.0,CT,9.0,9001.0,Fairfield County,90011001003.0
14015,sg:51127dc82c614deb8b2450ebdfc41507,EZ Market Tibetan Dumplings,CT,2019-11-01T00:00:00-04:00,2019-12-01T00:00:00-05:00,6360,62,34.0,"{""<5"":4,""5-20"":21,""21-60"":21,""61-240"":11,"">240"":5}",3978.5,41.534983000000004,-72.089226,722511.0,CT,9.0,9011.0,New London County,90116965002.0
14194,sg:61f4115d64404aa0ab7abe5bc18d955f,Shearwater Coffee Bar Westport,CT,2019-11-01T00:00:00-04:00,2019-12-01T00:00:00-05:00,6880,309,61.0,"{""<5"":3,""5-20"":73,""21-60"":75,""61-240"":107,"">240"":51}",32301.0,41.138137,-73.336779,722515.0,CT,9.0,9001.0,Fairfield County,90010503004.0
14197,sg:623c9290da064db0802421e80b8861e9,United States Postal Service (USPS),CT,2019-11-01T00:00:00-04:00,2019-12-01T00:00:00-05:00,6340,25,825.0,"{""<5"":0,""5-20"":0,""21-60"":0,""61-240"":2,"">240"":23}",5821.0,41.325052,-71.987812,491110.0,CT,9.0,9011.0,New London County,90117029002.0
14204,sg:62ebe2840a694759b6599cd22aaaa09b,Orangetheory Fitness,CT,2019-11-01T00:00:00-04:00,2019-12-01T00:00:00-05:00,6851,311,61.0,"{""<5"":0,""5-20"":37,""21-60"":112,""61-240"":136,"">240"":26}",31706.5,41.128432000000004,-73.42319,713940.0,CT,9.0,9001.0,Fairfield County,90010434003.0
14279,sg:6a62222d94ed493c8d00fc24dd12c32f,Douro Restaurant Bar,CT,2019-11-01T00:00:00-04:00,2019-12-01T00:00:00-05:00,6830,428,39.0,"{""<5"":8,""5-20"":112,""21-60"":172,""61-240"":78,"">240"":58}",34045.0,41.023205,-73.62474499999999,722511.0,CT,9.0,9001.0,Fairfield County,90010106002.0
14412,sg:7816accdaa5c4c6aab2ab14cfe820e51,Danbury Tattoo & Piercing,CT,2019-11-01T00:00:00-04:00,2019-12-01T00:00:00-05:00,6811,53,21.0,"{""<5"":1,""5-20"":20,""21-60"":16,""61-240"":15,"">240"":1}",3398.0,41.390555,-73.504483,812199.0,CT,9.0,9001.0,Fairfield County,90012108003.0
14590,sg:8a816d06474f481ca80cc35051a61ffe,KFC,CT,2019-11-01T00:00:00-04:00,2019-12-01T00:00:00-05:00,6416,275,10.0,"{""<5"":18,""5-20"":178,""21-60"":49,""61-240"":23,"">240"":7}",9396.0,41.601673999999996,-72.67564300000001,722513.0,CT,9.0,9007.0,Middlesex County,90075702002.0
14610,sg:8bf093c975fb4d92bb949564b5cf5aaf,Box Bistro,CT,2019-11-01T00:00:00-04:00,2019-12-01T00:00:00-05:00,6037,17,10.0,"{""<5"":3,""5-20"":8,""21-60"":3,""61-240"":3,"">240"":0}",680.5,41.627373,-72.754906,445110.0,CT,9.0,9003.0,Hartford County,90034001001.0
14624,sg:8cc8da0bd72c46e481a659171101ca55,Johnny B's Bar & Grill,CT,2019-11-01T00:00:00-04:00,2019-12-01T00:00:00-05:00,6716,160,54.0,"{""<5"":0,""5-20"":35,""21-60"":50,""61-240"":71,"">240"":4}",14108.0,41.554213,-72.970939,722511.0,CT,9.0,9009.0,New Haven County,90093611004.0
14645,sg:8eaf919ac6ea408e9644b7fab50bfd40,Dunkin',CT,2019-11-01T00:00:00-04:00,2019-12-01T00:00:00-05:00,6489,297,6.0,"{""<5"":35,""5-20"":217,""21-60"":25,""61-240"":12,"">240"":8}",7538.5,41.640026,-72.874516,722515.0,CT,9.0,9003.0,Hartford County,90034306013.0
14845,sg:a1544f63982b49abaee3785710a7dec0,Medi Weightloss,CT,2019-11-01T00:00:00-04:00,2019-12-01T00:00:00-05:00,6010,6,139.0,"{""<5"":0,""5-20"":0,""21-60"":0,""61-240"":5,"">240"":1}",992.5,41.685595,-72.941132,812191.0,CT,9.0,9003.0,Hartford County,90034059003.0
14869,sg:a36678529caa4fdfab9f63bfc1e9a5c8,Paul Howard's Valley Music School,CT,2019-11-01T00:00:00-04:00,2019-12-01T00:00:00-05:00,6001,43,42.0,"{""<5"":0,""5-20"":11,""21-60"":16,""61-240"":13,"">240"":3}",3462.0,41.811911,-72.846372,451140.0,CT,9.0,9003.0,Hartford County,90034622011.0
15182,sg:c48da94219314425b71f9d62bcdf882e,Cablevision of Connecticut,CT,2019-11-01T00:00:00-04:00,2019-12-01T00:00:00-05:00,6905,32,129.5,"{""<5"":0,""5-20"":5,""21-60"":6,""61-240"":9,"">240"":12}",4540.0,41.069887,-73.548975,443142.0,CT,9.0,9001.0,Fairfield County,90010212002.0
15238,sg:c9e9e2f123454a358050956f1b2cbf07,Mianus River Natural Park,CT,2019-11-01T00:00:00-04:00,2019-12-01T00:00:00-05:00,6807,144,63.5,"{""<5"":1,""5-20"":34,""21-60"":32,""61-240"":66,"">240"":11}",14296.5,41.064589,-73.578692,712190.0,CT,9.0,9001.0,Fairfield County,90010102023.0
15260,sg:cc48912df070461a9f1031a127860fe1,Gomez Joseph A Dr,CT,2019-11-01T00:00:00-04:00,2019-12-01T00:00:00-05:00,6468,9,14.0,"{""<5"":0,""5-20"":6,""21-60"":1,""61-240"":1,"">240"":1}",506.0,41.321042,-73.212416,621210.0,CT,9.0,9001.0,Fairfield County,90011002004.0
15365,sg:d6355dda1baa423cbb7e5741bf653c61,True Value Hardware,CT,2019-11-01T00:00:00-04:00,2019-12-01T00:00:00-05:00,6260,14,10.5,"{""<5"":0,""5-20"":10,""21-60"":1,""61-240"":3,"">240"":0}",617.0,41.913571000000005,-71.909163,444130.0,CT,9.0,9015.0,Windham County,90159031007.0
15772,sg:fdb8357e3aa14af2826a2bb99abcf82a,Glass Doctor,CT,2019-11-01T00:00:00-04:00,2019-12-01T00:00:00-05:00,6850,28,57.0,"{""<5"":0,""5-20"":9,""21-60"":5,""61-240"":7,"">240"":7}",3048.5,41.125648999999996,-73.440139,444120.0,CT,9.0,9001.0,Fairfield County,90010432001.0
15799,sg:ffc024b587ef47afb69f044d4aa7f373,The Towne Tavern,CT,2019-11-01T00:00:00-04:00,2019-12-01T00:00:00-05:00,6790,86,128.5,"{""<5"":1,""5-20"":21,""21-60"":6,""61-240"":25,"">240"":33}",12190.5,41.796925,-73.11361099999999,722511.0,CT,9.0,9005.0,Litchfield County,90053103002.0
15839,sg:04c4d966f5cf442eaa5b4c8a5ee8f952,Tomlinson Middle School,CT,2019-11-01T00:00:00-04:00,2019-12-01T00:00:00-05:00,6824,1307,285.0,"{""<5"":6,""5-20"":198,""21-60"":154,""61-240"":237,"">240"":712}",215275.5,41.144113,-73.257397,611110.0,CT,9.0,9001.0,Fairfield County,90010607002.0
16114,sg:1cf2c1276349487b9d8e1e543111f5b6,St Francis Hospital & Medical Center,CT,2019-11-01T00:00:00-04:00,2019-12-01T00:00:00-05:00,6105,67,154.0,"{""<5"":0,""5-20"":13,""21-60"":17,""61-240"":4,"">240"":33}",9373.0,41.774181,-72.698459,622110.0,CT,9.0,9003.0,Hartford County,90035246001.0
16148,sg:20fd1dab414e425590c200df24b763f7,Christian Church,CT,2019-11-01T00:00:00-04:00,2019-12-01T00:00:00-05:00,6606,34,179.5,"{""<5"":1,""5-20"":7,""21-60"":4,""61-240"":12,"">240"":10}",4458.0,41.204632000000004,-73.17883499999999,813110.0,CT,9.0,9001.0,Fairfield County,90010734001.0
16188,sg:245e425424544401a532769564cf34c2,Enterprise Rent-A-Car,CT,2019-11-01T00:00:00-04:00,2019-12-01T00:00:00-05:00,6096,118,11.0,"{""<5"":5,""5-20"":83,""21-60"":18,""61-240"":6,"">240"":6}",4122.0,41.92499,-72.667556,532111.0,CT,9.0,9003.0,Hartford County,90034763001.0
16266,sg:2a7f2ee1ed3f4ede99ba7f7af6f2fd80,Jeff's Kettle Corn,CT,2019-11-01T00:00:00-04:00,2019-12-01T00:00:00-05:00,6084,40,7.0,"{""<5"":2,""5-20"":33,""21-60"":4,""61-240"":1,"">240"":0}",730.0,41.868486,-72.411757,445110.0,CT,9.0,9013.0,Tolland County,90135331013.0
16328,sg:312ce6db33b6434a9545a229229d3a77,Salon Le Rae,CT,2019-11-01T00:00:00-04:00,2019-12-01T00:00:00-05:00,6492,4,419.5,"{""<5"":0,""5-20"":0,""21-60"":0,""61-240"":0,"">240"":4}",960.0,41.456409,-72.82732,812112.0,CT,9.0,9009.0,New Haven County,90091754001.0
16345,sg:3282d2480687410fa6982f4cd0ce9ff2,Amy's Arts of Healing,CT,2019-11-01T00:00:00-04:00,2019-12-01T00:00:00-05:00,6897,3,130.0,"{""<5"":0,""5-20"":0,""21-60"":0,""61-240"":2,"">240"":1}",541.0,41.188934,-73.42635,812199.0,CT,9.0,9001.0,Fairfield County,90010452002.0
16387,sg:37c59ee2387444f2addffb333b7b1c5e,Oyster River Tavern,CT,2019-11-01T00:00:00-04:00,2019-12-01T00:00:00-05:00,6516,269,8.0,"{""<5"":23,""5-20"":139,""21-60"":33,""61-240"":59,"">240"":15}",15611.0,41.236290999999994,-72.986409,722511.0,CT,9.0,9009.0,New Haven County,90091547005.0
16538,sg:46ea287851264acf9a0b0f2bdefd8429,Target,CT,2019-11-01T00:00:00-04:00,2019-12-01T00:00:00-05:00,6111,2317,21.0,"{""<5"":58,""5-20"":1013,""21-60"":1016,""61-240"":184,"">240"":46}",92687.5,41.661001,-72.72518000000001,452210.0,CT,9.0,9003.0,Hartford County,90034942013.0
16622,sg:4d0ad67e55024e51aa791e48ab18fb2f,Dennis PR Group,CT,2019-11-01T00:00:00-04:00,2019-12-01T00:00:00-05:00,6117,43,25.0,"{""<5"":1,""5-20"":18,""21-60"":11,""61-240"":3,"">240"":10}",3524.5,41.785495000000004,-72.745151,445230.0,CT,9.0,9003.0,Hartford County,90034974001.0
16732,sg:57e7f073b3ed459490b0aa46a475e4d8,Starbucks,CT,2019-11-01T00:00:00-04:00,2019-12-01T00:00:00-05:00,6082,451,10.0,"{""<5"":23,""5-20"":295,""21-60"":72,""61-240"":56,"">240"":5}",16289.0,41.998326,-72.583024,722515.0,CT,9.0,9003.0,Hartford County,90034804002.0
16884,sg:66b7073c523f49f59a06d46707c0dc7a,Ivy's Simply Homemade,CT,2019-11-01T00:00:00-04:00,2019-12-01T00:00:00-05:00,6385,3,10.0,"{""<5"":0,""5-20"":3,""21-60"":0,""61-240"":0,"">240"":0}",37.5,41.34986,-72.15368000000001,445110.0,CT,9.0,9011.0,New London County,90116933001.0
16961,sg:6e88ee753c5641ac9961b0011538f799,Allstate Insurance,CT,2019-11-01T00:00:00-04:00,2019-12-01T00:00:00-05:00,6040,12,60.0,"{""<5"":0,""5-20"":4,""21-60"":2,""61-240"":2,"">240"":4}",1392.0,41.770278999999995,-72.544128,524210.0,CT,9.0,9003.0,Hartford County,90035146004.0
16990,sg:70fc10f94fd8492da5ff134614db80f0,Immaculate Conception Church,CT,2019-11-01T00:00:00-04:00,2019-12-01T00:00:00-05:00,6786,28,114.5,"{""<5"":0,""5-20"":2,""21-60"":5,""61-240"":14,"">240"":7}",4014.5,41.677523,-73.002932,813110.0,CT,9.0,9005.0,Litchfield County,90054255003.0
17022,sg:747300e2957c41f7805b9640eb27ef98,Tractor Supply Co.,CT,2019-11-01T00:00:00-04:00,2019-12-01T00:00:00-05:00,6415,333,11.0,"{""<5"":13,""5-20"":244,""21-60"":70,""61-240"":5,"">240"":1}",6910.0,41.55873,-72.31981400000001,444130.0,CT,9.0,9011.0,New London County,90117141042.0
17081,sg:79b72cb4a0404f30a25cd7836f52e56c,Lyons & Lyons PC,CT,2019-11-01T00:00:00-04:00,2019-12-01T00:00:00-05:00,6877,63,62.0,"{""<5"":0,""5-20"":5,""21-60"":26,""61-240"":10,"">240"":22}",7900.5,41.316292,-73.47370699999999,541213.0,CT,9.0,9001.0,Fairfield County,90012452003.0
17189,sg:83ac077ef4c04593a6d846267b745ef9,Hartford HealthCare Medical Group,CT,2019-11-01T00:00:00-04:00,2019-12-01T00:00:00-05:00,6374,11,16.0,"{""<5"":0,""5-20"":8,""21-60"":2,""61-240"":1,"">240"":0}",331.5,41.681102,-71.913779,621111.0,CT,9.0,9015.0,Windham County,90159073001.0
17192,sg:83b7ee981b034b05a61c3b94cb1195eb,Republic Parking Systems,CT,2019-11-01T00:00:00-04:00,2019-12-01T00:00:00-05:00,6604,2187,21.0,"{""<5"":62,""5-20"":973,""21-60"":955,""61-240"":163,"">240"":34}",83686.5,41.174137,-73.187202,812930.0,CT,9.0,9001.0,Fairfield County,90010706002.0
17295,sg:8c690bbae5894e7695da624ffa814835,King's Highway Elementary School,CT,2019-11-01T00:00:00-04:00,2019-12-01T00:00:00-05:00,6880,118,301.0,"{""<5"":0,""5-20"":25,""21-60"":11,""61-240"":19,"">240"":63}",18737.5,41.13633,-73.36755699999999,611110.0,CT,9.0,9001.0,Fairfield County,90010504001.0
17403,sg:9594666300c74b1bbdf6350c2ef44edc,andHOW Graphics,CT,2019-11-01T00:00:00-04:00,2019-12-01T00:00:00-05:00,6824,102,15.0,"{""<5"":3,""5-20"":50,""21-60"":20,""61-240"":22,"">240"":7}",6433.5,41.141329,-73.273601,443142.0,CT,9.0,9001.0,Fairfield County,90010607002.0
17465,sg:9bbb94a3739b450aba039ecdac772ac0,Rosagraf Cosmetics,CT,2019-11-01T00:00:00-04:00,2019-12-01T00:00:00-05:00,6902,21,216.0,"{""<5"":0,""5-20"":8,""21-60"":1,""61-240"":10,"">240"":2}",2125.5,41.049393,-73.563695,446120.0,CT,9.0,9001.0,Fairfield County,90010214004.0
17478,sg:9ca13857b5e549fdbabf95174577bc8c,GuitarFixer Bob LLC,CT,2019-11-01T00:00:00-04:00,2019-12-01T00:00:00-05:00,6483,104,34.0,"{""<5"":3,""5-20"":40,""21-60"":20,""61-240"":33,"">240"":8}",8204.0,41.395914000000005,-73.07263,451140.0,CT,9.0,9009.0,New Haven County,90091301012.0
17541,sg:a17a523076074558887873cc53e228e5,Stony Creek Brewery,CT,2019-11-01T00:00:00-04:00,2019-12-01T00:00:00-05:00,6405,331,63.0,"{""<5"":2,""5-20"":51,""21-60"":106,""61-240"":155,"">240"":17}",32343.0,41.274633,-72.812928,312120.0,CT,9.0,9009.0,New Haven County,90091841004.0
17606,sg:a8c17f1b917f45fdb2376b2db5f8fe0a,CVS,CT,2019-11-01T00:00:00-04:00,2019-12-01T00:00:00-05:00,6902,246,12.0,"{""<5"":23,""5-20"":160,""21-60"":43,""61-240"":9,"">240"":11}",7793.5,41.048396999999994,-73.562415,446110.0,CT,9.0,9001.0,Fairfield County,90010214003.0
17781,sg:b97a3679213a4660b8f71bb255f49a9c,Roxbury School,CT,2019-11-01T00:00:00-04:00,2019-12-01T00:00:00-05:00,6902,900,38.0,"{""<5"":11,""5-20"":288,""21-60"":395,""61-240"":155,"">240"":51}",55192.5,41.089156,-73.56424,611110.0,CT,9.0,9001.0,Fairfield County,90010205001.0
17815,sg:bc8e89cdb96c49689098e919756b5df9,Perfect Nails & Hair,CT,2019-11-01T00:00:00-04:00,2019-12-01T00:00:00-05:00,6002,1,73.0,"{""<5"":0,""5-20"":0,""21-60"":0,""61-240"":1,"">240"":0}",150.5,41.815754999999996,-72.71261899999999,812113.0,CT,9.0,9003.0,Hartford County,90034712002.0
17845,sg:bfddf36b7ea548cc9573d94e423c676a,JCPenney Optical,CT,2019-11-01T00:00:00-04:00,2019-12-01T00:00:00-05:00,6032,1,20.0,"{""<5"":0,""5-20"":1,""21-60"":0,""61-240"":0,"">240"":0}",12.5,41.723421,-72.76275600000001,621320.0,CT,9.0,9003.0,Hartford County,90034601002.0
17951,sg:ca26adc10d9140e0a3100fcecc5c0e7a,Christian Science Church,CT,2019-11-01T00:00:00-04:00,2019-12-01T00:00:00-05:00,6877,6,10.0,"{""<5"":0,""5-20"":4,""21-60"":2,""61-240"":0,"">240"":0}",131.0,41.277315,-73.497365,813110.0,CT,9.0,9001.0,Fairfield County,90012453003.0
17991,sg:ce4b011b68cc451e8c81859136aa59cf,CT Garage Service,CT,2019-11-01T00:00:00-04:00,2019-12-01T00:00:00-05:00,6770,23,49.0,"{""<5"":0,""5-20"":9,""21-60"":4,""61-240"":4,"">240"":6}",2316.5,41.488083,-73.068517,811111.0,CT,9.0,9009.0,New Haven County,90093453004.0
18144,sg:ddadb495cdcc44c99e1a8134f9815d48,Wheels,CT,2019-11-01T00:00:00-04:00,2019-12-01T00:00:00-05:00,6470,355,41.0,"{""<5"":9,""5-20"":82,""21-60"":155,""61-240"":109,"">240"":0}",23729.5,41.416302,-73.298474,447110.0,CT,9.0,9001.0,Fairfield County,90012302001.0
18259,sg:e84993676f47439eabbdc509a150f760,Edible Arrangements,CT,2019-11-01T00:00:00-04:00,2019-12-01T00:00:00-05:00,6360,211,24.0,"{""<5"":5,""5-20"":91,""21-60"":55,""61-240"":29,"">240"":31}",15182.0,41.512669,-72.111281,453220.0,CT,9.0,9011.0,New London County,90116966001.0
18275,sg:e96430c305284678b2e511ae0ccf2cc6,Kid Martial Arts Glastonbury CT,CT,2019-11-01T00:00:00-04:00,2019-12-01T00:00:00-05:00,6033,51,62.0,"{""<5"":0,""5-20"":5,""21-60"":20,""61-240"":24,"">240"":2}",4964.5,41.679671,-72.547201,713940.0,CT,9.0,9003.0,Hartford County,90035202021.0
18411,sg:f7fd4f422ffe4b0e882d89f599b79bae,Ruby Tuesday,CT,2019-11-01T00:00:00-04:00,2019-12-01T00:00:00-05:00,6351,314,41.0,"{""<5"":3,""5-20"":75,""21-60"":169,""61-240"":65,"">240"":2}",18052.0,41.587522,-71.990605,722511.0,CT,9.0,9011.0,New London County,90117101002.0
18413,sg:f849149a0e7846a19c5d73a91a9a151c,Kennedy Road Shell,CT,2019-11-01T00:00:00-04:00,2019-12-01T00:00:00-05:00,6095,224,8.0,"{""<5"":14,""5-20"":154,""21-60"":16,""61-240"":34,"">240"":6}",9165.0,41.892322,-72.64907099999999,447110.0,CT,9.0,9003.0,Hartford County,90034735023.0
18544,sg:05ff75d743044ab0b2de695906b5cdd6,Leether Automotive,CT,2019-11-01T00:00:00-04:00,2019-12-01T00:00:00-05:00,6010,27,15.0,"{""<5"":1,""5-20"":14,""21-60"":6,""61-240"":5,"">240"":1}",1413.0,41.671595,-72.90414200000001,811111.0,CT,9.0,9003.0,Hartford County,90034054012.0
18600,sg:0aab7a6d4e1a4197b2d39efb17fa54c5,Connecticut Surgical Group,CT,2019-11-01T00:00:00-04:00,2019-12-01T00:00:00-05:00,6451,89,51.0,"{""<5"":1,""5-20"":17,""21-60"":31,""61-240"":28,"">240"":12}",8564.5,41.54965,-72.801198,621111.0,CT,9.0,9009.0,New Haven County,90091716003.0
18667,sg:10121939af4b4236823dd8c4c5cdea3b,Dunkin',CT,2019-11-01T00:00:00-04:00,2019-12-01T00:00:00-05:00,6103,783,15.0,"{""<5"":33,""5-20"":453,""21-60"":165,""61-240"":74,"">240"":58}",37484.5,41.76891,-72.681531,722515.0,CT,9.0,9003.0,Hartford County,90035021001.0
18878,sg:23c2a7aa1ebe47b69766ac79ff28baaf,Job Corps Academy Child Development Center,CT,2019-11-01T00:00:00-04:00,2019-12-01T00:00:00-05:00,6106,166,255.0,"{""<5"":1,""5-20"":25,""21-60"":16,""61-240"":38,"">240"":86}",27322.0,41.738405,-72.71078,624410.0,CT,9.0,9003.0,Hartford County,90035247003.0
18904,sg:2649a5c3ecf9475b95f734a54b965129,Triple A Restaurant,CT,2019-11-01T00:00:00-04:00,2019-12-01T00:00:00-05:00,6108,292,40.0,"{""<5"":6,""5-20"":69,""21-60"":149,""61-240"":49,"">240"":19}",18846.5,41.774516,-72.64080799999999,722511.0,CT,9.0,9003.0,Hartford County,90035102001.0
18926,sg:28455c50cd564ae0896cbb8539379030,Bright Horizons Children's Center,CT,2019-11-01T00:00:00-04:00,2019-12-01T00:00:00-05:00,6095,56,10.0,"{""<5"":1,""5-20"":45,""21-60"":2,""61-240"":1,"">240"":7}",2476.5,41.877728000000005,-72.704316,624410.0,CT,9.0,9003.0,Hartford County,90034735011.0
19004,sg:2f0f9f4d673542d1bcc60a1b21c697a5,Ordinary,CT,2019-11-01T00:00:00-04:00,2019-12-01T00:00:00-05:00,6510,665,26.0,"{""<5"":16,""5-20"":233,""21-60"":265,""61-240"":87,"">240"":64}",42138.5,41.307075,-72.928465,722511.0,CT,9.0,9009.0,New Haven County,90091401001.0
19184,sg:40ddd824392145e9b75874212f5c7bc2,Three Brothers' Family Restaurant,CT,2019-11-01T00:00:00-04:00,2019-12-01T00:00:00-05:00,6776,459,41.0,"{""<5"":7,""5-20"":58,""21-60"":281,""61-240"":76,"">240"":37}",32441.0,41.562517,-73.414735,722511.0,CT,9.0,9005.0,Litchfield County,90052536001.0
19199,sg:4206481691c344c48b43c0eec9de3a03,Team Slocum Center,CT,2019-11-01T00:00:00-04:00,2019-12-01T00:00:00-05:00,6704,278,66.0,"{""<5"":8,""5-20"":94,""21-60"":34,""61-240"":44,"">240"":98}",32714.0,41.563187,-73.024398,624410.0,CT,9.0,9009.0,New Haven County,90093503001.0
19241,sg:44babfeea5ad44729b60acae934ce612,Domenic's And Vinnie's Pizza,CT,2019-11-01T00:00:00-04:00,2019-12-01T00:00:00-05:00,6489,195,37.0,"{""<5"":6,""5-20"":64,""21-60"":60,""61-240"":56,"">240"":9}",13833.0,41.562540999999996,-72.87345,722511.0,CT,9.0,9003.0,Hartford County,90034303011.0
19261,sg:46279533f33e4ca5bfd72ee61e5a90f6,Herbert M Karpelman Jr DPM,CT,2019-11-01T00:00:00-04:00,2019-12-01T00:00:00-05:00,6410,13,39.0,"{""<5"":0,""5-20"":4,""21-60"":4,""61-240"":3,"">240"":2}",1143.5,41.501540999999996,-72.902407,621111.0,CT,9.0,9009.0,New Haven County,90093433001.0
19309,sg:4b7cb4d6430546ee89896259c8112bff,The Stanwich Club,CT,2019-11-01T00:00:00-04:00,2019-12-01T00:00:00-05:00,6831,259,48.0,"{""<5"":5,""5-20"":77,""21-60"":63,""61-240"":76,"">240"":38}",24084.5,41.125808,-73.6272,713910.0,CT,9.0,9001.0,Fairfield County,90010101023.0
19418,sg:53d2385315134ed58b507f9e54e4b183,iLoveKickboxing,CT,2019-11-01T00:00:00-04:00,2019-12-01T00:00:00-05:00,6484,212,49.0,"{""<5"":1,""5-20"":30,""21-60"":96,""61-240"":79,"">240"":6}",17595.0,41.275698,-73.122282,713940.0,CT,9.0,9001.0,Fairfield County,90011103022.0
19484,sg:5ae3619af6f949859d81b2d4bab825b3,Integrative Family Medicine,CT,2019-11-01T00:00:00-04:00,2019-12-01T00:00:00-05:00,6905,85,90.0,"{""<5"":1,""5-20"":17,""21-60"":16,""61-240"":26,"">240"":25}",10776.0,41.063576,-73.54082199999999,621111.0,CT,9.0,9001.0,Fairfield County,90010216003.0
19525,sg:5ea677bd355643bc9aaf2a7c077a4228,Kelsey Farm,CT,2019-11-01T00:00:00-04:00,2019-12-01T00:00:00-05:00,6831,22,55.0,"{""<5"":0,""5-20"":2,""21-60"":10,""61-240"":10,"">240"":0}",1935.0,41.119933,-73.65437800000001,812910.0,CT,9.0,9001.0,Fairfield County,90010101023.0
19644,sg:6b70ca8af2954e8794531a7dbf689949,Manchester Funeral Home,CT,2019-11-01T00:00:00-04:00,2019-12-01T00:00:00-05:00,6040,50,60.0,"{""<5"":0,""5-20"":9,""21-60"":16,""61-240"":22,"">240"":3}",4791.5,41.77642,-72.517421,812210.0,CT,9.0,9003.0,Hartford County,90035147001.0
19654,sg:6c48c9d499e840cfad972fac041dcd3c,East Haven Village Family Restaurant,CT,2019-11-01T00:00:00-04:00,2019-12-01T00:00:00-05:00,6512,151,35.0,"{""<5"":0,""5-20"":34,""21-60"":87,""61-240"":29,"">240"":1}",8553.0,41.285437,-72.88663299999999,722511.0,CT,9.0,9009.0,New Haven County,90091802001.0
19700,sg:7166889f25524ebe97c733b975bd9881,Weidele's Pizza & Pub,CT,2019-11-01T00:00:00-04:00,2019-12-01T00:00:00-05:00,6377,104,45.0,"{""<5"":0,""5-20"":24,""21-60"":35,""61-240"":38,"">240"":7}",9116.5,41.699076,-71.794576,722511.0,CT,9.0,9015.0,Windham County,90159081002.0
19709,sg:722596bd205d4f7e998787f6476fe692,The New Bottle Shop,CT,2019-11-01T00:00:00-04:00,2019-12-01T00:00:00-05:00,6511,26,99.5,"{""<5"":0,""5-20"":8,""21-60"":4,""61-240"":2,"">240"":12}",3443.0,41.314002,-72.918148,445310.0,CT,9.0,9009.0,New Haven County,90091420003.0
19745,sg:76305acccfdc4895aa60f8bde2f30ed2,Tarrywile Park,CT,2019-11-01T00:00:00-04:00,2019-12-01T00:00:00-05:00,6810,589,54.0,"{""<5"":14,""5-20"":163,""21-60"":129,""61-240"":163,"">240"":120}",60628.5,41.371964,-73.449675,712190.0,CT,9.0,9001.0,Fairfield County,90012105002.0
19752,sg:76d522334743442d98429339824b86ad,RSilva Painting,CT,2019-11-01T00:00:00-04:00,2019-12-01T00:00:00-05:00,6770,36,12.5,"{""<5"":2,""5-20"":18,""21-60"":7,""61-240"":4,"">240"":5}",2315.5,41.494841,-73.058909,811121.0,CT,9.0,9009.0,New Haven County,90093453001.0
19926,sg:87f04b40bace46c3aa27072176bd20ba,One MacDonough Place,CT,2019-11-01T00:00:00-04:00,2019-12-01T00:00:00-05:00,6457,211,36.0,"{""<5"":9,""5-20"":82,""21-60"":34,""61-240"":57,"">240"":29}",17963.0,41.555904,-72.646054,623312.0,CT,9.0,9007.0,Middlesex County,90075417002.0
19973,sg:8ba9cb3be0f24617a82ee30f0b8edc6e,Doggie Wash & Clip,CT,2019-11-01T00:00:00-04:00,2019-12-01T00:00:00-05:00,6470,78,41.5,"{""<5"":1,""5-20"":21,""21-60"":30,""61-240"":21,"">240"":5}",5840.5,41.363169,-73.267931,453910.0,CT,9.0,9001.0,Fairfield County,90012305021.0
20282,sg:ac467c55d5d942b4b2a9013e946a5ea0,Southern Connecticut Gas,CT,2019-11-01T00:00:00-04:00,2019-12-01T00:00:00-05:00,6477,226,141.0,"{""<5"":2,""5-20"":47,""21-60"":29,""61-240"":71,"">240"":77}",30932.5,41.249069,-73.002899,921190.0,CT,9.0,9009.0,New Haven County,90091571001.0
20305,sg:adaa0c79a7b1427eb9873959ca6c2625,Storage Pros,CT,2019-11-01T00:00:00-04:00,2019-12-01T00:00:00-05:00,6040,4,928.5,"{""<5"":0,""5-20"":1,""21-60"":0,""61-240"":0,"">240"":3}",732.5,41.77415,-72.530885,531130.0,CT,9.0,9003.0,Hartford County,90035144005.0
20541,sg:c76a12ba3d694a35bab958cb4fffc5bf,Broadway Auto Service,CT,2019-11-01T00:00:00-04:00,2019-12-01T00:00:00-05:00,6051,110,51.5,"{""<5"":1,""5-20"":34,""21-60"":28,""61-240"":20,"">240"":27}",11051.5,41.673593,-72.782589,447110.0,CT,9.0,9003.0,Hartford County,90034161002.0
20629,sg:d1fc5adc5a294ec2b30187a223df29b7,Collaborative Natural Health Partners,CT,2019-11-01T00:00:00-04:00,2019-12-01T00:00:00-05:00,6040,95,94.0,"{""<5"":0,""5-20"":19,""21-60"":14,""61-240"":37,"">240"":25}",12373.0,41.77809,-72.509508,621111.0,CT,9.0,9003.0,Hartford County,90035143005.0
20688,sg:d73602f8e58145ffb35cf3ef98a4332a,Cipes Pediatric Dentistry,CT,2019-11-01T00:00:00-04:00,2019-12-01T00:00:00-05:00,6119,6,416.0,"{""<5"":0,""5-20"":1,""21-60"":1,""61-240"":0,"">240"":4}",1013.0,41.765091999999996,-72.72820300000001,621210.0,CT,9.0,9003.0,Hartford County,90034971002.0
20694,sg:d796812666524bd6b43a4408b5678dd2,The Harding Group,CT,2019-11-01T00:00:00-04:00,2019-12-01T00:00:00-05:00,6830,5,531.0,"{""<5"":0,""5-20"":0,""21-60"":0,""61-240"":0,"">240"":5}",1200.0,41.015918,-73.64743399999999,523930.0,CT,9.0,9001.0,Fairfield County,90010105006.0
20714,sg:d9a066ffc9784703bd19bbbb56ca7537,Town Fair Tire,CT,2019-11-01T00:00:00-04:00,2019-12-01T00:00:00-05:00,6241,257,22.0,"{""<5"":10,""5-20"":108,""21-60"":76,""61-240"":26,"">240"":37}",17246.0,41.842665000000004,-71.87644300000001,441310.0,CT,9.0,9015.0,Windham County,90159041001.0
20790,sg:e178ea6ab3ee43c0a71a3354b21bcf8b,Mary Immaculate Day Care Center,CT,2019-11-01T00:00:00-04:00,2019-12-01T00:00:00-05:00,6605,7,12.0,"{""<5"":0,""5-20"":4,""21-60"":0,""61-240"":0,"">240"":3}",770.0,41.163314,-73.215092,624410.0,,,,,
20804,sg:e36aa7dc8eee48cf8f20656a31db2967,Annette R Hoo OD,CT,2019-11-01T00:00:00-04:00,2019-12-01T00:00:00-05:00,6604,131,21.0,"{""<5"":0,""5-20"":62,""21-60"":28,""61-240"":37,"">240"":4}",8437.5,41.179068,-73.190901,446130.0,CT,9.0,9001.0,Fairfield County,90010706001.0
20815,sg:e475d5c6820c42e0b12a4c22a94c9492,Old Navy,CT,2019-11-01T00:00:00-04:00,2019-12-01T00:00:00-05:00,6082,578,23.0,"{""<5"":4,""5-20"":215,""21-60"":274,""61-240"":70,"">240"":15}",27929.5,41.991492,-72.5807,448140.0,CT,9.0,9003.0,Hartford County,90034808004.0
20935,sg:f23bf835647549a487b67af18a226d0d,Webster Bank,CT,2019-11-01T00:00:00-04:00,2019-12-01T00:00:00-05:00,6830,6,6.5,"{""<5"":0,""5-20"":5,""21-60"":0,""61-240"":1,"">240"":0}",213.0,41.029492,-73.62401899999999,522110.0,CT,9.0,9001.0,Fairfield County,90010106001.0
21010,sg:fa15fd451d5a4cf1b036a41f817639d9,Abcd Middlebrooks School Child Care,CT,2019-11-01T00:00:00-04:00,2019-12-01T00:00:00-05:00,6611,22,15.0,"{""<5"":1,""5-20"":15,""21-60"":3,""61-240"":2,"">240"":1}",852.5,41.249396000000004,-73.210397,624410.0,CT,9.0,9001.0,Fairfield County,90010904002.0
21028,sg:fc0cadc2fda54cedba668361614b5fe7,Mutual Security Credit Union,CT,2019-11-01T00:00:00-04:00,2019-12-01T00:00:00-05:00,6810,632,228.5,"{""<5"":2,""5-20"":72,""21-60"":68,""61-240"":183,"">240"":307}",104880.5,41.376776,-73.49777900000001,522110.0,CT,9.0,9001.0,Fairfield County,90012105003.0
21080,sg:001e5bf449c04bffb6eefaf227b24f0a,AFC Urgent Care Norwalk,CT,2019-11-01T00:00:00-04:00,2019-12-01T00:00:00-05:00,6851,8,536.0,"{""<5"":0,""5-20"":0,""21-60"":0,""61-240"":0,"">240"":8}",1920.0,41.157402000000005,-73.422104,621493.0,CT,9.0,9001.0,Fairfield County,90010427001.0
21203,sg:0bb4930fea354380929aad649e8ee1d1,Clay Hill Package Store,CT,2019-11-01T00:00:00-04:00,2019-12-01T00:00:00-05:00,6096,131,138.0,"{""<5"":4,""5-20"":27,""21-60"":23,""61-240"":22,"">240"":55}",17790.0,41.936951,-72.632177,445310.0,CT,9.0,9003.0,Hartford County,90034761003.0
21270,sg:1108efe9fd2147fc8b08547ba608e1a9,Code Ninjas,CT,2019-11-01T00:00:00-04:00,2019-12-01T00:00:00-05:00,6110,558,22.0,"{""<5"":15,""5-20"":201,""21-60"":255,""61-240"":78,"">240"":9}",26776.5,41.725646999999995,-72.731774,713940.0,CT,9.0,9003.0,Hartford County,90034961002.0
21353,sg:195ce6ade0e444d7a14054200d3554c4,Affodable Closets,CT,2019-11-01T00:00:00-04:00,2019-12-01T00:00:00-05:00,6096,322,18.0,"{""<5"":13,""5-20"":171,""21-60"":77,""61-240"":47,"">240"":14}",15722.0,41.927785,-72.628462,453998.0,CT,9.0,9003.0,Hartford County,90034761001.0
21433,sg:1f1e78e729674c968a4b455c9934c2d5,McDonald's,CT,2019-11-01T00:00:00-04:00,2019-12-01T00:00:00-05:00,6824,605,10.0,"{""<5"":50,""5-20"":362,""21-60"":112,""61-240"":73,"">240"":8}",22092.5,41.149215999999996,-73.244772,722513.0,CT,9.0,9001.0,Fairfield County,90010615001.0
21482,sg:236a2f1a2b6a40ce96b78c0218d040f6,J&R's Pub,CT,2019-11-01T00:00:00-04:00,2019-12-01T00:00:00-05:00,6614,82,77.0,"{""<5"":0,""5-20"":12,""21-60"":26,""61-240"":35,"">240"":9}",8630.5,41.201012,-73.155961,722511.0,CT,9.0,9001.0,Fairfield County,90010801004.0
21487,sg:23e26d49b86a46e49634f81153ca6469,Eric J Levine DMD,CT,2019-11-01T00:00:00-04:00,2019-12-01T00:00:00-05:00,6032,6,8.0,"{""<5"":0,""5-20"":4,""21-60"":0,""61-240"":0,"">240"":2}",530.0,41.737089000000005,-72.792936,621210.0,CT,9.0,9003.0,Hartford County,90034601001.0
21500,sg:24fc6ad5b54944918680cca5d21f3a30,Wyndham Corporate Interiors,CT,2019-11-01T00:00:00-04:00,2019-12-01T00:00:00-05:00,6234,85,54.0,"{""<5"":1,""5-20"":28,""21-60"":20,""61-240"":22,"">240"":14}",7833.5,41.795845,-71.934061,453210.0,CT,9.0,9015.0,Windham County,90159051003.0
21519,sg:260b7be1672648468d7c54ff8f37eec1,Manchester Early Learning Center Vernon St,CT,2019-11-01T00:00:00-04:00,2019-12-01T00:00:00-05:00,6042,111,26.0,"{""<5"":1,""5-20"":44,""21-60"":37,""61-240"":11,"">240"":18}",8026.5,41.793178999999995,-72.493624,624410.0,CT,9.0,9003.0,Hartford County,90035149003.0
21626,sg:31379bd361254bce8677bdeb09e0574c,Liberty Bank,CT,2019-11-01T00:00:00-04:00,2019-12-01T00:00:00-05:00,6475,12,8.0,"{""<5"":1,""5-20"":8,""21-60"":1,""61-240"":0,"">240"":2}",623.0,41.295190999999996,-72.376283,522110.0,CT,9.0,9007.0,Middlesex County,90076702001.0
21638,sg:320672c6983e425a9fe03b9c44cd1ae4,Shell Oil,CT,2019-11-01T00:00:00-04:00,2019-12-01T00:00:00-05:00,6762,324,9.0,"{""<5"":28,""5-20"":197,""21-60"":36,""61-240"":35,"">240"":28}",15978.0,41.538148,-73.105076,447110.0,CT,9.0,9009.0,New Haven County,90093441002.0
21826,sg:428ce95d02aa4328a2ba3d0297d1e19d,The Compleat Angler,CT,2019-11-01T00:00:00-04:00,2019-12-01T00:00:00-05:00,6820,1,9.0,"{""<5"":0,""5-20"":1,""21-60"":0,""61-240"":0,"">240"":0}",12.5,41.083683,-73.464146,451110.0,CT,9.0,9001.0,Fairfield County,90010302002.0
21941,sg:4d7ef023bb234a0dbc816afb53d94e0d,Essex Steam Train & Riverboat,CT,2019-11-01T00:00:00-04:00,2019-12-01T00:00:00-05:00,6426,771,25.0,"{""<5"":16,""5-20"":282,""21-60"":286,""61-240"":142,"">240"":45}",47319.0,41.350421000000004,-72.405294,713210.0,CT,9.0,9007.0,Middlesex County,90076301006.0
22021,sg:53ceab3420174b5db1a675c0d8a06c8f,Encompass Health,CT,2019-11-01T00:00:00-04:00,2019-12-01T00:00:00-05:00,6067,2,536.5,"{""<5"":0,""5-20"":0,""21-60"":0,""61-240"":0,"">240"":2}",480.0,41.671401,-72.643456,621610.0,,,,,
22207,sg:6784cb6ced0a41379fe68e557dca04e9,Little Rascals Nursery School Inc,CT,2019-11-01T00:00:00-04:00,2019-12-01T00:00:00-05:00,6811,8,193.0,"{""<5"":0,""5-20"":1,""21-60"":1,""61-240"":4,"">240"":2}",1135.0,41.436426000000004,-73.47782099999999,624410.0,CT,9.0,9001.0,Fairfield County,90012110002.0
22313,sg:7212a7b148434780a8171526f52110f9,Spann Unisex Barber Shop,CT,2019-11-01T00:00:00-04:00,2019-12-01T00:00:00-05:00,6511,14,154.0,"{""<5"":0,""5-20"":3,""21-60"":3,""61-240"":2,"">240"":6}",1900.0,41.324628999999995,-72.93548100000001,812112.0,CT,9.0,9009.0,New Haven County,90091415007.0
22652,sg:92892908821e41c5929949f35cc0533b,Freshiana,CT,2019-11-01T00:00:00-04:00,2019-12-01T00:00:00-05:00,6830,70,10.0,"{""<5"":4,""5-20"":46,""21-60"":12,""61-240"":6,"">240"":2}",2454.0,41.029647,-73.625579,448120.0,CT,9.0,9001.0,Fairfield County,90010106003.0
22841,sg:a6151e5932814aa59c4219d998a4dd2c,Andy Peters Magic,CT,2019-11-01T00:00:00-04:00,2019-12-01T00:00:00-05:00,6907,103,90.0,"{""<5"":3,""5-20"":27,""21-60"":16,""61-240"":24,"">240"":33}",12525.0,41.097462,-73.516147,446130.0,CT,9.0,9001.0,Fairfield County,90010209001.0
22945,sg:b15f83e01c374809a23cab1c3b718830,AutoZone,CT,2019-11-01T00:00:00-04:00,2019-12-01T00:00:00-05:00,6260,139,12.0,"{""<5"":8,""5-20"":85,""21-60"":26,""61-240"":12,"">240"":8}",5861.5,41.925145,-71.8924,441310.0,CT,9.0,9015.0,Windham County,90159031004.0
23014,sg:b8d16098cb834f839be3f2028fa6a490,Union Savings Bank,CT,2019-11-01T00:00:00-04:00,2019-12-01T00:00:00-05:00,6019,23,91.0,"{""<5"":2,""5-20"":5,""21-60"":3,""61-240"":10,"">240"":3}",2414.0,41.825031,-72.895482,522110.0,CT,9.0,9003.0,Hartford County,90034641022.0
23016,sg:b9047acdc5fd48e38ef32964a004ebef,Hartford HealthCare Medical Group,CT,2019-11-01T00:00:00-04:00,2019-12-01T00:00:00-05:00,6033,47,224.0,"{""<5"":0,""5-20"":11,""21-60"":9,""61-240"":4,"">240"":23}",6624.0,41.720946000000005,-72.58671899999999,621111.0,CT,9.0,9003.0,Hartford County,90035203011.0
23101,sg:c0b6fbe559984a5ba14403721c31c7a6,Long Ridge of Stamford,CT,2019-11-01T00:00:00-04:00,2019-12-01T00:00:00-05:00,6902,95,34.0,"{""<5"":0,""5-20"":36,""21-60"":24,""61-240"":22,"">240"":13}",7853.0,41.093446,-73.56320600000001,623312.0,CT,9.0,9001.0,Fairfield County,90010205003.0
23162,sg:c7e8f5dd0f55460687452c6767a3c6c0,Hopkinton Recreation Department Park,CT,2019-11-01T00:00:00-04:00,2019-12-01T00:00:00-05:00,2804,139,19.0,"{""<5"":9,""5-20"":65,""21-60"":35,""61-240"":27,"">240"":3}",7036.0,41.419599,-71.784439,712190.0,RI,44.0,44009.0,Washington County,440090507002.0
23180,sg:c98b0e62e27745e7a823f036288289ad,CrossFit,CT,2019-11-01T00:00:00-04:00,2019-12-01T00:00:00-05:00,6423,37,50.0,"{""<5"":0,""5-20"":7,""21-60"":12,""61-240"":18,"">240"":0}",3282.5,41.459948,-72.443435,713940.0,CT,9.0,9007.0,Middlesex County,90075951013.0
23267,sg:d1e6e28af80d45cf97f45e263acdfe29,Mike's Auto Towing,CT,2019-11-01T00:00:00-04:00,2019-12-01T00:00:00-05:00,6477,59,7.0,"{""<5"":9,""5-20"":40,""21-60"":6,""61-240"":2,"">240"":2}",1546.5,41.299023,-73.00417900000001,488410.0,CT,9.0,9009.0,New Haven County,90091574001.0
23294,sg:d4330f286d95446fa17a9ab5a0b244ec,St Luke's Church,CT,2019-11-01T00:00:00-04:00,2019-12-01T00:00:00-05:00,6608,20,231.5,"{""<5"":0,""5-20"":0,""21-60"":1,""61-240"":9,"">240"":10}",3795.0,41.186492,-73.18243199999999,813110.0,CT,9.0,9001.0,Fairfield County,90010739002.0
23332,sg:d905e9b4b00c468cb6afbde916e347c3,Arugula,CT,2019-11-01T00:00:00-04:00,2019-12-01T00:00:00-05:00,6107,101,35.0,"{""<5"":1,""5-20"":32,""21-60"":35,""61-240"":30,"">240"":3}",7055.0,41.761573,-72.742726,722511.0,CT,9.0,9003.0,Hartford County,90034965001.0
23375,sg:dd6cd66d66ae4528ae3d31b08672285e,Second Chance,CT,2019-11-01T00:00:00-04:00,2019-12-01T00:00:00-05:00,6385,3,44.0,"{""<5"":0,""5-20"":0,""21-60"":2,""61-240"":0,"">240"":1}",321.0,41.399684,-72.18804399999999,446110.0,CT,9.0,9011.0,New London County,90116937001.0
23390,sg:deefd93987b64dfb969fe6444ac19f1b,CVS,CT,2019-11-01T00:00:00-04:00,2019-12-01T00:00:00-05:00,6067,235,11.0,"{""<5"":14,""5-20"":137,""21-60"":32,""61-240"":35,"">240"":17}",12391.0,41.662434000000005,-72.639643,446110.0,CT,9.0,9003.0,Hartford County,90034901003.0
23490,sg:e843934e8f954be0afab81b428d6b130,Pot of Green,CT,2019-11-01T00:00:00-04:00,2019-12-01T00:00:00-05:00,6379,55,24.0,"{""<5"":2,""5-20"":21,""21-60"":17,""61-240"":10,"">240"":5}",3661.0,41.369606,-71.861882,453110.0,CT,9.0,9011.0,New London County,90117051023.0
23538,sg:ed8e659669e24c87a0daa6b69f82331a,United States Postal Service (USPS),CT,2019-11-01T00:00:00-04:00,2019-12-01T00:00:00-05:00,6484,213,31.0,"{""<5"":4,""5-20"":77,""21-60"":40,""61-240"":58,"">240"":34}",19481.5,41.293614,-73.104345,491110.0,CT,9.0,9001.0,Fairfield County,90011102023.0
23573,sg:f1c024669fa54e56b1ea5e2c80487a39,East End Park,CT,2019-11-01T00:00:00-04:00,2019-12-01T00:00:00-05:00,6098,212,41.0,"{""<5"":5,""5-20"":57,""21-60"":69,""61-240"":71,"">240"":10}",16605.0,41.921742,-73.060024,712190.0,CT,9.0,9005.0,Litchfield County,90053201002.0
23607,sg:f4c0c2c4d498424ebef226a4f3c4fc1b,Christian Life Academy,CT,2019-11-01T00:00:00-04:00,2019-12-01T00:00:00-05:00,6804,467,45.0,"{""<5"":14,""5-20"":133,""21-60"":112,""61-240"":181,"">240"":27}",39954.0,41.454440999999996,-73.40168100000001,611110.0,CT,9.0,9001.0,Fairfield County,90012053002.0
23642,sg:f91e00a5f3a9446db921f8f4fe4d5dad,O'connell Jeffrey,CT,2019-11-01T00:00:00-04:00,2019-12-01T00:00:00-05:00,6604,90,292.5,"{""<5"":0,""5-20"":5,""21-60"":13,""61-240"":20,"">240"":52}",16079.0,41.206478000000004,-73.22614,621210.0,CT,9.0,9001.0,Fairfield County,90010725004.0
23713,sg:feaaea3cc0b04f81921aa0f25342f308,Strick Robert H DMD,CT,2019-11-01T00:00:00-04:00,2019-12-01T00:00:00-05:00,6360,12,17.0,"{""<5"":1,""5-20"":5,""21-60"":3,""61-240"":2,"">240"":1}",727.5,41.519181,-72.09280600000001,621210.0,CT,9.0,9011.0,New London County,90116967002.0
23715,sg:fed04648b3f94cfcb9f245f4dbaa701a,Dennis TeeKing DMD,CT,2019-11-01T00:00:00-04:00,2019-12-01T00:00:00-05:00,6470,28,60.0,"{""<5"":0,""5-20"":5,""21-60"":9,""61-240"":12,"">240"":2}",2713.0,41.413988,-73.373878,621210.0,CT,9.0,9001.0,Fairfield County,90012301003.0
23810,sg:07f1b8bafb5e43f1869a816874682139,The Good Feet Store,CT,2019-11-01T00:00:00-04:00,2019-12-01T00:00:00-05:00,6001,15,41.0,"{""<5"":0,""5-20"":4,""21-60"":4,""61-240"":7,"">240"":0}",1265.5,41.807969,-72.82441999999999,446199.0,CT,9.0,9003.0,Hartford County,90034622013.0
23841,sg:0a9ce9551e044e8baa788e53492a0633,People's United Bank,CT,2019-11-01T00:00:00-04:00,2019-12-01T00:00:00-05:00,6082,14,9.0,"{""<5"":1,""5-20"":10,""21-60"":2,""61-240"":1,"">240"":0}",359.0,41.990075,-72.575962,522110.0,CT,9.0,9003.0,Hartford County,90034808004.0
23863,sg:0cbad38ec70b458ea2d115eeb2c5b48a,White Hills Wine & Spirits,CT,2019-11-01T00:00:00-04:00,2019-12-01T00:00:00-05:00,6484,60,8.0,"{""<5"":4,""5-20"":55,""21-60"":1,""61-240"":0,"">240"":0}",738.0,41.331796999999995,-73.137461,445310.0,CT,9.0,9001.0,Fairfield County,90011106002.0
23875,sg:0e3c93d762dc49a9904347fc6e7c2d64,Motel 6,CT,2019-11-01T00:00:00-04:00,2019-12-01T00:00:00-05:00,6357,140,76.5,"{""<5"":4,""5-20"":41,""21-60"":18,""61-240"":26,"">240"":51}",17404.5,41.36081,-72.207774,721110.0,CT,9.0,9011.0,New London County,90118707011.0
24014,sg:1bb2813f1333451ca5df3fc68d031634,Simoes Package Store,CT,2019-11-01T00:00:00-04:00,2019-12-01T00:00:00-05:00,6810,109,24.0,"{""<5"":2,""5-20"":45,""21-60"":26,""61-240"":26,"">240"":10}",7933.5,41.394374,-73.446364,445310.0,CT,9.0,9001.0,Fairfield County,90012101002.0
24114,sg:26c26e323eaf4d94a232502375c78cd5,Diesel Shop,CT,2019-11-01T00:00:00-04:00,2019-12-01T00:00:00-05:00,6320,114,50.0,"{""<5"":1,""5-20"":36,""21-60"":25,""61-240"":28,"">240"":24}",11439.0,41.347213,-72.11174,811111.0,CT,9.0,9011.0,New London County,90116903003.0
24128,sg:27c9c5d27a6b4517bf2f7540413864c5,Antonino Acura,CT,2019-11-01T00:00:00-04:00,2019-12-01T00:00:00-05:00,6340,94,37.0,"{""<5"":1,""5-20"":36,""21-60"":17,""61-240"":12,"">240"":28}",9667.0,41.371305,-72.05866800000001,441110.0,CT,9.0,9011.0,New London County,90118702002.0
24166,sg:2b94508debb54d46aee0910a1b1fdb5e,Joey C's Roadhouse,CT,2019-11-01T00:00:00-04:00,2019-12-01T00:00:00-05:00,6460,179,45.0,"{""<5"":2,""5-20"":41,""21-60"":71,""61-240"":53,"">240"":12}",14249.5,41.227177000000005,-73.06969000000001,722511.0,CT,9.0,9009.0,New Haven County,90091501003.0
24358,sg:3dbfaa1b22bb472197172bc6d0282c84,Simpaug Farms,CT,2019-11-01T00:00:00-04:00,2019-12-01T00:00:00-05:00,6877,201,43.0,"{""<5"":2,""5-20"":47,""21-60"":68,""61-240"":43,"">240"":41}",19658.0,41.287312,-73.493832,445230.0,CT,9.0,9001.0,Fairfield County,90012453003.0
24519,sg:4cbdcd2f6937487fb7e5b0529c745e0a,Denya's Auto Body Inc,CT,2019-11-01T00:00:00-04:00,2019-12-01T00:00:00-05:00,6450,73,109.0,"{""<5"":0,""5-20"":9,""21-60"":18,""61-240"":28,"">240"":18}",9375.5,41.526377000000004,-72.752762,811121.0,CT,9.0,9009.0,New Haven County,90091712005.0
24542,sg:4ec3f7945b324a6a95245082d99b3124,Briarfield Stratford Day School Llc,CT,2019-11-01T00:00:00-04:00,2019-12-01T00:00:00-05:00,6614,582,74.5,"{""<5"":7,""5-20"":86,""21-60"":155,""61-240"":276,"">240"":58}",62828.0,41.214506,-73.15205300000001,624410.0,CT,9.0,9001.0,Fairfield County,90010810002.0
24669,sg:5a3a0e9c79ab4a8b80070fdf42e294dd,Connecticut InFocus,CT,2019-11-01T00:00:00-04:00,2019-12-01T00:00:00-05:00,6033,6,34.5,"{""<5"":1,""5-20"":1,""21-60"":3,""61-240"":1,"">240"":0}",287.0,41.717932,-72.584744,532282.0,CT,9.0,9003.0,Hartford County,90035203011.0
24813,sg:687eeb90505c40a8bec02d235d48bf32,Cornerstone Bank,CT,2019-11-01T00:00:00-04:00,2019-12-01T00:00:00-05:00,6907,3,6.0,"{""<5"":0,""5-20"":2,""21-60"":0,""61-240"":0,"">240"":1}",265.0,41.094272,-73.51854300000001,522110.0,CT,9.0,9001.0,Fairfield County,90010209002.0
24829,sg:6a76aa2ff1e04c798b9dec6c2d59f895,Watertown Cycle Center,CT,2019-11-01T00:00:00-04:00,2019-12-01T00:00:00-05:00,6795,33,16.0,"{""<5"":0,""5-20"":22,""21-60"":10,""61-240"":1,"">240"":0}",830.5,41.590305,-73.103189,451110.0,CT,9.0,9005.0,Litchfield County,90053604005.0
24845,sg:6c5377b2da9b41ecb69b9b17c16426b1,Corner Grocery,CT,2019-11-01T00:00:00-04:00,2019-12-01T00:00:00-05:00,6513,339,56.0,"{""<5"":11,""5-20"":99,""21-60"":64,""61-240"":67,"">240"":98}",37460.5,41.307154,-72.900561,445110.0,CT,9.0,9009.0,New Haven County,90091423004.0
24873,sg:6efea0e014cf498c9be9c2c020f2f156,Dunkin',CT,2019-11-01T00:00:00-04:00,2019-12-01T00:00:00-05:00,6037,596,7.0,"{""<5"":52,""5-20"":424,""21-60"":40,""61-240"":45,"">240"":35}",22222.5,41.629852,-72.758144,722515.0,CT,9.0,9003.0,Hartford County,90034001001.0
25184,sg:8d99caad74b0418e8c9b73ecc7328de8,Coco and Company,CT,2019-11-01T00:00:00-04:00,2019-12-01T00:00:00-05:00,6890,41,20.0,"{""<5"":2,""5-20"":19,""21-60"":10,""61-240"":7,"">240"":3}",2421.0,41.138701,-73.290447,448120.0,CT,9.0,9001.0,Fairfield County,90010606001.0
25298,sg:96e524c7b0e04f809187c75542a8aa47,United States Postal Service (USPS),CT,2019-11-01T00:00:00-04:00,2019-12-01T00:00:00-05:00,6479,9,15.0,"{""<5"":0,""5-20"":6,""21-60"":2,""61-240"":1,"">240"":0}",306.5,41.585262,-72.891352,491110.0,CT,9.0,9003.0,Hartford County,90034304001.0
25428,sg:a43df580fae94cc4a18e08ae86b3c5a3,Washington Park,CT,2019-11-01T00:00:00-04:00,2019-12-01T00:00:00-05:00,6608,659,70.0,"{""<5"":19,""5-20"":175,""21-60"":118,""61-240"":201,"">240"":146}",72304.5,41.186623,-73.183593,712190.0,CT,9.0,9001.0,Fairfield County,90010739002.0
25483,sg:a9a7610b58f14bbcbad0a560f8cf259e,Tony's Tires & Wheels,CT,2019-11-01T00:00:00-04:00,2019-12-01T00:00:00-05:00,6706,136,27.0,"{""<5"":1,""5-20"":46,""21-60"":61,""61-240"":27,"">240"":1}",7351.5,41.528566,-73.03935600000001,441310.0,CT,9.0,9009.0,New Haven County,90093515003.0
25713,sg:bf46b23cf95945d0bf1cc336b7ad3cf9,Mohegan Park,CT,2019-11-01T00:00:00-04:00,2019-12-01T00:00:00-05:00,6360,610,60.0,"{""<5"":13,""5-20"":187,""21-60"":111,""61-240"":154,"">240"":145}",64842.5,41.546437,-72.071326,712190.0,CT,9.0,9011.0,New London County,90116965001.0
25718,sg:bfc944799e3e4ed281fcae4f694ab55b,Panchos Discount Liquor,CT,2019-11-01T00:00:00-04:00,2019-12-01T00:00:00-05:00,6120,458,38.5,"{""<5"":11,""5-20"":164,""21-60"":90,""61-240"":94,"">240"":99}",43629.5,41.793206,-72.676994,445310.0,CT,9.0,9003.0,Hartford County,90035244002.0
25958,sg:d6a14d089fca4388bcb6b042c04a073f,Hairline Beauty Supply,CT,2019-11-01T00:00:00-04:00,2019-12-01T00:00:00-05:00,6516,225,20.0,"{""<5"":4,""5-20"":109,""21-60"":65,""61-240"":44,"">240"":3}",11347.0,41.2965,-72.957174,446120.0,CT,9.0,9009.0,New Haven County,90091541001.0
26153,sg:ea9568d4688d47159be8ba252c557424,Green of Greenwich,CT,2019-11-01T00:00:00-04:00,2019-12-01T00:00:00-05:00,6830,89,44.0,"{""<5"":4,""5-20"":28,""21-60"":15,""61-240"":31,"">240"":11}",8273.0,41.013965,-73.64186600000001,453110.0,CT,9.0,9001.0,Fairfield County,90010105003.0
26259,sg:f50cb515595a4e89b8155eae0e309d21,East Hartford Car Wash,CT,2019-11-01T00:00:00-04:00,2019-12-01T00:00:00-05:00,6108,64,102.5,"{""<5"":0,""5-20"":13,""21-60"":13,""61-240"":17,"">240"":21}",8287.5,41.783305,-72.593535,811192.0,CT,9.0,9003.0,Hartford County,90035113001.0
26389,sg:02d779e234114fc9ba14bbfa8bcadab0,Forexpaint,CT,2019-11-01T00:00:00-04:00,2019-12-01T00:00:00-05:00,6351,152,173.0,"{""<5"":0,""5-20"":14,""21-60"":17,""61-240"":51,"">240"":70}",25339.0,41.603282,-71.97819799999999,523930.0,CT,9.0,9011.0,New London County,90117092003.0
26459,sg:08febc28424d4ef2841d835eea2adf48,Bierly & Peterson DMD PC,CT,2019-11-01T00:00:00-04:00,2019-12-01T00:00:00-05:00,6032,8,10.5,"{""<5"":1,""5-20"":5,""21-60"":1,""61-240"":0,"">240"":1}",345.5,41.733958,-72.796125,621210.0,CT,9.0,9003.0,Hartford County,90034601001.0
26659,sg:1c127d09ad044b429da1762d8790601e,Overhead Door Company of Windham County,CT,2019-11-01T00:00:00-04:00,2019-12-01T00:00:00-05:00,6234,11,27.0,"{""<5"":1,""5-20"":4,""21-60"":4,""61-240"":1,"">240"":1}",605.0,41.784314,-71.956576,811111.0,CT,9.0,9015.0,Windham County,90159051003.0
26860,sg:2f8c3247dbcc4b25ae8b8fefc8119d58,Pam Lehman MA PT LATC Orthopaedic Specialists,CT,2019-11-01T00:00:00-04:00,2019-12-01T00:00:00-05:00,6804,7,526.0,"{""<5"":0,""5-20"":1,""21-60"":0,""61-240"":0,"">240"":6}",1452.5,41.453943,-73.403697,621111.0,CT,9.0,9001.0,Fairfield County,90012053003.0
26945,sg:37b8f25b86b04e3b903aeedf9bf690a5,Purdy Hill Bakery & Deli,CT,2019-11-01T00:00:00-04:00,2019-12-01T00:00:00-05:00,6468,178,8.0,"{""<5"":4,""5-20"":140,""21-60"":27,""61-240"":5,"">240"":2}",4086.0,41.303358,-73.224436,722511.0,CT,9.0,9001.0,Fairfield County,90011002002.0
26968,sg:3ad0f41443d94815850524800b6c44d3,Michaels Stores,CT,2019-11-01T00:00:00-04:00,2019-12-01T00:00:00-05:00,6790,849,20.0,"{""<5"":16,""5-20"":429,""21-60"":341,""61-240"":57,"">240"":6}",29231.5,41.820364,-73.07806,451120.0,CT,9.0,9005.0,Litchfield County,90053106023.0
27134,sg:49f29a1a0ad24a249ccd2d98d4f693c8,Santos' Restaurant,CT,2019-11-01T00:00:00-04:00,2019-12-01T00:00:00-05:00,6770,17,68.0,"{""<5"":0,""5-20"":3,""21-60"":5,""61-240"":8,"">240"":1}",1684.0,41.489526,-73.05593499999999,722511.0,CT,9.0,9009.0,New Haven County,90093453001.0
27146,sg:4b2bbc78bb7a4a7e909cc863a3ba6e2e,Ridgefield Academy,CT,2019-11-01T00:00:00-04:00,2019-12-01T00:00:00-05:00,6877,324,92.0,"{""<5"":3,""5-20"":65,""21-60"":69,""61-240"":68,"">240"":119}",42408.5,41.294927,-73.537071,611110.0,CT,9.0,9001.0,Fairfield County,90012456004.0
27169,sg:4d443c8aa0004026af88a7c1c3bda576,University of Connecticut Health Center,CT,2019-11-01T00:00:00-04:00,2019-12-01T00:00:00-05:00,6032,144,108.5,"{""<5"":0,""5-20"":21,""21-60"":34,""61-240"":39,"">240"":50}",19509.0,41.739948999999996,-72.793614,621111.0,CT,9.0,9003.0,Hartford County,90034602021.0
27265,sg:5739bd610822481dad704239f8de808a,David Hannah Ameriprise Financial Services,CT,2019-11-01T00:00:00-04:00,2019-12-01T00:00:00-05:00,6108,3,41.0,"{""<5"":0,""5-20"":0,""21-60"":3,""61-240"":0,"">240"":0}",121.5,41.768174,-72.663011,523930.0,CT,9.0,9003.0,Hartford County,90035102002.0
27488,sg:6b814081b8d640fa9d9530b8f4bc07a2,Workers Compensation Trust,CT,2019-11-01T00:00:00-04:00,2019-12-01T00:00:00-05:00,6492,56,131.5,"{""<5"":0,""5-20"":18,""21-60"":4,""61-240"":22,"">240"":12}",6578.0,41.482011,-72.802952,524210.0,CT,9.0,9009.0,New Haven County,90091758002.0
27600,sg:7585ba20960644a891646de889573986,Mobil,CT,2019-11-01T00:00:00-04:00,2019-12-01T00:00:00-05:00,6705,245,7.0,"{""<5"":24,""5-20"":178,""21-60"":23,""61-240"":18,"">240"":2}",6405.5,41.541447999999995,-72.996247,447110.0,CT,9.0,9009.0,New Haven County,90093527011.0
27609,sg:7646aea45c2c45ca8d27d41f88bb6847,Avon Old Farms Hotel,CT,2019-11-01T00:00:00-04:00,2019-12-01T00:00:00-05:00,6001,308,136.5,"{""<5"":3,""5-20"":50,""21-60"":38,""61-240"":107,"">240"":110}",44675.0,41.804049,-72.816084,721110.0,CT,9.0,9003.0,Hartford County,90034622021.0
27673,sg:7d92516372b743df8e9ac7739f5d005d,Antojitos Centroamericanos,CT,2019-11-01T00:00:00-04:00,2019-12-01T00:00:00-05:00,6606,101,22.0,"{""<5"":2,""5-20"":47,""21-60"":16,""61-240"":21,"">240"":15}",8001.0,41.212625,-73.210489,722511.0,CT,9.0,9001.0,Fairfield County,90010724002.0
27698,sg:80531831cf0c4d01bdc41cd44f514512,The Vape Loft,CT,2019-11-01T00:00:00-04:00,2019-12-01T00:00:00-05:00,6437,71,14.0,"{""<5"":4,""5-20"":39,""21-60"":16,""61-240"":4,"">240"":8}",3667.5,41.288872999999995,-72.660348,444120.0,CT,9.0,9009.0,New Haven County,90091901003.0
27830,sg:8cd93681127e485c8e468b82652eb7aa,JP Tadduni,CT,2019-11-01T00:00:00-04:00,2019-12-01T00:00:00-05:00,6615,153,23.0,"{""<5"":1,""5-20"":66,""21-60"":39,""61-240"":40,"">240"":7}",10107.0,41.177534,-73.151662,811113.0,CT,9.0,9001.0,Fairfield County,90010804001.0
27902,sg:93f98b260e6c4ce4a1bc6eb46da29669,Brass Mill Pharmacy,CT,2019-11-01T00:00:00-04:00,2019-12-01T00:00:00-05:00,6705,41,6.0,"{""<5"":4,""5-20"":33,""21-60"":3,""61-240"":0,"">240"":1}",784.0,41.547876,-73.018863,446110.0,CT,9.0,9009.0,New Haven County,90093513005.0
27966,sg:9a93c2739c96442aa8eb55f25a74ebcc,Full of Spirit Package Store,CT,2019-11-01T00:00:00-04:00,2019-12-01T00:00:00-05:00,6340,209,22.0,"{""<5"":6,""5-20"":86,""21-60"":81,""61-240"":32,"">240"":4}",10146.5,41.350646000000005,-72.054602,445310.0,CT,9.0,9011.0,New London County,90117027002.0
28031,sg:a15e1d0679c74f8c81d37755a20348f9,Busy Bees Childcare,CT,2019-11-01T00:00:00-04:00,2019-12-01T00:00:00-05:00,6053,73,181.0,"{""<5"":1,""5-20"":8,""21-60"":9,""61-240"":20,"">240"":35}",11877.0,41.706773,-72.781223,624410.0,CT,9.0,9003.0,Hartford County,90034175001.0
28056,sg:a39941c8ce8f456da86614ec1cc7b72b,Plainfield Emergency Care Center,CT,2019-11-01T00:00:00-04:00,2019-12-01T00:00:00-05:00,6374,70,303.5,"{""<5"":0,""5-20"":7,""21-60"":12,""61-240"":11,"">240"":40}",11829.0,41.681335,-71.91244,621399.0,CT,9.0,9015.0,Windham County,90159073001.0
28196,sg:b2b789c2134941d08d6a4ed71c54ba6f,Dunkin',CT,2019-11-01T00:00:00-04:00,2019-12-01T00:00:00-05:00,6824,362,14.5,"{""<5"":10,""5-20"":218,""21-60"":99,""61-240"":26,"">240"":9}",12832.5,41.146152,-73.256095,722515.0,CT,9.0,9001.0,Fairfield County,90010607002.0
28252,sg:b9653b78016d4c2c9a378fefd2e426b8,HealthTouch,CT,2019-11-01T00:00:00-04:00,2019-12-01T00:00:00-05:00,6824,11,45.0,"{""<5"":0,""5-20"":0,""21-60"":6,""61-240"":4,"">240"":1}",1085.0,41.15056,-73.242285,812199.0,CT,9.0,9001.0,Fairfield County,90010615001.0
28292,sg:bc31607d1d034842a368a1ac992a2422,Truscinski Edward DDS,CT,2019-11-01T00:00:00-04:00,2019-12-01T00:00:00-05:00,6053,84,73.5,"{""<5"":2,""5-20"":24,""21-60"":14,""61-240"":18,"">240"":26}",9821.0,41.674116,-72.796766,621210.0,CT,9.0,9003.0,Hartford County,90034166001.0
28420,sg:c89a3ebc435e48d3a41b4bd005947d64,Granite Hill Capital Management LLC,CT,2019-11-01T00:00:00-04:00,2019-12-01T00:00:00-05:00,6877,15,58.0,"{""<5"":0,""5-20"":1,""21-60"":7,""61-240"":4,"">240"":3}",1618.0,41.315087,-73.524879,523930.0,CT,9.0,9001.0,Fairfield County,90012456003.0
28543,sg:d75201926e054085bb6f943591bcded8,House of Flora Flower Market,CT,2019-11-01T00:00:00-04:00,2019-12-01T00:00:00-05:00,6106,83,29.0,"{""<5"":5,""5-20"":31,""21-60"":14,""61-240"":16,"">240"":17}",7455.0,41.731931,-72.713794,453110.0,CT,9.0,9003.0,Hartford County,90035247003.0
28622,sg:de0bed15248f4b18abcbbd9ab866c210,All Our Children,CT,2019-11-01T00:00:00-04:00,2019-12-01T00:00:00-05:00,6511,321,57.0,"{""<5"":9,""5-20"":86,""21-60"":69,""61-240"":81,"">240"":76}",34322.5,41.31205,-72.949037,624410.0,CT,9.0,9009.0,New Haven County,90091408002.0
28640,sg:e05c4317913f4cd3993bb8cd843fa36f,Ebb Tide Marina,CT,2019-11-01T00:00:00-04:00,2019-12-01T00:00:00-05:00,6830,20,11.0,"{""<5"":1,""5-20"":16,""21-60"":3,""61-240"":0,"">240"":0}",324.0,40.999003,-73.65901600000001,441222.0,CT,9.0,9001.0,Fairfield County,90010113001.0
28756,sg:ed156784d404450fa8cc94dc45d58b65,Apricot Lane,CT,2019-11-01T00:00:00-04:00,2019-12-01T00:00:00-05:00,6824,11,10.0,"{""<5"":1,""5-20"":9,""21-60"":0,""61-240"":0,"">240"":1}",355.0,41.140840999999995,-73.257756,448120.0,CT,9.0,9001.0,Fairfield County,90010616001.0
28824,sg:f3326b4df48448edbc7f23b27d8750a3,Autism Program Dr James H Naylor Ccsu,CT,2019-11-01T00:00:00-04:00,2019-12-01T00:00:00-05:00,6114,58,14.0,"{""<5"":0,""5-20"":48,""21-60"":8,""61-240"":0,"">240"":2}",1404.0,41.730526,-72.675203,611110.0,CT,9.0,9003.0,Hartford County,90035023003.0
28894,sg:fc7792e7d92140d08ab6521fea2a2b56,People's United Bank,CT,2019-11-01T00:00:00-04:00,2019-12-01T00:00:00-05:00,6360,5,6.0,"{""<5"":0,""5-20"":3,""21-60"":0,""61-240"":0,"">240"":2}",517.5,41.547539,-72.092473,522110.0,CT,9.0,9011.0,New London County,90116963001.0
28895,sg:fc78a3f7de4a4e079f28ad2f7dc9d3cf,Absolutely Nail & Spa,CT,2019-11-01T00:00:00-04:00,2019-12-01T00:00:00-05:00,6066,12,9.0,"{""<5"":2,""5-20"":7,""21-60"":3,""61-240"":0,"">240"":0}",214.0,41.828866,-72.495131,812113.0,CT,9.0,9013.0,Tolland County,90135303021.0
29121,sg:135fe600165a4395891a8241438eaa62,Taste of Soul Restaurant & Catering,CT,2019-11-01T00:00:00-04:00,2019-12-01T00:00:00-05:00,6705,32,69.0,"{""<5"":0,""5-20"":10,""21-60"":4,""61-240"":16,"">240"":2}",3175.0,41.54371,-73.009562,722511.0,CT,9.0,9009.0,New Haven County,90093513004.0
29227,sg:1e1699e6580241858110fa8584027ee0,Connecticut Modular Homes,CT,2019-11-01T00:00:00-04:00,2019-12-01T00:00:00-05:00,6906,120,10.0,"{""<5"":5,""5-20"":86,""21-60"":12,""61-240"":5,"">240"":12}",5206.0,41.072456,-73.524213,442299.0,CT,9.0,9001.0,Fairfield County,90010211003.0
