,safegraph_place_id,location_name,region,date_range_start,date_range_end,postal_code,raw_visit_counts,median_dwell,bucketed_dwell_times,est_total_dwell,latitude,longitude,naics_code,state,stateFIPS,countyFIPS,countyName,CBGFIPS
97,sg:069cf4f863504435bf03f8376439778a,Hope Springs Church,CT,2019-11-01T00:00:00-04:00,2019-12-01T00:00:00-05:00,6076,7,16.0,"{""<5"":0,""5-20"":5,""21-60"":0,""61-240"":2,"">240"":0}",363.5,41.964289,-72.295532,813110.0,CT,9.0,9013.0,Tolland County,90138901002.0
165,sg:0c9b043d56f24e9fa4940ea326366ec2,United States Postal Service (USPS),CT,2019-11-01T00:00:00-04:00,2019-12-01T00:00:00-05:00,6071,54,22.5,"{""<5"":0,""5-20"":26,""21-60"":8,""61-240"":10,"">240"":10}",4554.0,41.986752,-72.441861,491110.0,CT,9.0,9013.0,Tolland County,90135382023.0
215,sg:105dbd92b8b347a0a2417c13fb0f3d1a,Goncharova Olga DDS,CT,2019-11-01T00:00:00-04:00,2019-12-01T00:00:00-05:00,6605,50,21.0,"{""<5"":2,""5-20"":22,""21-60"":12,""61-240"":7,"">240"":7}",3499.5,41.176156,-73.212136,621210.0,CT,9.0,9001.0,Fairfield County,90010711002.0
233,sg:11e76d70cf7c40468f4d29245286b230,Burlington,CT,2019-11-01T00:00:00-04:00,2019-12-01T00:00:00-05:00,6901,683,37.0,"{""<5"":7,""5-20"":166,""21-60"":288,""61-240"":175,"">240"":47}",51374.0,41.055856,-73.539907,448140.0,CT,9.0,9001.0,Fairfield County,90010201001.0
397,sg:219000cbd8344bc1901dadd90b41ada5,Barbara's Restaurant,CT,2019-11-01T00:00:00-04:00,2019-12-01T00:00:00-05:00,6514,214,18.0,"{""<5"":10,""5-20"":108,""21-60"":65,""61-240"":26,"">240"":5}",9120.5,41.339518,-72.93544,722511.0,CT,9.0,9009.0,New Haven County,90091655002.0
409,sg:22a7e13e2c334d6bae7d6f789549eeff,Sunoco,CT,2019-11-01T00:00:00-04:00,2019-12-01T00:00:00-05:00,6470,92,13.0,"{""<5"":7,""5-20"":44,""21-60"":20,""61-240"":20,"">240"":1}",4627.5,41.396768,-73.29361800000001,447110.0,CT,9.0,9001.0,Fairfield County,90012305022.0
476,sg:2889139e63b84b5881e95cf3f55c2196,First and Last Bakery Cafe,CT,2019-11-01T00:00:00-04:00,2019-12-01T00:00:00-05:00,6114,102,22.5,"{""<5"":2,""5-20"":42,""21-60"":32,""61-240"":20,"">240"":6}",6276.0,41.734021000000006,-72.68679,722511.0,CT,9.0,9003.0,Hartford County,90035023004.0
481,sg:28dce5a883834985a1bef5744110e651,ENT & Allergy Associates,CT,2019-11-01T00:00:00-04:00,2019-12-01T00:00:00-05:00,6611,9,485.0,"{""<5"":0,""5-20"":3,""21-60"":0,""61-240"":0,"">240"":6}",1477.5,41.234859,-73.14938000000001,621111.0,CT,9.0,9001.0,Fairfield County,90010905002.0
482,sg:28df1ab1497847388edb220230aa5c88,KFC,CT,2019-11-01T00:00:00-04:00,2019-12-01T00:00:00-05:00,6810,244,19.0,"{""<5"":12,""5-20"":122,""21-60"":47,""61-240"":33,"">240"":30}",15625.0,41.408905,-73.455929,722513.0,CT,9.0,9001.0,Fairfield County,90012102001.0
490,sg:2939b817f79e412ab5e6071fd0fd0354,Pep Boys,CT,2019-11-01T00:00:00-04:00,2019-12-01T00:00:00-05:00,6514,163,21.0,"{""<5"":6,""5-20"":75,""21-60"":32,""61-240"":29,"">240"":21}",11653.0,41.371849,-72.916924,441310.0,CT,9.0,9009.0,New Haven County,90091658012.0
526,sg:2be5bf34d9ef4034b6dbab85eb74da8f,CrossFit,CT,2019-11-01T00:00:00-04:00,2019-12-01T00:00:00-05:00,6320,278,37.0,"{""<5"":6,""5-20"":93,""21-60"":72,""61-240"":102,"">240"":5}",20644.5,41.362639,-72.114876,713940.0,CT,9.0,9011.0,New London County,90116903002.0
549,sg:2e3a7540e9e34d39b5953157079ba2e6,Northford Country Grill,CT,2019-11-01T00:00:00-04:00,2019-12-01T00:00:00-05:00,6472,172,31.5,"{""<5"":4,""5-20"":43,""21-60"":82,""61-240"":27,"">240"":16}",11772.0,41.393683,-72.79019699999999,722511.0,CT,9.0,9009.0,New Haven County,90091862001.0
645,sg:35eb41dfd10946c2a9c29431cd652157,True Value Hardware,CT,2019-11-01T00:00:00-04:00,2019-12-01T00:00:00-05:00,6776,132,27.0,"{""<5"":4,""5-20"":52,""21-60"":36,""61-240"":31,"">240"":9}",8943.5,41.578489000000005,-73.413826,444130.0,CT,9.0,9005.0,Litchfield County,90052536002.0
676,sg:3904ad74ba524d58a93c0372209591a0,Boys & Girls Clubs of America,CT,2019-11-01T00:00:00-04:00,2019-12-01T00:00:00-05:00,6010,116,18.0,"{""<5"":4,""5-20"":60,""21-60"":24,""61-240"":16,"">240"":12}",7020.0,41.688644000000004,-72.91780200000001,624110.0,CT,9.0,9003.0,Hartford County,90034052002.0
766,sg:415b6b75e7994477b00b2d04497b60f0,Forever Custom Tattoos,CT,2019-11-01T00:00:00-04:00,2019-12-01T00:00:00-05:00,6604,1,5.0,"{""<5"":0,""5-20"":1,""21-60"":0,""61-240"":0,"">240"":0}",12.5,41.180087,-73.18924399999999,812199.0,CT,9.0,9001.0,Fairfield County,90010706001.0
849,sg:481be2811eff413cb6c6166f5a05836a,Cositas Deliciosas,CT,2019-11-01T00:00:00-04:00,2019-12-01T00:00:00-05:00,6513,573,33.0,"{""<5"":12,""5-20"":209,""21-60"":124,""61-240"":106,"">240"":122}",52897.5,41.309020000000004,-72.897992,722511.0,CT,9.0,9009.0,New Haven County,90091424003.0
968,sg:54440f07e69143399badfc217b1635f9,Cook Willow Convalescent Home,CT,2019-11-01T00:00:00-04:00,2019-12-01T00:00:00-05:00,6782,1,499.0,"{""<5"":0,""5-20"":0,""21-60"":0,""61-240"":0,"">240"":1}",240.0,41.667109,-73.05790999999999,621610.0,CT,9.0,9005.0,Litchfield County,90054254003.0
1064,sg:5d2dcdfd1de94d2886305486558ceaa8,Calvary Christian Childhood Center,CT,2019-11-01T00:00:00-04:00,2019-12-01T00:00:00-05:00,6082,14,25.0,"{""<5"":1,""5-20"":6,""21-60"":3,""61-240"":4,"">240"":0}",801.0,41.961262,-72.59695500000001,624410.0,CT,9.0,9003.0,Hartford County,90034812003.0
1095,sg:60a675d8ec3c4de99cb60ca9511b1f29,7-Eleven,CT,2019-11-01T00:00:00-04:00,2019-12-01T00:00:00-05:00,6268,34,19.0,"{""<5"":1,""5-20"":22,""21-60"":11,""61-240"":0,"">240"":0}",723.0,41.805081,-72.24394699999999,445120.0,CT,9.0,9013.0,Tolland County,90138812001.0
1115,sg:621f337ba9f84c6fad5e44b0a7b5ce80,Big Y Foods,CT,2019-11-01T00:00:00-04:00,2019-12-01T00:00:00-05:00,6470,193,15.0,"{""<5"":7,""5-20"":119,""21-60"":61,""61-240"":5,"">240"":1}",4968.0,41.412082,-73.304886,445110.0,CT,9.0,9001.0,Fairfield County,90012302001.0
1358,sg:7679d43ab6ca494cb733934595aeb566,UI RCP New Haven Fuel Cell,CT,2019-11-01T00:00:00-04:00,2019-12-01T00:00:00-05:00,6512,12,8.5,"{""<5"":0,""5-20"":9,""21-60"":2,""61-240"":1,"">240"":0}",344.0,41.289138,-72.89894699999999,221111.0,CT,9.0,9009.0,New Haven County,90091427003.0
1414,sg:7c92c9e4beaf44dbbef140f4035573fb,Baldi Stone and Gravel,CT,2019-11-01T00:00:00-04:00,2019-12-01T00:00:00-05:00,6415,18,20.5,"{""<5"":0,""5-20"":9,""21-60"":7,""61-240"":2,"">240"":0}",697.0,41.587278999999995,-72.35382,444130.0,CT,9.0,9011.0,New London County,90117141011.0
1429,sg:7dfb9aa77be34f6c9926af9bbb2cbbad,Bird,CT,2019-11-01T00:00:00-04:00,2019-12-01T00:00:00-05:00,6851,11,125.0,"{""<5"":0,""5-20"":0,""21-60"":2,""61-240"":5,"">240"":4}",1793.5,41.138512,-73.319388,812112.0,CT,9.0,9001.0,Fairfield County,90010506003.0
1468,sg:81799eba1c5641b6a93d5d688db9079d,Mountain View School,CT,2019-11-01T00:00:00-04:00,2019-12-01T00:00:00-05:00,6010,22,235.5,"{""<5"":0,""5-20"":4,""21-60"":0,""61-240"":7,"">240"":11}",3743.5,41.696540999999996,-72.89895200000001,611110.0,CT,9.0,9003.0,Hartford County,90034053001.0
1516,sg:864cc22cbca7419486f690b110a962d5,Ywca Nike Tykes Early Learning Center,CT,2019-11-01T00:00:00-04:00,2019-12-01T00:00:00-05:00,6040,47,8.0,"{""<5"":2,""5-20"":23,""21-60"":2,""61-240"":5,"">240"":15}",4726.0,41.746798,-72.53326700000001,624410.0,CT,9.0,9003.0,Hartford County,90035151022.0
1582,sg:8c702a8ac92944bcb89aedf2688c01c5,Advanced Foot & Ankle Center,CT,2019-11-01T00:00:00-04:00,2019-12-01T00:00:00-05:00,6762,3,39.0,"{""<5"":0,""5-20"":1,""21-60"":2,""61-240"":0,"">240"":0}",93.5,41.565630999999996,-73.092332,621111.0,CT,9.0,9009.0,New Haven County,90093520003.0
1723,sg:9a346929a2254efbb4c6ef4fede0a924,Hop Brook Lake,CT,2019-11-01T00:00:00-04:00,2019-12-01T00:00:00-05:00,6770,1,4.0,"{""<5"":1,""5-20"":0,""21-60"":0,""61-240"":0,"">240"":0}",2.5,41.514222,-73.068152,712190.0,CT,9.0,9009.0,New Haven County,90093454001.0
1913,sg:ae108ffa5d5c41ab942f798b1d95291d,Fairways Golf Range and Pro Shop,CT,2019-11-01T00:00:00-04:00,2019-12-01T00:00:00-05:00,6405,58,29.5,"{""<5"":0,""5-20"":25,""21-60"":19,""61-240"":9,"">240"":5}",3636.5,41.304103999999995,-72.765648,713910.0,CT,9.0,9009.0,New Haven County,90091847001.0
1917,sg:ae82d52ce2b547a1b9bfafbf51f16cde,United Churches of Durham,CT,2019-11-01T00:00:00-04:00,2019-12-01T00:00:00-05:00,6422,20,52.5,"{""<5"":0,""5-20"":3,""21-60"":7,""61-240"":6,"">240"":4}",2184.0,41.478153000000006,-72.681415,813110.0,CT,9.0,9007.0,Middlesex County,90075851003.0
1933,sg:afd33032f7f849cb8f1c85501ebc9caa,Wallingford Public Library,CT,2019-11-01T00:00:00-04:00,2019-12-01T00:00:00-05:00,6492,435,45.0,"{""<5"":5,""5-20"":119,""21-60"":128,""61-240"":139,"">240"":44}",38163.5,41.457195,-72.816855,519120.0,CT,9.0,9009.0,New Haven County,90091751001.0
2054,sg:bd7fc1b818c64557b586eef567132b44,The Hartford Deli,CT,2019-11-01T00:00:00-04:00,2019-12-01T00:00:00-05:00,6103,80,119.5,"{""<5"":4,""5-20"":33,""21-60"":0,""61-240"":15,"">240"":28}",9400.0,41.767919,-72.67347600000001,722511.0,CT,9.0,9003.0,Hartford County,90035021001.0
2591,sg:f5e1b4c1b93146dbbeb72fa9bfdf380b,Elite Repeats LLC,CT,2019-11-01T00:00:00-04:00,2019-12-01T00:00:00-05:00,6416,9,9.0,"{""<5"":0,""5-20"":9,""21-60"":0,""61-240"":0,"">240"":0}",112.5,41.627004,-72.677155,448120.0,CT,9.0,9007.0,Middlesex County,90075701001.0
2679,sg:ff0dcf1b5e1844bdb49152dbf8657022,Michael Levin DDS,CT,2019-11-01T00:00:00-04:00,2019-12-01T00:00:00-05:00,6878,59,66.0,"{""<5"":1,""5-20"":13,""21-60"":14,""61-240"":20,"">240"":11}",6382.0,41.041553,-73.581331,621210.0,CT,9.0,9001.0,Fairfield County,90010109002.0
2848,sg:0d330d8fac524b9d96237857a10ece79,New England Auto World,CT,2019-11-01T00:00:00-04:00,2019-12-01T00:00:00-05:00,6418,671,60.0,"{""<5"":13,""5-20"":174,""21-60"":149,""61-240"":208,"">240"":127}",70026.0,41.33293,-73.09049300000001,,CT,9.0,9009.0,New Haven County,90091202001.0
2849,sg:0d42abd512fa4dccad7b360f08554e75,Hartford Infant Toddler Early Lrng Ctr,CT,2019-11-01T00:00:00-04:00,2019-12-01T00:00:00-05:00,6112,78,20.5,"{""<5"":3,""5-20"":36,""21-60"":16,""61-240"":14,"">240"":9}",5372.5,41.797121000000004,-72.689673,624410.0,CT,9.0,9003.0,Hartford County,90035015001.0
3162,sg:2a11ee31f51141eea456d13bc8fbdc6f,Kaleidoscope Kids,CT,2019-11-01T00:00:00-04:00,2019-12-01T00:00:00-05:00,6877,39,10.0,"{""<5"":7,""5-20"":16,""21-60"":6,""61-240"":8,"">240"":2}",2144.5,41.361474,-73.52432900000001,624410.0,CT,9.0,9001.0,Fairfield County,90012456001.0
3201,sg:2da1d7c6d649403b8d38cf057758403f,American Institute,CT,2019-11-01T00:00:00-04:00,2019-12-01T00:00:00-05:00,6110,90,144.5,"{""<5"":1,""5-20"":7,""21-60"":22,""61-240"":36,"">240"":24}",12159.0,41.726875,-72.725973,611310.0,CT,9.0,9003.0,Hartford County,90034961002.0
3273,sg:346043020948434ea8c560172ee77c24,Quest Diagnostics,CT,2019-11-01T00:00:00-04:00,2019-12-01T00:00:00-05:00,6105,158,45.5,"{""<5"":2,""5-20"":30,""21-60"":65,""61-240"":24,"">240"":37}",15504.5,41.769022,-72.702476,621511.0,CT,9.0,9003.0,Hartford County,90035031004.0
3301,sg:37a4a9a59146439e98867026e30324f7,Prospect Pizza Restaurant,CT,2019-11-01T00:00:00-04:00,2019-12-01T00:00:00-05:00,6119,21,114.0,"{""<5"":0,""5-20"":5,""21-60"":3,""61-240"":5,"">240"":8}",2856.5,41.752528999999996,-72.718023,722511.0,CT,9.0,9003.0,Hartford County,90034967001.0
3305,sg:380d39a79de54a5f9de9c3c90f6e7904,Edward Jones,CT,2019-11-01T00:00:00-04:00,2019-12-01T00:00:00-05:00,6082,4,44.5,"{""<5"":0,""5-20"":1,""21-60"":3,""61-240"":0,"">240"":0}",134.0,41.988727000000004,-72.560331,523999.0,CT,9.0,9003.0,Hartford County,90034808002.0
3364,sg:3d99f44d099a420c9e8b9dc3fed5289c,WinWholesale,CT,2019-11-01T00:00:00-04:00,2019-12-01T00:00:00-05:00,6340,5,52.0,"{""<5"":1,""5-20"":1,""21-60"":1,""61-240"":0,"">240"":2}",535.5,41.377034,-72.02473499999999,423990.0,CT,9.0,9011.0,New London County,90117021002.0
3389,sg:40322636e188445394fb6d80f35d3fad,Planned Parenthood,CT,2019-11-01T00:00:00-04:00,2019-12-01T00:00:00-05:00,6511,117,83.0,"{""<5"":1,""5-20"":24,""21-60"":25,""61-240"":32,"">240"":35}",14531.0,41.319855,-72.91830300000001,621410.0,CT,9.0,9009.0,New Haven County,90091419001.0
3524,sg:4cae41a3fa6c4d8eb5fc26932a8770a1,Sams Food Store,CT,2019-11-01T00:00:00-04:00,2019-12-01T00:00:00-05:00,6118,84,10.0,"{""<5"":1,""5-20"":62,""21-60"":13,""61-240"":6,"">240"":2}",2687.0,41.736743,-72.628703,445110.0,CT,9.0,9003.0,Hartford County,90035108002.0
3710,sg:5d75ecb30d394107b807786e0d302715,Southern Connecticut Freightliner,CT,2019-11-01T00:00:00-04:00,2019-12-01T00:00:00-05:00,6405,65,17.0,"{""<5"":1,""5-20"":35,""21-60"":13,""61-240"":6,"">240"":10}",4269.5,41.297615,-72.75630799999999,441310.0,CT,9.0,9009.0,New Haven County,90091847001.0
3872,sg:6be9c3913cce4ee79a051c1b12fb7034,ALDI,CT,2019-11-01T00:00:00-04:00,2019-12-01T00:00:00-05:00,6351,382,13.0,"{""<5"":11,""5-20"":245,""21-60"":116,""61-240"":10,"">240"":0}",9293.0,41.58551,-71.99443000000001,445110.0,CT,9.0,9011.0,New London County,90117101002.0
3924,sg:711f26a632ed4c779954f979ac1c3bed,Family Dental Practice Of Southington,CT,2019-11-01T00:00:00-04:00,2019-12-01T00:00:00-05:00,6489,5,590.0,"{""<5"":0,""5-20"":2,""21-60"":0,""61-240"":0,"">240"":3}",745.0,41.607449,-72.878423,621210.0,CT,9.0,9003.0,Hartford County,90034306022.0
3953,sg:75247527f92f4762a40abb2b3a0fefbf,Charter Oak Landing,CT,2019-11-01T00:00:00-04:00,2019-12-01T00:00:00-05:00,6114,8,18.0,"{""<5"":0,""5-20"":5,""21-60"":2,""61-240"":1,"">240"":0}",294.0,41.746177,-72.655406,712190.0,CT,9.0,9003.0,Hartford County,90035025001.0
4013,sg:7ac0c26f73474d1bae854a354c66c54d,Stop &amp Shop,CT,2019-11-01T00:00:00-04:00,2019-12-01T00:00:00-05:00,6033,507,20.0,"{""<5"":6,""5-20"":249,""21-60"":173,""61-240"":38,"">240"":41}",25693.0,41.722273,-72.624894,445110.0,,,,,
4090,sg:82a50b1fbbe7405bac3a7fd78f0584a0,Domino's Pizza,CT,2019-11-01T00:00:00-04:00,2019-12-01T00:00:00-05:00,6457,86,28.5,"{""<5"":1,""5-20"":34,""21-60"":20,""61-240"":23,"">240"":8}",6619.0,41.546155,-72.650911,722513.0,CT,9.0,9007.0,Middlesex County,90075420003.0
4108,sg:84ade943f6b9449b8de6ead06131e6de,Fit4Mom,CT,2019-11-01T00:00:00-04:00,2019-12-01T00:00:00-05:00,6371,174,26.5,"{""<5"":6,""5-20"":68,""21-60"":46,""61-240"":39,"">240"":15}",12197.5,41.31886,-72.329163,713940.0,,,,,
4256,sg:9307294624c74f269da61373232f9109,TJ's Landscaping,CT,2019-11-01T00:00:00-04:00,2019-12-01T00:00:00-05:00,6109,49,22.0,"{""<5"":8,""5-20"":14,""21-60"":9,""61-240"":17,"">240"":1}",3358.0,41.703926,-72.672434,444130.0,CT,9.0,9003.0,Hartford County,90034922004.0
4266,sg:9483087bab3849aba6b2b2c5086fa3e4,Yale New Haven Hospital,CT,2019-11-01T00:00:00-04:00,2019-12-01T00:00:00-05:00,6405,127,122.0,"{""<5"":1,""5-20"":17,""21-60"":21,""61-240"":42,"">240"":46}",18426.5,41.284667999999996,-72.82118100000001,622110.0,CT,9.0,9009.0,New Haven County,90091842001.0
4271,sg:94c72db8637f44148ce59ae4b3292017,Storrs Wine and Spirits,CT,2019-11-01T00:00:00-04:00,2019-12-01T00:00:00-05:00,6268,64,10.5,"{""<5"":8,""5-20"":39,""21-60"":8,""61-240"":7,"">240"":2}",2365.0,41.804674,-72.242139,445310.0,CT,9.0,9013.0,Tolland County,90138811002.0
4431,sg:a371a271d5d648ab8e1fed11af65f192,Puerto Vallarta,CT,2019-11-01T00:00:00-04:00,2019-12-01T00:00:00-05:00,6477,291,44.0,"{""<5"":5,""5-20"":88,""21-60"":87,""61-240"":102,"">240"":9}",22147.0,41.261503999999995,-73.008673,722511.0,CT,9.0,9009.0,New Haven County,90091571001.0
4498,sg:aa73699a54ce4eb5800a78b2cddad5dc,Subway,CT,2019-11-01T00:00:00-04:00,2019-12-01T00:00:00-05:00,6010,54,9.0,"{""<5"":3,""5-20"":33,""21-60"":8,""61-240"":10,"">240"":0}",2249.0,41.671871,-72.946077,722513.0,CT,9.0,9003.0,Hartford County,90034061002.0
4567,sg:b14f1b6714704dc39055ef34ae1a957e,Skip's 19th Hole,CT,2019-11-01T00:00:00-04:00,2019-12-01T00:00:00-05:00,6604,33,98.0,"{""<5"":1,""5-20"":2,""21-60"":5,""61-240"":21,"">240"":4}",4350.5,41.187179,-73.21969399999999,722511.0,CT,9.0,9001.0,Fairfield County,90010721001.0
4586,sg:b3da40c44b0149b8820f5b8f240a4ed7,Poochies Parlor,CT,2019-11-01T00:00:00-04:00,2019-12-01T00:00:00-05:00,6405,4,186.0,"{""<5"":0,""5-20"":2,""21-60"":0,""61-240"":0,"">240"":2}",505.0,41.294446,-72.782236,453910.0,CT,9.0,9009.0,New Haven County,90091847001.0
4630,sg:b939b03ceed94a3f99b1f6a0e49874ff,Subway,CT,2019-11-01T00:00:00-04:00,2019-12-01T00:00:00-05:00,6484,172,11.0,"{""<5"":12,""5-20"":109,""21-60"":24,""61-240"":22,"">240"":5}",6875.5,41.288188,-73.1127,722513.0,CT,9.0,9001.0,Fairfield County,90011102023.0
4709,sg:c1a0ce3ec2994f67a0ab52e23a087b7c,Kamp William C Housatonic Valley Insurance Agency,CT,2019-11-01T00:00:00-04:00,2019-12-01T00:00:00-05:00,6776,6,303.0,"{""<5"":0,""5-20"":0,""21-60"":0,""61-240"":3,"">240"":3}",1171.5,41.577557,-73.410152,524210.0,CT,9.0,9005.0,Litchfield County,90052536002.0
5009,sg:df140e54b8fc4c61a2f1ee2e5aefc97f,Quorn Foods,CT,2019-11-01T00:00:00-04:00,2019-12-01T00:00:00-05:00,6880,1,19.0,"{""<5"":0,""5-20"":1,""21-60"":0,""61-240"":0,"">240"":0}",12.5,41.144088,-73.361008,445110.0,CT,9.0,9001.0,Fairfield County,90010502002.0
5210,sg:f1b9087cc6aa47ab8ebcf6cf95eb5a9e,Applebee's,CT,2019-11-01T00:00:00-04:00,2019-12-01T00:00:00-05:00,6810,380,45.5,"{""<5"":4,""5-20"":76,""21-60"":171,""61-240"":125,"">240"":4}",27658.0,41.41982,-73.41888,722511.0,CT,9.0,9001.0,Fairfield County,90012114003.0
5241,sg:f56059aba4ff48a2bf0f5c500f94c962,Bank of America,CT,2019-11-01T00:00:00-04:00,2019-12-01T00:00:00-05:00,6460,5,476.0,"{""<5"":0,""5-20"":1,""21-60"":0,""61-240"":0,"">240"":4}",972.5,41.238795,-73.035076,522110.0,CT,9.0,9009.0,New Haven County,90091508001.0
5514,sg:0dc978fbfe144b6dbf9b799a02a2c7ce,Essex Consignment,CT,2019-11-01T00:00:00-04:00,2019-12-01T00:00:00-05:00,6426,5,21.0,"{""<5"":0,""5-20"":2,""21-60"":2,""61-240"":1,"">240"":0}",256.5,41.333708,-72.422122,453310.0,CT,9.0,9007.0,Middlesex County,90076301006.0
5525,sg:0ea5201886c74fe9ac94d9cbdfe5771d,BP,CT,2019-11-01T00:00:00-04:00,2019-12-01T00:00:00-05:00,6405,1205,14.0,"{""<5"":46,""5-20"":693,""21-60"":323,""61-240"":95,"">240"":48}",47676.5,41.296856,-72.76092299999999,447110.0,CT,9.0,9009.0,New Haven County,90091847001.0
5536,sg:0f5672657c764176b7fcfe5be0328b88,Elevate Fitness,CT,2019-11-01T00:00:00-04:00,2019-12-01T00:00:00-05:00,6870,156,40.0,"{""<5"":4,""5-20"":37,""21-60"":62,""61-240"":25,"">240"":28}",13466.0,41.048821999999994,-73.56604,713940.0,CT,9.0,9001.0,Fairfield County,90010109001.0
5541,sg:1002082b9cd942f783ec8b0b9b37f9ca,Family Auto Body,CT,2019-11-01T00:00:00-04:00,2019-12-01T00:00:00-05:00,6606,1,160.0,"{""<5"":0,""5-20"":0,""21-60"":0,""61-240"":1,"">240"":0}",150.5,41.202156,-73.19076899999999,811121.0,CT,9.0,9001.0,Fairfield County,90010729003.0
5544,sg:102c96228dd04021aeb12b881c1d3b2a,Hartford HealthCare Medical Group,CT,2019-11-01T00:00:00-04:00,2019-12-01T00:00:00-05:00,6410,8,15.5,"{""<5"":0,""5-20"":4,""21-60"":4,""61-240"":0,"">240"":0}",212.0,41.477194,-72.905647,621111.0,CT,9.0,9009.0,New Haven County,90093433002.0
5905,sg:320e9e29907a479ab09f648e564b8551,Lakeside Lunch,CT,2019-11-01T00:00:00-04:00,2019-12-01T00:00:00-05:00,6777,1,44.0,"{""<5"":0,""5-20"":0,""21-60"":1,""61-240"":0,"">240"":0}",40.5,41.694619,-73.363538,722511.0,CT,9.0,9005.0,Litchfield County,90052671001.0
6118,sg:45902dd23c03404d94fcec63ede95bd3,Republic,CT,2019-11-01T00:00:00-04:00,2019-12-01T00:00:00-05:00,6002,387,55.0,"{""<5"":4,""5-20"":96,""21-60"":106,""61-240"":160,"">240"":21}",34623.0,41.828981,-72.735469,722511.0,CT,9.0,9003.0,Hartford County,90034713003.0
6169,sg:49c302bc45da4d53a93cf57fd8bce24d,A A Milford Driving School,CT,2019-11-01T00:00:00-04:00,2019-12-01T00:00:00-05:00,6460,30,19.0,"{""<5"":0,""5-20"":17,""21-60"":7,""61-240"":5,"">240"":1}",1488.5,41.226742,-73.069864,453310.0,CT,9.0,9009.0,New Haven County,90091501003.0
6306,sg:57c9c4de7bb44939b9019ea0bead84cb,Soundbridge Academy Of Aerospace & Engineering Elementary,CT,2019-11-01T00:00:00-04:00,2019-12-01T00:00:00-05:00,6067,178,208.5,"{""<5"":1,""5-20"":43,""21-60"":24,""61-240"":24,"">240"":86}",25764.0,41.644365,-72.664689,611110.0,CT,9.0,9003.0,Hartford County,90035242003.0
6458,sg:667384dc2a27448e8e2165e059a2d8ab,Dental Associates of Connecticut,CT,2019-11-01T00:00:00-04:00,2019-12-01T00:00:00-05:00,6484,77,45.0,"{""<5"":0,""5-20"":23,""21-60"":21,""61-240"":15,"">240"":18}",7715.5,41.27717,-73.12086,621210.0,CT,9.0,9001.0,Fairfield County,90011102023.0
6652,sg:7891c069715a4404872fb9bf0874ddeb,All United Locksmith,CT,2019-11-01T00:00:00-04:00,2019-12-01T00:00:00-05:00,6460,4,47.0,"{""<5"":1,""5-20"":1,""21-60"":0,""61-240"":2,"">240"":0}",316.0,41.223065999999996,-73.04414399999999,621511.0,CT,9.0,9009.0,New Haven County,90091509002.0
6722,sg:7e5e6f46e9c14bb9857520fc5617562f,Partners,CT,2019-11-01T00:00:00-04:00,2019-12-01T00:00:00-05:00,6511,399,57.0,"{""<5"":10,""5-20"":99,""21-60"":97,""61-240"":134,"">240"":59}",39518.0,41.308004,-72.934048,722511.0,CT,9.0,9009.0,New Haven County,90093614011.0
6753,sg:81d6f09efa17431db9c9b55c121bda13,CrossFit,CT,2019-11-01T00:00:00-04:00,2019-12-01T00:00:00-05:00,6074,317,78.0,"{""<5"":1,""5-20"":57,""21-60"":63,""61-240"":177,"">240"":19}",34465.0,41.822406,-72.607109,713940.0,CT,9.0,9003.0,Hartford County,90034874003.0
6794,sg:86c20005dd014722b61cd3abc39d0b20,TD Bank,CT,2019-11-01T00:00:00-04:00,2019-12-01T00:00:00-05:00,6001,76,11.0,"{""<5"":9,""5-20"":32,""21-60"":13,""61-240"":3,"">240"":19}",5960.5,41.811715,-72.852522,522110.0,CT,9.0,9003.0,Hartford County,90034622011.0
6854,sg:8be9a3011cd24af59065df1a3f2cc4a2,St Vincent's Stratford Urgent Care Center,CT,2019-11-01T00:00:00-04:00,2019-12-01T00:00:00-05:00,6614,121,72.0,"{""<5"":0,""5-20"":14,""21-60"":36,""61-240"":47,"">240"":24}",14466.5,41.204908,-73.13114399999999,621493.0,CT,9.0,9001.0,Fairfield County,90010808003.0
6884,sg:8e302d971f6b48c1b6f6554caede3647,Boost Bowls,CT,2019-11-01T00:00:00-04:00,2019-12-01T00:00:00-05:00,6492,128,41.5,"{""<5"":2,""5-20"":30,""21-60"":38,""61-240"":58,"">240"":0}",10648.0,41.48766,-72.80804599999999,722515.0,CT,9.0,9009.0,New Haven County,90091754001.0
7079,sg:a3faab56f9bc4ca0bf92d7493378e286,Creative Hypnosis,CT,2019-11-01T00:00:00-04:00,2019-12-01T00:00:00-05:00,6410,54,35.5,"{""<5"":0,""5-20"":18,""21-60"":23,""61-240"":13,"">240"":0}",3113.0,41.509115,-72.89784399999999,621330.0,CT,9.0,9009.0,New Haven County,90093431022.0
7338,sg:bbbf7d8ddd764d56b09810bde171c086,McLean Clinton OD,CT,2019-11-01T00:00:00-04:00,2019-12-01T00:00:00-05:00,6484,903,20.0,"{""<5"":13,""5-20"":473,""21-60"":327,""61-240"":64,"">240"":26}",35060.5,41.263818,-73.132284,446130.0,CT,9.0,9001.0,Fairfield County,90011103022.0
7340,sg:bbcac646c2ca40ae96f9d1a9a8066e03,Tyler English Fitness,CT,2019-11-01T00:00:00-04:00,2019-12-01T00:00:00-05:00,6066,150,51.5,"{""<5"":0,""5-20"":13,""21-60"":83,""61-240"":53,"">240"":1}",11740.5,41.842046,-72.494569,713940.0,CT,9.0,9013.0,Tolland County,90135303021.0
7343,sg:bc1e825381f14c7796a3beb3cfa854d9,Center for Musculoskeletal Care,CT,2019-11-01T00:00:00-04:00,2019-12-01T00:00:00-05:00,6902,133,52.0,"{""<5"":4,""5-20"":31,""21-60"":37,""61-240"":44,"">240"":17}",12598.0,41.079240000000006,-73.5547,621111.0,CT,9.0,9001.0,Fairfield County,90010213001.0
7357,sg:bd84ddc7f83040aeafc7c8590a1fc2df,The Spice & Tea Exchange,CT,2019-11-01T00:00:00-04:00,2019-12-01T00:00:00-05:00,6355,10,21.5,"{""<5"":1,""5-20"":3,""21-60"":6,""61-240"":0,"">240"":0}",283.0,41.354889,-71.969184,446191.0,CT,9.0,9011.0,New London County,90117030001.0
7367,sg:bef77b81325244e7b3901b3dd76c5f81,Aurora Diner Restaurants,CT,2019-11-01T00:00:00-04:00,2019-12-01T00:00:00-05:00,6708,58,25.0,"{""<5"":0,""5-20"":20,""21-60"":37,""61-240"":1,"">240"":0}",1899.0,41.578267,-73.05461899999999,722511.0,,,,,
7381,sg:c07a30ba598c4cc8ad3839aa072dd07d,Pedal Power,CT,2019-11-01T00:00:00-04:00,2019-12-01T00:00:00-05:00,6426,49,57.0,"{""<5"":0,""5-20"":9,""21-60"":16,""61-240"":11,"">240"":13}",5536.0,41.352954,-72.40758100000001,451110.0,CT,9.0,9007.0,Middlesex County,90076301003.0
7462,sg:c7f91edd59aa4e51b70fbaf11d091570,Subway,CT,2019-11-01T00:00:00-04:00,2019-12-01T00:00:00-05:00,6483,217,40.0,"{""<5"":5,""5-20"":76,""21-60"":46,""61-240"":83,"">240"":7}",16997.0,41.360298,-73.095344,722513.0,CT,9.0,9009.0,New Haven County,90091302005.0
7478,sg:c9b08df840604f85ae1381c0363ee17e,Hk Fitness,CT,2019-11-01T00:00:00-04:00,2019-12-01T00:00:00-05:00,6441,93,22.0,"{""<5"":3,""5-20"":35,""21-60"":42,""61-240"":13,"">240"":0}",4102.5,41.495112,-72.558915,713940.0,CT,9.0,9007.0,Middlesex County,90075901001.0
7554,sg:d1595854c7dd42f3bbd3263034a9f470,Mark T Sheehan High School,CT,2019-11-01T00:00:00-04:00,2019-12-01T00:00:00-05:00,6492,2320,108.0,"{""<5"":25,""5-20"":359,""21-60"":382,""61-240"":810,"">240"":744}",320486.0,41.485506,-72.835964,611110.0,CT,9.0,9009.0,New Haven County,90091756004.0
7643,sg:d9576d74992f4545993ac33ce0da6c7f,Michaels Stores,CT,2019-11-01T00:00:00-04:00,2019-12-01T00:00:00-05:00,6804,39,10.0,"{""<5"":1,""5-20"":37,""21-60"":1,""61-240"":0,"">240"":0}",505.5,41.434943,-73.413013,451120.0,CT,9.0,9001.0,Fairfield County,90012053003.0
7673,sg:dc0fba184ba7430d9192cb86d00fa6b6,Cohen Jodi L DDS,CT,2019-11-01T00:00:00-04:00,2019-12-01T00:00:00-05:00,6471,2,27.5,"{""<5"":0,""5-20"":1,""21-60"":1,""61-240"":0,"">240"":0}",53.0,41.327166,-72.767052,621210.0,CT,9.0,9009.0,New Haven County,90091861003.0
7715,sg:df84dddc14ce4c7298cf6eb339f45b3d,Steam,CT,2019-11-01T00:00:00-04:00,2019-12-01T00:00:00-05:00,6820,214,26.0,"{""<5"":6,""5-20"":81,""21-60"":82,""61-240"":44,"">240"":1}",11210.5,41.076378000000005,-73.471287,722511.0,CT,9.0,9001.0,Fairfield County,90010304001.0
7754,sg:e387c087c9d54e72bd8269932a6f944c,Canterbury Children's Academy,CT,2019-11-01T00:00:00-04:00,2019-12-01T00:00:00-05:00,6331,11,109.0,"{""<5"":0,""5-20"":2,""21-60"":3,""61-240"":4,"">240"":2}",1228.5,41.707757,-71.987854,624410.0,CT,9.0,9015.0,Windham County,90159061002.0
7871,sg:eecc6df1c0774ec5bd0c8f5ea826c913,Bob's Stores,CT,2019-11-01T00:00:00-04:00,2019-12-01T00:00:00-05:00,6460,190,21.0,"{""<5"":1,""5-20"":93,""21-60"":88,""61-240"":8,"">240"":0}",5933.0,41.22814,-73.04777299999999,448140.0,CT,9.0,9009.0,New Haven County,90091509002.0
7957,sg:f7cd04787e65403abc5bf41b082519e3,Camp Bow Wow,CT,2019-11-01T00:00:00-04:00,2019-12-01T00:00:00-05:00,6074,50,46.0,"{""<5"":3,""5-20"":17,""21-60"":8,""61-240"":16,"">240"":6}",4392.0,41.836443,-72.60378299999999,812910.0,CT,9.0,9003.0,Hartford County,90034873001.0
8015,sg:fcb6fd79dc4b447f8d1972a8bf2714bf,Schoetz Real Estate,CT,2019-11-01T00:00:00-04:00,2019-12-01T00:00:00-05:00,6830,16,97.0,"{""<5"":0,""5-20"":5,""21-60"":0,""61-240"":6,"">240"":5}",2165.5,41.021728,-73.628345,531210.0,CT,9.0,9001.0,Fairfield County,90010105001.0
8016,sg:fcc87f0cd9474ea4b2b2be37c0e21f7c,Brooksvale Park,CT,2019-11-01T00:00:00-04:00,2019-12-01T00:00:00-05:00,6518,1,22.0,"{""<5"":0,""5-20"":0,""21-60"":1,""61-240"":0,"">240"":0}",40.5,41.45387,-72.920576,712190.0,CT,9.0,9009.0,New Haven County,90091659001.0
8080,sg:0225cd7d09e443e29022e3e971d4442c,NewBrook Kitchen Artisan Market,CT,2019-11-01T00:00:00-04:00,2019-12-01T00:00:00-05:00,6880,48,70.5,"{""<5"":1,""5-20"":12,""21-60"":7,""61-240"":17,"">240"":11}",5634.5,41.123425,-73.372353,445110.0,CT,9.0,9001.0,Fairfield County,90010504001.0
8128,sg:06388a409f8d45dc93e2cea81f390cb0,Center Spirit Shoppe,CT,2019-11-01T00:00:00-04:00,2019-12-01T00:00:00-05:00,6019,21,6.0,"{""<5"":6,""5-20"":12,""21-60"":2,""61-240"":0,"">240"":1}",486.0,41.811514,-72.92258100000001,445310.0,CT,9.0,9003.0,Hartford County,90034641023.0
8224,sg:0dd008653025407eb24e37257a6fd2e9,Center For Pain Rehabilitation,CT,2019-11-01T00:00:00-04:00,2019-12-01T00:00:00-05:00,6810,217,54.0,"{""<5"":2,""5-20"":21,""21-60"":93,""61-240"":71,"">240"":30}",21919.5,41.413616,-73.406723,621111.0,CT,9.0,9001.0,Fairfield County,90012104001.0
8226,sg:0e2e866fd31c48138b1db82490ff01f2,NewLife Christian Fellowship,CT,2019-11-01T00:00:00-04:00,2019-12-01T00:00:00-05:00,6109,75,103.0,"{""<5"":1,""5-20"":22,""21-60"":9,""61-240"":19,"">240"":24}",9261.5,41.689896000000005,-72.657013,813110.0,CT,9.0,9003.0,Hartford County,90034926001.0
8452,sg:22efbdf3a88f4810b032d2a6da13626b,Adriana's Italian Restaurant & Catering,CT,2019-11-01T00:00:00-04:00,2019-12-01T00:00:00-05:00,6511,353,83.0,"{""<5"":5,""5-20"":77,""21-60"":53,""61-240"":185,"">240"":33}",38884.0,41.308244,-72.915276,722511.0,CT,9.0,9009.0,New Haven County,90091421001.0
8475,sg:252385e6d93143cbbcc05954bc8ca0ef,G&K Services,CT,2019-11-01T00:00:00-04:00,2019-12-01T00:00:00-05:00,6114,280,62.5,"{""<5"":3,""5-20"":83,""21-60"":53,""61-240"":97,"">240"":44}",28350.0,41.741474,-72.652454,453310.0,CT,9.0,9003.0,Hartford County,90035025001.0
8533,sg:2a683553663d4916a328187a0cdb7e95,Whole Body Wellness & Physical Therapy,CT,2019-11-01T00:00:00-04:00,2019-12-01T00:00:00-05:00,6033,83,75.0,"{""<5"":1,""5-20"":11,""21-60"":20,""61-240"":34,"">240"":17}",10147.0,41.717662,-72.584767,621340.0,CT,9.0,9003.0,Hartford County,90035203011.0
8564,sg:2d188faca6d7466aa081dcf86300c576,Prospect Nursery School,CT,2019-11-01T00:00:00-04:00,2019-12-01T00:00:00-05:00,6712,5,21.0,"{""<5"":0,""5-20"":2,""21-60"":2,""61-240"":0,"">240"":1}",346.0,41.501759,-72.978711,624410.0,CT,9.0,9009.0,New Haven County,90093471002.0
8580,sg:2e72bc7e2a684e4090d594699f16aa77,The Pickle Barrel,CT,2019-11-01T00:00:00-04:00,2019-12-01T00:00:00-05:00,6615,255,20.0,"{""<5"":6,""5-20"":131,""21-60"":70,""61-240"":24,"">240"":24}",13859.5,41.186721999999996,-73.130652,445120.0,CT,9.0,9001.0,Fairfield County,90010806001.0
8613,sg:3207ee5f16fc43788b9e376dbf55ffe3,Church of the Christian Brotherhood,CT,2019-11-01T00:00:00-04:00,2019-12-01T00:00:00-05:00,6422,1,20.0,"{""<5"":0,""5-20"":1,""21-60"":0,""61-240"":0,"">240"":0}",12.5,41.446739,-72.727868,813110.0,CT,9.0,9007.0,Middlesex County,90075851004.0
8625,sg:3388860129974b47b98ed804e960e815,Greater Hartford Academy of Arts,CT,2019-11-01T00:00:00-04:00,2019-12-01T00:00:00-05:00,6106,1085,62.0,"{""<5"":13,""5-20"":233,""21-60"":274,""61-240"":363,"">240"":202}",117153.5,41.750688000000004,-72.685563,611310.0,CT,9.0,9003.0,Hartford County,90035027003.0
8898,sg:4acd851910cc4259bfcc760b94d0ac79,Unitarian Universalist Society Shoreline Office,CT,2019-11-01T00:00:00-04:00,2019-12-01T00:00:00-05:00,6443,18,51.5,"{""<5"":1,""5-20"":4,""21-60"":4,""61-240"":9,"">240"":0}",1569.0,41.278519,-72.623923,813110.0,CT,9.0,9009.0,New Haven County,90091941004.0
9043,sg:567af48989e44484b7f5d78e0b12fd02,Midas,CT,2019-11-01T00:00:00-04:00,2019-12-01T00:00:00-05:00,6489,4,64.0,"{""<5"":0,""5-20"":0,""21-60"":1,""61-240"":3,"">240"":0}",492.0,41.619181,-72.87425,811111.0,CT,9.0,9003.0,Hartford County,90034306011.0
9161,sg:5f6b29dee7a14d74a1b1ca66977c32da,Mona Lisa Restaurant,CT,2019-11-01T00:00:00-04:00,2019-12-01T00:00:00-05:00,6716,151,72.0,"{""<5"":1,""5-20"":17,""21-60"":47,""61-240"":69,"">240"":17}",16583.0,41.576884,-72.999898,722511.0,CT,9.0,9009.0,New Haven County,90093612003.0
9171,sg:60a29df58c134e35952358cdef6f4179,Friend To Friend Thrift Shop,CT,2019-11-01T00:00:00-04:00,2019-12-01T00:00:00-05:00,6026,13,59.0,"{""<5"":1,""5-20"":3,""21-60"":3,""61-240"":3,"">240"":3}",1333.0,41.912521999999996,-72.739527,453310.0,CT,9.0,9003.0,Hartford County,90034701003.0
9175,sg:610df9db4b2b4277b119dcbf9b68f5fb,Jan Fitzgerald Briscoe LMFT,CT,2019-11-01T00:00:00-04:00,2019-12-01T00:00:00-05:00,6371,6,257.5,"{""<5"":0,""5-20"":0,""21-60"":1,""61-240"":1,"">240"":4}",1151.0,41.324259999999995,-72.335452,621330.0,CT,9.0,9011.0,New London County,90116601012.0
9267,sg:69b5afa7acf44fbeaa33092da063b535,Meriden Municipal Federal Credit Union,CT,2019-11-01T00:00:00-04:00,2019-12-01T00:00:00-05:00,6451,8,25.5,"{""<5"":0,""5-20"":3,""21-60"":2,""61-240"":2,"">240"":1}",659.5,41.553214000000004,-72.846007,522110.0,CT,9.0,9003.0,Hartford County,90034303011.0
9394,sg:75cd1e54c32648c8905689ee3c17906b,Danny's Drive In,CT,2019-11-01T00:00:00-04:00,2019-12-01T00:00:00-05:00,6614,95,11.0,"{""<5"":2,""5-20"":55,""21-60"":13,""61-240"":14,"">240"":11}",5966.0,41.200082,-73.114385,722511.0,CT,9.0,9001.0,Fairfield County,90010807001.0
9449,sg:7b99eda530204bf6ba99a0874657e802,Jenny Mathews DDS MS PhD,CT,2019-11-01T00:00:00-04:00,2019-12-01T00:00:00-05:00,6880,52,39.5,"{""<5"":1,""5-20"":8,""21-60"":30,""61-240"":11,"">240"":2}",3453.0,41.147024,-73.36619300000001,621210.0,CT,9.0,9001.0,Fairfield County,90010501002.0
9456,sg:7c7f717eb4724afcaa0b127e3d1ca778,Aldos,CT,2019-11-01T00:00:00-04:00,2019-12-01T00:00:00-05:00,6110,284,13.5,"{""<5"":11,""5-20"":150,""21-60"":58,""61-240"":44,"">240"":21}",15913.5,41.723807,-72.761637,448120.0,CT,9.0,9003.0,Hartford County,90034962004.0
9472,sg:7d903ed2299e4f1fa226f073db68e637,Weston's Antiques,CT,2019-11-01T00:00:00-04:00,2019-12-01T00:00:00-05:00,6238,149,33.0,"{""<5"":6,""5-20"":52,""21-60"":51,""61-240"":30,"">240"":10}",9645.5,41.796079999999996,-72.414022,453310.0,CT,9.0,9013.0,Tolland County,90138501002.0
9477,sg:7e0552648159471dae5eaef1d903fbd8,GNC (General Nutrition Centers),CT,2019-11-01T00:00:00-04:00,2019-12-01T00:00:00-05:00,6032,21,8.0,"{""<5"":1,""5-20"":16,""21-60"":3,""61-240"":1,"">240"":0}",474.5,41.722524,-72.76241999999999,446191.0,CT,9.0,9003.0,Hartford County,90034962004.0
9563,sg:84eb73090c29495b9ea1e5a4bc02abb7,Dockside Resort Bar,CT,2019-11-01T00:00:00-04:00,2019-12-01T00:00:00-05:00,6320,72,39.5,"{""<5"":1,""5-20"":21,""21-60"":18,""61-240"":29,"">240"":3}",6078.5,41.353596,-72.09397299999999,722515.0,CT,9.0,9011.0,New London County,90116905002.0
9624,sg:8a3aecc500f24270bb332f09b73d3b4c,Park Lane Pizza,CT,2019-11-01T00:00:00-04:00,2019-12-01T00:00:00-05:00,6119,164,13.0,"{""<5"":5,""5-20"":90,""21-60"":33,""61-240"":22,"">240"":14}",9145.0,41.755578,-72.72912099999999,722511.0,CT,9.0,9003.0,Hartford County,90034967003.0
9629,sg:8b3b61c083f740008545e34b4d0226c2,Adamo's Garage,CT,2019-11-01T00:00:00-04:00,2019-12-01T00:00:00-05:00,6492,1,8.0,"{""<5"":0,""5-20"":1,""21-60"":0,""61-240"":0,"">240"":0}",12.5,41.451198,-72.812096,811111.0,CT,9.0,9009.0,New Haven County,90091759004.0
9873,sg:a440fd809c7a483bbca9ac7dbb1cf1e2,Wooster Memorial Park,CT,2019-11-01T00:00:00-04:00,2019-12-01T00:00:00-05:00,6511,111,40.0,"{""<5"":2,""5-20"":32,""21-60"":39,""61-240"":28,"">240"":10}",8598.5,41.303183000000004,-72.919225,712190.0,CT,9.0,9009.0,New Haven County,90091422002.0
9911,sg:a73aefbb362e42c1b25b7d351f2545c1,Charlene Elizabeth Salon,CT,2019-11-01T00:00:00-04:00,2019-12-01T00:00:00-05:00,6492,7,244.0,"{""<5"":0,""5-20"":0,""21-60"":1,""61-240"":2,"">240"":4}",1301.5,41.465070000000004,-72.819558,812112.0,CT,9.0,9009.0,New Haven County,90091754001.0
9927,sg:a85499ca572047e2a6866ea5fcb1c593,ZStrict,CT,2019-11-01T00:00:00-04:00,2019-12-01T00:00:00-05:00,6902,3873,61.0,"{""<5"":54,""5-20"":863,""21-60"":989,""61-240"":1800,"">240"":167}",361957.0,41.050876,-73.516317,713910.0,CT,9.0,9001.0,Fairfield County,90010220002.0
9971,sg:ac598c75f3194834ba46607ce7f377a3,Hartford HealthCare Rehabilitation Network,CT,2019-11-01T00:00:00-04:00,2019-12-01T00:00:00-05:00,6035,26,35.0,"{""<5"":0,""5-20"":8,""21-60"":12,""61-240"":6,"">240"":0}",1489.0,41.954137,-72.786233,621340.0,CT,9.0,9003.0,Hartford County,90034681021.0
10041,sg:b2c1d4d78cd04eb3a0d49e5bb96d8731,Lincare,CT,2019-11-01T00:00:00-04:00,2019-12-01T00:00:00-05:00,6385,3,12.0,"{""<5"":0,""5-20"":2,""21-60"":0,""61-240"":1,"">240"":0}",175.5,41.341253,-72.11985,621999.0,CT,9.0,9011.0,New London County,90116934003.0
10367,sg:d1406df1cff6429a9261f57bca1950e3,Joe's Yellow Sub Machine,CT,2019-11-01T00:00:00-04:00,2019-12-01T00:00:00-05:00,6256,7,10.0,"{""<5"":0,""5-20"":6,""21-60"":1,""61-240"":0,"">240"":0}",115.5,41.746546,-72.16475799999999,722515.0,CT,9.0,9015.0,Windham County,90158005001.0
10471,sg:dd7596b805fc42f8b504648b764018b7,Shoreline Neuropsychiatric Services,CT,2019-11-01T00:00:00-04:00,2019-12-01T00:00:00-05:00,6460,23,18.0,"{""<5"":0,""5-20"":12,""21-60"":6,""61-240"":2,"">240"":3}",1414.0,41.21976,-73.062986,621111.0,CT,9.0,9009.0,New Haven County,90091501002.0
10505,sg:e09ec129f96c4d65a8def1d7764d9f5e,Northeast Farrier Supply,CT,2019-11-01T00:00:00-04:00,2019-12-01T00:00:00-05:00,6098,27,32.0,"{""<5"":1,""5-20"":8,""21-60"":9,""61-240"":9,"">240"":0}",1821.5,41.92349,-73.058657,451110.0,CT,9.0,9005.0,Litchfield County,90053201002.0
10628,sg:eb982ca9b77e473db02c8acb1f6babd9,Shree Skin Care,CT,2019-11-01T00:00:00-04:00,2019-12-01T00:00:00-05:00,6074,137,44.0,"{""<5"":0,""5-20"":43,""21-60"":38,""61-240"":41,"">240"":15}",11847.0,41.826231,-72.52362600000001,446120.0,CT,9.0,9003.0,Hartford County,90034872013.0
10659,sg:ee4f5e23fab84d9ca8e8051272064e65,Family Dollar Stores,CT,2019-11-01T00:00:00-04:00,2019-12-01T00:00:00-05:00,6515,352,21.0,"{""<5"":11,""5-20"":160,""21-60"":70,""61-240"":51,"">240"":60}",26938.0,41.329108000000005,-72.969538,452319.0,CT,9.0,9009.0,New Haven County,90091412003.0
10784,sg:fb136fd3600c4b56b427a4f25818a7d3,SCRANTON CHEVROLET OF NORWICH,CT,2019-11-01T00:00:00-04:00,2019-12-01T00:00:00-05:00,6360,142,45.0,"{""<5"":3,""5-20"":46,""21-60"":32,""61-240"":32,"">240"":29}",13654.5,41.496408,-72.097649,441110.0,CT,9.0,9011.0,New London County,90116967001.0
10829,sg:ffb158f422e947438db23f18246ba9da,Ultimate MMA & Jiu jitsu Training Center,CT,2019-11-01T00:00:00-04:00,2019-12-01T00:00:00-05:00,6473,118,46.5,"{""<5"":6,""5-20"":30,""21-60"":30,""61-240"":50,"">240"":2}",9610.0,41.386988,-72.873414,713940.0,CT,9.0,9009.0,New Haven County,90091671002.0
10952,sg:0a529c40e2dc4434891174e65188ac1c,Reeves Field,CT,2019-11-01T00:00:00-04:00,2019-12-01T00:00:00-05:00,6787,138,47.0,"{""<5"":3,""5-20"":26,""21-60"":62,""61-240"":35,"">240"":12}",10991.0,41.674972,-73.072327,713940.0,CT,9.0,9005.0,Litchfield County,90053492002.0
11006,sg:0f688e5ad92941e7b75386648d5c55e4,Bank of America,CT,2019-11-01T00:00:00-04:00,2019-12-01T00:00:00-05:00,6067,40,8.5,"{""<5"":5,""5-20"":27,""21-60"":3,""61-240"":5,"">240"":0}",1224.0,41.644096000000005,-72.677995,522110.0,CT,9.0,9003.0,Hartford County,90034903024.0
11080,sg:15d4b0b3f355405c8f26067a3173349b,Dunkin',CT,2019-11-01T00:00:00-04:00,2019-12-01T00:00:00-05:00,6379,277,6.0,"{""<5"":33,""5-20"":214,""21-60"":22,""61-240"":4,"">240"":4}",5210.5,41.401990999999995,-71.846861,722515.0,CT,9.0,9011.0,New London County,90117051023.0
11094,sg:17143d20d36a4d32bee713203a552315,Johnson Memorial Hospital,CT,2019-11-01T00:00:00-04:00,2019-12-01T00:00:00-05:00,6076,218,54.0,"{""<5"":6,""5-20"":59,""21-60"":46,""61-240"":43,"">240"":64}",24447.0,41.979136,-72.39097,622110.0,CT,9.0,9013.0,Tolland County,90138902023.0
11114,sg:18c3a6b949e34de78d0510e2736d1b30,Cigar Store & More,CT,2019-11-01T00:00:00-04:00,2019-12-01T00:00:00-05:00,6340,51,23.0,"{""<5"":2,""5-20"":22,""21-60"":22,""61-240"":5,"">240"":0}",1923.5,41.382418,-72.026566,453991.0,CT,9.0,9011.0,New London County,90117021002.0
11169,sg:1df26baaafee4c57a6f68e75c6859b2d,Valero Energy,CT,2019-11-01T00:00:00-04:00,2019-12-01T00:00:00-05:00,6790,23,11.0,"{""<5"":0,""5-20"":18,""21-60"":3,""61-240"":2,"">240"":0}",647.5,41.797227,-73.12114,447110.0,CT,9.0,9005.0,Litchfield County,90053103002.0
11171,sg:1e25c397fb384bec9d5c71988d491171,Staples,CT,2019-11-01T00:00:00-04:00,2019-12-01T00:00:00-05:00,6241,275,20.0,"{""<5"":6,""5-20"":136,""21-60"":109,""61-240"":24,"">240"":0}",9741.5,41.841463,-71.885159,453210.0,CT,9.0,9015.0,Windham County,90159044003.0
11262,sg:2792d36a7c4b45188cb49a364ace151e,Thiele Chiropractic Life Center,CT,2019-11-01T00:00:00-04:00,2019-12-01T00:00:00-05:00,6040,1,11.0,"{""<5"":0,""5-20"":1,""21-60"":0,""61-240"":0,"">240"":0}",12.5,41.770699,-72.544128,621310.0,CT,9.0,9003.0,Hartford County,90035146004.0
11427,sg:35ad0c1a70904a319edcc24d7f5888a4,BJ's Optical,CT,2019-11-01T00:00:00-04:00,2019-12-01T00:00:00-05:00,6804,518,8.0,"{""<5"":33,""5-20"":324,""21-60"":96,""61-240"":40,"">240"":25}",20040.5,41.437363,-73.411261,621320.0,CT,9.0,9001.0,Fairfield County,90012053003.0
11453,sg:3754e6d74f5b434fb270265b4162e6d1,Comprehensive Psychiatric Care PC,CT,2019-11-01T00:00:00-04:00,2019-12-01T00:00:00-05:00,6360,173,49.0,"{""<5"":4,""5-20"":48,""21-60"":41,""61-240"":34,"">240"":46}",18427.5,41.556319,-72.10878100000001,621111.0,CT,9.0,9011.0,New London County,90116962001.0
11557,sg:4254bde8d5a5437ea7d31150714ff199,Ck Auto Wholesalers,CT,2019-11-01T00:00:00-04:00,2019-12-01T00:00:00-05:00,6479,67,6.0,"{""<5"":6,""5-20"":55,""21-60"":4,""61-240"":2,"">240"":0}",1165.5,41.564118,-72.900221,441120.0,CT,9.0,9003.0,Hartford County,90034304002.0
11562,sg:432fe24f47dc48ca86bc7dbee0cc30dd,The Medicine Shoppe,CT,2019-11-01T00:00:00-04:00,2019-12-01T00:00:00-05:00,6484,60,11.0,"{""<5"":1,""5-20"":47,""21-60"":12,""61-240"":0,"">240"":0}",1076.0,41.331835999999996,-73.137366,446110.0,CT,9.0,9001.0,Fairfield County,90011106002.0
11808,sg:5bb02a3443d84eeabefab7377607d8f5,Pastanch,CT,2019-11-01T00:00:00-04:00,2019-12-01T00:00:00-05:00,6770,54,71.5,"{""<5"":0,""5-20"":16,""21-60"":8,""61-240"":24,"">240"":6}",5576.0,41.507526,-73.037968,445110.0,CT,9.0,9009.0,New Haven County,90093451004.0
12035,sg:701e26c0324d49f18d0e97e57659dd57,Sally & Bob's Eatery,CT,2019-11-01T00:00:00-04:00,2019-12-01T00:00:00-05:00,6107,290,37.0,"{""<5"":6,""5-20"":78,""21-60"":135,""61-240"":60,"">240"":11}",18127.5,41.762739,-72.741538,445120.0,CT,9.0,9003.0,Hartford County,90034971004.0
12198,sg:80ad324db9b94027a0963839217dc528,Firestone Complete Auto Care,CT,2019-11-01T00:00:00-04:00,2019-12-01T00:00:00-05:00,6705,154,50.0,"{""<5"":7,""5-20"":53,""21-60"":21,""61-240"":36,"">240"":37}",15828.5,41.563697999999995,-73.010193,441310.0,CT,9.0,9009.0,New Haven County,90093512001.0
12292,sg:8bb0d913b1724bf38af7ebbbcffedaca,Party Magic N' More,CT,2019-11-01T00:00:00-04:00,2019-12-01T00:00:00-05:00,6477,292,24.5,"{""<5"":3,""5-20"":130,""21-60"":83,""61-240"":64,"">240"":12}",17506.0,41.278249,-72.988642,453220.0,CT,9.0,9009.0,New Haven County,90091571002.0
12377,sg:91ded52f34cb404d9d80512b73fa1741,Kern Park,CT,2019-11-01T00:00:00-04:00,2019-12-01T00:00:00-05:00,6010,280,125.5,"{""<5"":0,""5-20"":40,""21-60"":47,""61-240"":102,"">240"":91}",39594.5,41.702372,-72.901329,712190.0,CT,9.0,9003.0,Hartford County,90034060022.0
12681,sg:b3aeb737b2c94f2d97970c5bbec2a931,Modern Tire & Auto Service,CT,2019-11-01T00:00:00-04:00,2019-12-01T00:00:00-05:00,6032,17,6.0,"{""<5"":0,""5-20"":14,""21-60"":3,""61-240"":0,"">240"":0}",296.5,41.730012,-72.829403,441310.0,CT,9.0,9003.0,Hartford County,90034602031.0
12705,sg:b5c36a3ec54846b4ad278a7ad135ac47,Bill Landan Marine Service,CT,2019-11-01T00:00:00-04:00,2019-12-01T00:00:00-05:00,6854,9,10.0,"{""<5"":0,""5-20"":6,""21-60"":3,""61-240"":0,"">240"":0}",196.5,41.096149,-73.415491,441222.0,CT,9.0,9001.0,Fairfield County,90010441002.0
12866,sg:c4c01131233a4fac96d2483ae457dd2e,Fitness Showrooms,CT,2019-11-01T00:00:00-04:00,2019-12-01T00:00:00-05:00,6905,88,10.5,"{""<5"":8,""5-20"":43,""21-60"":28,""61-240"":8,"">240"":1}",3135.5,41.102134,-73.548479,451110.0,CT,9.0,9001.0,Fairfield County,90010206001.0
12878,sg:c5f0b94e63484fdfbfcd2f875de015a2,Jazzi Auto Sales,CT,2019-11-01T00:00:00-04:00,2019-12-01T00:00:00-05:00,6450,1,6.0,"{""<5"":0,""5-20"":1,""21-60"":0,""61-240"":0,"">240"":0}",12.5,41.514655,-72.804987,,CT,9.0,9009.0,New Haven County,90091711003.0
13076,sg:d8fd32e0550c4e3a842cbb768b4bc43a,Farmers Insurance Group,CT,2019-11-01T00:00:00-04:00,2019-12-01T00:00:00-05:00,6413,1,13.0,"{""<5"":0,""5-20"":1,""21-60"":0,""61-240"":0,"">240"":0}",12.5,41.271378000000006,-72.50439899999999,524210.0,CT,9.0,9007.0,Middlesex County,90076102002.0
13193,sg:e5757d08da954f418b91d8baeb9508fe,Torrington Fire Department North End Station,CT,2019-11-01T00:00:00-04:00,2019-12-01T00:00:00-05:00,6790,24,64.0,"{""<5"":0,""5-20"":7,""21-60"":5,""61-240"":7,"">240"":5}",2543.5,41.818889,-73.122336,922160.0,CT,9.0,9005.0,Litchfield County,90053107004.0
13216,sg:e8684c79eedb493da1bbcb5300b458ab,Dream Builders,CT,2019-11-01T00:00:00-04:00,2019-12-01T00:00:00-05:00,6085,169,24.0,"{""<5"":3,""5-20"":66,""21-60"":62,""61-240"":29,"">240"":9}",9868.0,41.745275,-72.870209,442299.0,CT,9.0,9003.0,Hartford County,90034603011.0
13458,sg:ff1ac394cfba4f198bd75f4883b76c76,Hertz,CT,2019-11-01T00:00:00-04:00,2019-12-01T00:00:00-05:00,6478,1,24.0,"{""<5"":0,""5-20"":0,""21-60"":1,""61-240"":0,"">240"":0}",40.5,41.480748,-73.142404,532111.0,,,,,
13575,sg:0839f36cbf374c9f97fee3460b3471c5,AAA Dura Glaze Bathtub Reglazing & Repairs,CT,2019-11-01T00:00:00-04:00,2019-12-01T00:00:00-05:00,6040,38,135.0,"{""<5"":0,""5-20"":4,""21-60"":5,""61-240"":18,"">240"":11}",5601.5,41.767076,-72.504971,423910.0,CT,9.0,9003.0,Hartford County,90035150002.0
13775,sg:1c5689d56c4b4439a3f2563ea9ca2a1f,Edward Jones,CT,2019-11-01T00:00:00-04:00,2019-12-01T00:00:00-05:00,6413,5,9.0,"{""<5"":0,""5-20"":4,""21-60"":0,""61-240"":0,"">240"":1}",290.0,41.271401000000004,-72.502401,523999.0,CT,9.0,9007.0,Middlesex County,90076102004.0
13778,sg:1c748cb3a8b749a9a97ab7609d922e73,BrightStar Care,CT,2019-11-01T00:00:00-04:00,2019-12-01T00:00:00-05:00,6107,6,16.0,"{""<5"":0,""5-20"":3,""21-60"":3,""61-240"":0,"">240"":0}",159.0,41.762902000000004,-72.73949,621610.0,CT,9.0,9003.0,Hartford County,90034971004.0
13786,sg:1ce7c06ba9b844caaf4fde68a09b98bc,Hill Regional Career High School,CT,2019-11-01T00:00:00-04:00,2019-12-01T00:00:00-05:00,6519,596,240.5,"{""<5"":4,""5-20"":82,""21-60"":65,""61-240"":147,"">240"":298}",97311.0,41.305659000000006,-72.941046,611110.0,CT,9.0,9009.0,New Haven County,90091406001.0
13811,sg:202fff7eecab45cbb41a147d678749e9,Imperial Nurseries,CT,2019-11-01T00:00:00-04:00,2019-12-01T00:00:00-05:00,6026,19,28.0,"{""<5"":2,""5-20"":5,""21-60"":7,""61-240"":3,"">240"":2}",1282.5,41.928688,-72.781979,811411.0,CT,9.0,9003.0,Hartford County,90034701002.0
13855,sg:249cd2f088614229ae457114314a5b6e,Kato Counseling,CT,2019-11-01T00:00:00-04:00,2019-12-01T00:00:00-05:00,6811,22,140.0,"{""<5"":0,""5-20"":5,""21-60"":5,""61-240"":2,"">240"":10}",2966.0,41.394034000000005,-73.51397800000001,621330.0,CT,9.0,9001.0,Fairfield County,90012108003.0
13870,sg:25391a575a974c8eae82e18cd41b32a1,Harbour Light Baptist Church,CT,2019-11-01T00:00:00-04:00,2019-12-01T00:00:00-05:00,6477,3,39.0,"{""<5"":0,""5-20"":0,""21-60"":2,""61-240"":1,"">240"":0}",231.5,41.259999,-73.007961,813110.0,CT,9.0,9009.0,New Haven County,90091571001.0
13872,sg:2551183ead1f489291dfd9fc7a9816ce,Sunoco,CT,2019-11-01T00:00:00-04:00,2019-12-01T00:00:00-05:00,6902,65,11.0,"{""<5"":0,""5-20"":39,""21-60"":14,""61-240"":11,"">240"":1}",2950.0,41.047911,-73.554829,447110.0,CT,9.0,9001.0,Fairfield County,90010214003.0
13997,sg:3299fb96e0ce4d1ab733d50a38b52893,Pollack Orthodontics,CT,2019-11-01T00:00:00-04:00,2019-12-01T00:00:00-05:00,6226,88,39.0,"{""<5"":0,""5-20"":26,""21-60"":30,""61-240"":17,"">240"":15}",7698.5,41.713452000000004,-72.212866,621210.0,CT,9.0,9015.0,Windham County,90158006003.0
14059,sg:397a7e0cab41465f8f30b49460f909d9,Diamond Kings,CT,2019-11-01T00:00:00-04:00,2019-12-01T00:00:00-05:00,6010,232,43.5,"{""<5"":2,""5-20"":70,""21-60"":66,""61-240"":67,"">240"":27}",20116.5,41.685103000000005,-72.982848,713940.0,CT,9.0,9003.0,Hartford County,90034058001.0
14098,sg:3d1b07d4d4ff4251a226e2442cc1799e,Bliss Bridal,CT,2019-11-01T00:00:00-04:00,2019-12-01T00:00:00-05:00,6410,46,31.5,"{""<5"":3,""5-20"":18,""21-60"":10,""61-240"":10,"">240"":5}",3342.5,41.495465,-72.902821,448120.0,CT,9.0,9009.0,New Haven County,90093433003.0
14358,sg:5377aba9d1d747e1a0a294991dc7b3d1,Autotek,CT,2019-11-01T00:00:00-04:00,2019-12-01T00:00:00-05:00,6071,12,73.0,"{""<5"":1,""5-20"":4,""21-60"":1,""61-240"":1,"">240"":5}",1443.5,41.965816,-72.456676,811111.0,CT,9.0,9013.0,Tolland County,90135382013.0
14371,sg:54e4c24b3e304c96a33c93a61dd5bc73,T Maria's,CT,2019-11-01T00:00:00-04:00,2019-12-01T00:00:00-05:00,6071,42,26.5,"{""<5"":0,""5-20"":18,""21-60"":15,""61-240"":8,"">240"":1}",2276.5,41.984895,-72.490215,722511.0,CT,9.0,9013.0,Tolland County,90135382014.0
14424,sg:59a06550c88f4f36926f50a9df5515e7,Jason Scully DDS and Francis Zaino DDS,CT,2019-11-01T00:00:00-04:00,2019-12-01T00:00:00-05:00,6824,8,301.0,"{""<5"":0,""5-20"":1,""21-60"":1,""61-240"":2,"">240"":4}",1314.0,41.139784999999996,-73.258361,621210.0,CT,9.0,9001.0,Fairfield County,90010616001.0
14450,sg:5c637033573749849b6a9d35d6bc9c32,Kbarr,CT,2019-11-01T00:00:00-04:00,2019-12-01T00:00:00-05:00,6106,58,56.5,"{""<5"":0,""5-20"":17,""21-60"":16,""61-240"":16,"">240"":9}",5428.5,41.756096,-72.713537,722511.0,CT,9.0,9003.0,Hartford County,90035043002.0
14485,sg:605390e06e9448309f010369dcc0b0e5,Minuteman Press,CT,2019-11-01T00:00:00-04:00,2019-12-01T00:00:00-05:00,6320,2,161.0,"{""<5"":0,""5-20"":1,""21-60"":0,""61-240"":0,"">240"":1}",252.5,41.354786,-72.095835,323113.0,CT,9.0,9011.0,New London County,90116905002.0
14518,sg:630c2208ca044f208b7641a04254d35d,Jarrel Photography,CT,2019-11-01T00:00:00-04:00,2019-12-01T00:00:00-05:00,6488,1,29.0,"{""<5"":0,""5-20"":0,""21-60"":1,""61-240"":0,"">240"":0}",40.5,41.428711,-73.199278,541921.0,CT,9.0,9009.0,New Haven County,90093481232.0
14705,sg:75d44f0c0c1c4baa99259c81b033f011,Associated Urologists PC,CT,2019-11-01T00:00:00-04:00,2019-12-01T00:00:00-05:00,6066,25,202.0,"{""<5"":0,""5-20"":2,""21-60"":3,""61-240"":10,"">240"":10}",4051.5,41.834157,-72.468238,621111.0,CT,9.0,9013.0,Tolland County,90135303022.0
14795,sg:7df5a151444e41c1a85324409a583011,Webster Bank,CT,2019-11-01T00:00:00-04:00,2019-12-01T00:00:00-05:00,6604,209,11.0,"{""<5"":7,""5-20"":149,""21-60"":39,""61-240"":9,"">240"":5}",6014.0,41.177853999999996,-73.187353,522110.0,CT,9.0,9001.0,Fairfield County,90010706001.0
14859,sg:832d8c47399d46fcba2165e54f3e8e34,Stamford Physical Medicine,CT,2019-11-01T00:00:00-04:00,2019-12-01T00:00:00-05:00,6905,89,80.0,"{""<5"":0,""5-20"":13,""21-60"":24,""61-240"":24,"">240"":28}",11466.5,41.064425,-73.53656,621340.0,CT,9.0,9001.0,Fairfield County,90010216004.0
14861,sg:83368eb49ade40788516fbb02d06980f,St Peter & St Andrew Coptic Orthodox Church,CT,2019-11-01T00:00:00-04:00,2019-12-01T00:00:00-05:00,6902,226,72.5,"{""<5"":2,""5-20"":49,""21-60"":48,""61-240"":81,"">240"":46}",25792.0,41.058647,-73.524147,712190.0,CT,9.0,9001.0,Fairfield County,90010218013.0
14919,sg:8862bbd72ee84a27ad12d8f360db218d,Crafters Haven,CT,2019-11-01T00:00:00-04:00,2019-12-01T00:00:00-05:00,6511,4,11.5,"{""<5"":0,""5-20"":4,""21-60"":0,""61-240"":0,"">240"":0}",50.0,41.316039,-72.90341,451130.0,CT,9.0,9009.0,New Haven County,90091424001.0
14922,sg:888e2c81e2e44574889e216f43148e4f,Officers Club of Conn,CT,2019-11-01T00:00:00-04:00,2019-12-01T00:00:00-05:00,6105,766,196.5,"{""<5"":15,""5-20"":113,""21-60"":85,""61-240"":218,"">240"":335}",118101.5,41.764972,-72.685806,721110.0,CT,9.0,9003.0,Hartford County,90035021002.0
15150,sg:a066864453274548826dee838ac0fa68,Subway,CT,2019-11-01T00:00:00-04:00,2019-12-01T00:00:00-05:00,6357,291,49.0,"{""<5"":6,""5-20"":89,""21-60"":66,""61-240"":117,"">240"":13}",24529.0,41.323305,-72.19433199999999,722513.0,CT,9.0,9011.0,New London County,90118707042.0
15202,sg:a60b9ecea1b544e18ae496226b4f5b53,County Mall,CT,2019-11-01T00:00:00-04:00,2019-12-01T00:00:00-05:00,6851,630,41.0,"{""<5"":18,""5-20"":178,""21-60"":192,""61-240"":188,"">240"":54}",51300.0,41.124132,-73.396103,531120.0,CT,9.0,9001.0,Fairfield County,90010435002.0
15277,sg:acea5836dc994ce3a32237b3148584e1,Inner Healing Therapy,CT,2019-11-01T00:00:00-04:00,2019-12-01T00:00:00-05:00,6067,8,30.5,"{""<5"":0,""5-20"":1,""21-60"":5,""61-240"":1,"">240"":1}",605.5,41.655485,-72.681478,621330.0,CT,9.0,9003.0,Hartford County,90034903022.0
15325,sg:b226cdd742b440d49e4d361fdf6739bc,Seymour Historical Society,CT,2019-11-01T00:00:00-04:00,2019-12-01T00:00:00-05:00,6483,9,15.0,"{""<5"":0,""5-20"":7,""21-60"":2,""61-240"":0,"">240"":0}",168.5,41.394116,-73.079565,712120.0,CT,9.0,9009.0,New Haven County,90091302002.0
15335,sg:b33dfc94ebec40f6a3797db267bbf621,StonePost Bakery Cafe,CT,2019-11-01T00:00:00-04:00,2019-12-01T00:00:00-05:00,6001,31,63.0,"{""<5"":1,""5-20"":11,""21-60"":3,""61-240"":9,"">240"":7}",3296.0,41.814187,-72.856437,722515.0,CT,9.0,9003.0,Hartford County,90034622011.0
15371,sg:b6885d87384c4f52bdcd05656eadcc88,Seventh Day Adventist Church Calvary,CT,2019-11-01T00:00:00-04:00,2019-12-01T00:00:00-05:00,6606,14,13.5,"{""<5"":0,""5-20"":12,""21-60"":2,""61-240"":0,"">240"":0}",231.0,41.218647,-73.201584,813110.0,CT,9.0,9001.0,Fairfield County,90010728002.0
15602,sg:cc4a8cfa08fd4731bc19de25b2b71de4,Midstate Tractor & Equipment,CT,2019-11-01T00:00:00-04:00,2019-12-01T00:00:00-05:00,6457,70,9.0,"{""<5"":5,""5-20"":50,""21-60"":11,""61-240"":1,"">240"":3}",1953.5,41.541295,-72.652422,444130.0,CT,9.0,9007.0,Middlesex County,90075420003.0
15633,sg:cf2acd658edd4b1992003a2644e5c381,Dumas Tree Farm,CT,2019-11-01T00:00:00-04:00,2019-12-01T00:00:00-05:00,6455,86,26.0,"{""<5"":1,""5-20"":34,""21-60"":32,""61-240"":16,"">240"":3}",4851.5,41.497671000000004,-72.684382,111421.0,CT,9.0,9007.0,Middlesex County,90075801004.0
15655,sg:d12eb8619e9247b68ec7bde9b80b5457,Shoreline Quick Lube And Car Wash,CT,2019-11-01T00:00:00-04:00,2019-12-01T00:00:00-05:00,6475,105,15.0,"{""<5"":0,""5-20"":64,""21-60"":38,""61-240"":1,"">240"":2}",2969.5,41.286833,-72.411173,811111.0,CT,9.0,9007.0,Middlesex County,90076701002.0
15927,sg:ecd373406b7949eea8f5475791ccef13,Carini's Restaurant,CT,2019-11-01T00:00:00-04:00,2019-12-01T00:00:00-05:00,6492,87,36.0,"{""<5"":2,""5-20"":23,""21-60"":32,""61-240"":28,"">240"":2}",6282.5,41.448122999999995,-72.802835,722511.0,CT,9.0,9009.0,New Haven County,90091759003.0
16049,sg:fb2f429b1d304c478bc86cc680e99560,Il Panino Eatery & Bakery,CT,2019-11-01T00:00:00-04:00,2019-12-01T00:00:00-05:00,6450,4,940.0,"{""<5"":0,""5-20"":0,""21-60"":0,""61-240"":1,"">240"":3}",870.5,41.541940000000004,-72.79091700000001,722511.0,CT,9.0,9009.0,New Haven County,90091714001.0
16096,sg:0029951baf2a4a4a9346c1d54eb3db0b,Dragon East,CT,2019-11-01T00:00:00-04:00,2019-12-01T00:00:00-05:00,6405,101,9.0,"{""<5"":10,""5-20"":55,""21-60"":20,""61-240"":16,"">240"":0}",3930.5,41.286776,-72.816924,722511.0,CT,9.0,9009.0,New Haven County,90091841005.0
16109,sg:01239a8876ca41458c46fa2554c6590d,Dunkin',CT,2019-11-01T00:00:00-04:00,2019-12-01T00:00:00-05:00,6880,123,7.0,"{""<5"":10,""5-20"":89,""21-60"":15,""61-240"":8,"">240"":1}",3189.0,41.138872,-73.311001,722515.0,CT,9.0,9001.0,Fairfield County,90010503003.0
16264,sg:0e40cb87854a48fbb0828b9c215214ea,Dolly Madison Inn & Restaurant,CT,2019-11-01T00:00:00-04:00,2019-12-01T00:00:00-05:00,6443,421,45.0,"{""<5"":4,""5-20"":76,""21-60"":188,""61-240"":150,"">240"":3}",31869.0,41.272107,-72.60759499999999,721110.0,CT,9.0,9009.0,New Haven County,90091941005.0
16344,sg:146d36e665da42c18ff82b8818058fe8,Exxon Fuels Lindstedt Oil Co,CT,2019-11-01T00:00:00-04:00,2019-12-01T00:00:00-05:00,6776,10,7.0,"{""<5"":0,""5-20"":8,""21-60"":2,""61-240"":0,"">240"":0}",181.0,41.579744,-73.41723,447110.0,CT,9.0,9005.0,Litchfield County,90052536002.0
16401,sg:186240ee8c6d49e59bf60f38185b1dc5,Breiner Whole Body Health Center,CT,2019-11-01T00:00:00-04:00,2019-12-01T00:00:00-05:00,6825,3,149.0,"{""<5"":0,""5-20"":0,""21-60"":1,""61-240"":1,"">240"":1}",431.0,41.17219,-73.228086,621210.0,CT,9.0,9001.0,Fairfield County,90010614001.0
16409,sg:1954c544c350494faab8986355d3bd47,Dollar General,CT,2019-11-01T00:00:00-04:00,2019-12-01T00:00:00-05:00,6063,129,13.0,"{""<5"":9,""5-20"":74,""21-60"":36,""61-240"":10,"">240"":0}",3910.5,41.909929,-73.044605,452319.0,CT,9.0,9005.0,Litchfield County,90052901003.0
16419,sg:19fd155c574d40e889a85a3586c002a9,Barnum Benefit Advisors,CT,2019-11-01T00:00:00-04:00,2019-12-01T00:00:00-05:00,6484,243,196.0,"{""<5"":3,""5-20"":25,""21-60"":26,""61-240"":99,"">240"":90}",37872.5,41.275534,-73.127204,524210.0,CT,9.0,9001.0,Fairfield County,90011103022.0
16503,sg:22c3e3fc5e534f2f8b9b2fb65eaece5c,Shell Oil,CT,2019-11-01T00:00:00-04:00,2019-12-01T00:00:00-05:00,6854,152,9.0,"{""<5"":6,""5-20"":105,""21-60"":16,""61-240"":18,"">240"":7}",6364.5,41.105249,-73.419978,447110.0,CT,9.0,9001.0,Fairfield County,90010440001.0
16563,sg:29a5212ab0b649ff884286a3d2ebe5e6,Breakwater Books,CT,2019-11-01T00:00:00-04:00,2019-12-01T00:00:00-05:00,6437,252,26.5,"{""<5"":2,""5-20"":92,""21-60"":96,""61-240"":48,"">240"":14}",15627.0,41.281372,-72.682041,451211.0,CT,9.0,9009.0,New Haven County,90091901001.0
16628,sg:2fcb85cb6ae44299b884b12af07d1f2e,Middlesex Hospital Marlborough Medical Center,CT,2019-11-01T00:00:00-04:00,2019-12-01T00:00:00-05:00,6447,87,137.0,"{""<5"":1,""5-20"":15,""21-60"":12,""61-240"":32,"">240"":27}",11972.0,41.633565000000004,-72.46038399999999,623312.0,CT,9.0,9003.0,Hartford County,90035241004.0
16653,sg:32945d1801fb45e89f6917c21360bed8,Ren Dumpling & Noodle House,CT,2019-11-01T00:00:00-04:00,2019-12-01T00:00:00-05:00,6897,36,40.5,"{""<5"":1,""5-20"":6,""21-60"":19,""61-240"":10,"">240"":0}",2352.0,41.161429999999996,-73.41793100000001,722511.0,CT,9.0,9001.0,Fairfield County,90010454002.0
16710,sg:376a733505064d67877394589b5eaa11,BJ's Wholesale Club,CT,2019-11-01T00:00:00-04:00,2019-12-01T00:00:00-05:00,6614,1922,23.0,"{""<5"":27,""5-20"":799,""21-60"":857,""61-240"":201,"">240"":38}",84134.0,41.20282,-73.11279499999999,452319.0,CT,9.0,9001.0,Fairfield County,90010808001.0
16713,sg:37916c238d804b4db70c4d215c9c9437,Hallmark Cards,CT,2019-11-01T00:00:00-04:00,2019-12-01T00:00:00-05:00,6019,252,25.0,"{""<5"":2,""5-20"":87,""21-60"":123,""61-240"":36,"">240"":4}",12452.0,41.821785,-72.880054,453220.0,CT,9.0,9003.0,Hartford County,90034641023.0
16797,sg:4032abbb3a0d4012866c099917495fff,St Patrick Church Religous Education,CT,2019-11-01T00:00:00-04:00,2019-12-01T00:00:00-05:00,6355,12,57.5,"{""<5"":0,""5-20"":3,""21-60"":4,""61-240"":4,"">240"":1}",1041.5,41.353839,-71.96526800000001,813110.0,CT,9.0,9011.0,New London County,90117053002.0
16874,sg:4654ec7b83054bd98def643ca025f69f,Jw Home Construction,CT,2019-11-01T00:00:00-04:00,2019-12-01T00:00:00-05:00,6513,92,49.0,"{""<5"":2,""5-20"":24,""21-60"":22,""61-240"":19,"">240"":25}",10055.5,41.307142,-72.897315,621610.0,CT,9.0,9009.0,New Haven County,90091423004.0
17015,sg:52f3238b07c2485d9db4e1d0353e9321,Phillips 66,CT,2019-11-01T00:00:00-04:00,2019-12-01T00:00:00-05:00,6479,7,5.0,"{""<5"":0,""5-20"":7,""21-60"":0,""61-240"":0,"">240"":0}",87.5,41.562504,-72.872437,447110.0,CT,9.0,9003.0,Hartford County,90034303011.0
17054,sg:5686509ba3144c17bbbe8accce54c998,Charles Cheney Inn,CT,2019-11-01T00:00:00-04:00,2019-12-01T00:00:00-05:00,6040,6,128.0,"{""<5"":0,""5-20"":1,""21-60"":1,""61-240"":2,"">240"":2}",834.0,41.765803000000005,-72.526337,721110.0,CT,9.0,9003.0,Hartford County,90035147003.0
17092,sg:59f11c5037b14a709185428553396151,Michael Reiss LMFT PhD,CT,2019-11-01T00:00:00-04:00,2019-12-01T00:00:00-05:00,6492,11,10.0,"{""<5"":0,""5-20"":9,""21-60"":0,""61-240"":2,"">240"":0}",413.5,41.439735,-72.750463,621330.0,CT,9.0,9009.0,New Haven County,90091760003.0
17118,sg:5d03472eb86f4c5787d02ebecdc7b16d,Walgreens,CT,2019-11-01T00:00:00-04:00,2019-12-01T00:00:00-05:00,6053,264,10.0,"{""<5"":17,""5-20"":185,""21-60"":42,""61-240"":14,"">240"":6}",7603.0,41.68392,-72.76804399999999,446110.0,CT,9.0,9003.0,Hartford County,90034168001.0
17154,sg:605c2f4fabdd41c9ba4756b5c3844ae9,Jos. A. Bank Clothiers,CT,2019-11-01T00:00:00-04:00,2019-12-01T00:00:00-05:00,6033,112,39.5,"{""<5"":3,""5-20"":25,""21-60"":51,""61-240"":26,"">240"":7}",7978.5,41.719808,-72.620991,448110.0,CT,9.0,9003.0,Hartford County,90035203022.0
17169,sg:618bb7e1d3f742419d311ae9c83507b6,Recreation Commission,CT,2019-11-01T00:00:00-04:00,2019-12-01T00:00:00-05:00,6880,15,10.0,"{""<5"":1,""5-20"":9,""21-60"":1,""61-240"":3,"">240"":1}",847.0,41.117665,-73.319204,712190.0,CT,9.0,9001.0,Fairfield County,90010506002.0
17216,sg:66d158d2358b42fba96cdc5a92ac4e42,T.J. Maxx,CT,2019-11-01T00:00:00-04:00,2019-12-01T00:00:00-05:00,6109,939,24.0,"{""<5"":10,""5-20"":337,""21-60"":411,""61-240"":116,"">240"":65}",53941.0,41.692336,-72.657749,452210.0,CT,9.0,9003.0,Hartford County,90034926001.0
17361,sg:7261d038ad394b45977d3dcc8885ce03,Stafford Fun Club,CT,2019-11-01T00:00:00-04:00,2019-12-01T00:00:00-05:00,6010,22,13.0,"{""<5"":0,""5-20"":13,""21-60"":8,""61-240"":1,"">240"":0}",637.0,41.688579,-72.917732,624410.0,CT,9.0,9003.0,Hartford County,90034052002.0
17415,sg:77ef23bf51a74e1dbd78c3e67b662f89,0degree Thai Ice Cream,CT,2019-11-01T00:00:00-04:00,2019-12-01T00:00:00-05:00,6119,62,24.0,"{""<5"":2,""5-20"":28,""21-60"":7,""61-240"":10,"">240"":15}",5743.5,41.757773,-72.720075,722515.0,CT,9.0,9003.0,Hartford County,90034969003.0
17642,sg:8e5be82f05d54d66b86bae0a82bcd2c5,Webster Bank,CT,2019-11-01T00:00:00-04:00,2019-12-01T00:00:00-05:00,6514,4,7.0,"{""<5"":0,""5-20"":3,""21-60"":0,""61-240"":0,"">240"":1}",277.5,41.346765000000005,-72.934446,522110.0,CT,9.0,9009.0,New Haven County,90091656004.0
17717,sg:946c95af72a443a2a2d8d7d228ed9575,Blackledge Soccer Field,CT,2019-11-01T00:00:00-04:00,2019-12-01T00:00:00-05:00,6447,18,20.0,"{""<5"":1,""5-20"":9,""21-60"":4,""61-240"":4,"">240"":0}",879.0,41.668693,-72.462963,451140.0,CT,9.0,9003.0,Hartford County,90035241002.0
17802,sg:9c9e0d1f16ea48e88694af1346057f7d,La Piccolina,CT,2019-11-01T00:00:00-04:00,2019-12-01T00:00:00-05:00,6776,110,10.0,"{""<5"":10,""5-20"":72,""21-60"":11,""61-240"":4,"">240"":13}",5092.5,41.578041999999996,-73.411488,722511.0,CT,9.0,9005.0,Litchfield County,90052536002.0
17809,sg:9d6ed6de29c9495aba8645aa7af40bb0,Sutton Dental,CT,2019-11-01T00:00:00-04:00,2019-12-01T00:00:00-05:00,6511,5,787.0,"{""<5"":0,""5-20"":1,""21-60"":0,""61-240"":0,"">240"":4}",972.5,41.314306,-72.93771600000001,621210.0,CT,9.0,9009.0,New Haven County,90091407005.0
17817,sg:9e13912aa61749d5b1e6dda17cd2e806,CubeSmart,CT,2019-11-01T00:00:00-04:00,2019-12-01T00:00:00-05:00,6514,13,24.0,"{""<5"":0,""5-20"":6,""21-60"":5,""61-240"":2,"">240"":0}",578.5,41.40247,-72.915702,531130.0,CT,9.0,9009.0,New Haven County,90091659004.0
17825,sg:9f23cf7f09ab4b8f96ea34857739efff,UBS,CT,2019-11-01T00:00:00-04:00,2019-12-01T00:00:00-05:00,6103,4,359.5,"{""<5"":0,""5-20"":0,""21-60"":0,""61-240"":1,"">240"":3}",870.5,41.767127,-72.672632,522110.0,CT,9.0,9003.0,Hartford County,90035021002.0
17853,sg:a221da2fba73438f9d8e88143f43f91d,St Lawrence Cemetery,CT,2019-11-01T00:00:00-04:00,2019-12-01T00:00:00-05:00,6516,294,41.5,"{""<5"":5,""5-20"":82,""21-60"":89,""61-240"":100,"">240"":18}",24012.0,41.309667,-72.961904,812210.0,,,,,
17869,sg:a3c2c990f0d242a18b1313c01bd90986,Buy Rite Liquors,CT,2019-11-01T00:00:00-04:00,2019-12-01T00:00:00-05:00,6109,134,12.5,"{""<5"":10,""5-20"":72,""21-60"":46,""61-240"":6,"">240"":0}",3691.0,41.701927000000005,-72.65949499999999,445310.0,CT,9.0,9003.0,Hartford County,90034922002.0
17918,sg:a7ddc56811ba4ef38bf25805fbb032db,Bunting and Somma Ameriprise Financial Services,CT,2019-11-01T00:00:00-04:00,2019-12-01T00:00:00-05:00,6890,12,95.5,"{""<5"":0,""5-20"":4,""21-60"":2,""61-240"":3,"">240"":3}",1302.5,41.139497,-73.274912,523930.0,CT,9.0,9001.0,Fairfield County,90010606001.0
17923,sg:a81717561a3f4a22a6ac48710507efe8,Calvary Baptist Church,CT,2019-11-01T00:00:00-04:00,2019-12-01T00:00:00-05:00,6096,63,77.0,"{""<5"":0,""5-20"":7,""21-60"":15,""61-240"":40,"">240"":1}",6955.0,41.926632,-72.660374,813110.0,CT,9.0,9003.0,Hartford County,90034762001.0
17925,sg:a83b93d9963b4f14b432a6da623b4dbf,BRBG Insurance,CT,2019-11-01T00:00:00-04:00,2019-12-01T00:00:00-05:00,6484,6,485.5,"{""<5"":0,""5-20"":0,""21-60"":0,""61-240"":0,"">240"":6}",1440.0,41.267595,-73.128498,524210.0,CT,9.0,9001.0,Fairfield County,90011103022.0
17948,sg:a9a54eca858c46c79969d419517bf297,C&C Delicatessen,CT,2019-11-01T00:00:00-04:00,2019-12-01T00:00:00-05:00,6810,127,18.0,"{""<5"":5,""5-20"":62,""21-60"":19,""61-240"":22,"">240"":19}",9428.0,41.404589,-73.459386,722511.0,CT,9.0,9001.0,Fairfield County,90012101001.0
18053,sg:b3390f9f22c4458ab17cf23f3fdaf591,Navy Federal Credit Union Restricted Access,CT,2019-11-01T00:00:00-04:00,2019-12-01T00:00:00-05:00,6340,401,53.0,"{""<5"":8,""5-20"":117,""21-60"":86,""61-240"":77,"">240"":113}",43674.0,41.3903,-72.080738,522110.0,CT,9.0,9011.0,New London County,90119800001.0
18073,sg:b516055942a64f2a98acf8e9309e17fd,North Town Center,CT,2019-11-01T00:00:00-04:00,2019-12-01T00:00:00-05:00,6614,2439,21.0,"{""<5"":55,""5-20"":1161,""21-60"":962,""61-240"":194,"">240"":67}",98888.0,41.232116,-73.14850200000001,531120.0,CT,9.0,9001.0,Fairfield County,90010811003.0
18075,sg:b5350ef6226d4cd99ad97ea61927fbf3,Medical Laser Systems,CT,2019-11-01T00:00:00-04:00,2019-12-01T00:00:00-05:00,6405,28,454.5,"{""<5"":0,""5-20"":3,""21-60"":5,""61-240"":0,"">240"":20}",5040.0,41.307227000000005,-72.756738,621111.0,CT,9.0,9009.0,New Haven County,90091847001.0
18077,sg:b5420024af89446b842cf9f93618e808,Bristol Pizza Restaurant,CT,2019-11-01T00:00:00-04:00,2019-12-01T00:00:00-05:00,6010,186,29.0,"{""<5"":8,""5-20"":66,""21-60"":66,""61-240"":39,"">240"":7}",11067.5,41.67521,-72.950549,722511.0,CT,9.0,9003.0,Hartford County,90034057002.0
18107,sg:b87712db559c40539d413b45ef7b8964,Achieve,CT,2019-11-01T00:00:00-04:00,2019-12-01T00:00:00-05:00,6117,13,71.0,"{""<5"":0,""5-20"":2,""21-60"":3,""61-240"":3,"">240"":5}",1798.0,41.800042,-72.750546,611110.0,CT,9.0,9003.0,Hartford County,90034975002.0
18139,sg:bbc06f660a7d4045b4d6e6691fed64af,Best Buy Auto,CT,2019-11-01T00:00:00-04:00,2019-12-01T00:00:00-05:00,6457,78,203.5,"{""<5"":4,""5-20"":12,""21-60"":8,""61-240"":24,"">240"":30}",11296.0,41.589873,-72.67511999999999,441120.0,CT,9.0,9007.0,Middlesex County,90075412001.0
18144,sg:bbe5feb48ef1446c8be1a9b9988de429,Cove Landing Marine,CT,2019-11-01T00:00:00-04:00,2019-12-01T00:00:00-05:00,6371,15,21.0,"{""<5"":0,""5-20"":6,""21-60"":6,""61-240"":3,"">240"":0}",769.5,41.38534,-72.350946,441222.0,CT,9.0,9011.0,New London County,90116501001.0
18288,sg:cbc61d38038041848e3d65027cecd288,Kingdom Way Pentecostal Church,CT,2019-11-01T00:00:00-04:00,2019-12-01T00:00:00-05:00,6810,143,105.0,"{""<5"":2,""5-20"":16,""21-60"":20,""61-240"":89,"">240"":16}",18249.5,41.397698999999996,-73.460298,813110.0,CT,9.0,9001.0,Fairfield County,90012107012.0
18308,sg:ce26c308b29e4a1993a71b19d4ef82f4,Granby Historical Marker,CT,2019-11-01T00:00:00-04:00,2019-12-01T00:00:00-05:00,6035,15,16.0,"{""<5"":0,""5-20"":9,""21-60"":3,""61-240"":2,"">240"":1}",775.0,41.945904999999996,-72.789948,712120.0,CT,9.0,9003.0,Hartford County,90034681022.0
18325,sg:cfdb5572e7354a49b27091eb6b6d8b09,Founders Movers & Storage,CT,2019-11-01T00:00:00-04:00,2019-12-01T00:00:00-05:00,6333,1,4.0,"{""<5"":1,""5-20"":0,""21-60"":0,""61-240"":0,"">240"":0}",2.5,41.366211,-72.214095,484210.0,CT,9.0,9011.0,New London County,90117161023.0
18333,sg:d0a07a29d9a04064a04a06c0925af641,Timeless By Erika Bessette,CT,2019-11-01T00:00:00-04:00,2019-12-01T00:00:00-05:00,6467,2,77.5,"{""<5"":0,""5-20"":1,""21-60"":0,""61-240"":1,"">240"":0}",163.0,41.565427,-72.90000500000001,812112.0,CT,9.0,9003.0,Hartford County,90034304002.0
18605,sg:ea0f8a1d2f484d5ba121026e51df362c,People's Choice,CT,2019-11-01T00:00:00-04:00,2019-12-01T00:00:00-05:00,6040,75,87.0,"{""<5"":2,""5-20"":24,""21-60"":5,""61-240"":13,"">240"":31}",9904.0,41.782540999999995,-72.532657,722511.0,CT,9.0,9003.0,Hartford County,90035144004.0
18797,sg:ff2aec26333b459786a6614d2ee0ef01,Christ Church Episcopal,CT,2019-11-01T00:00:00-04:00,2019-12-01T00:00:00-05:00,6069,2,228.5,"{""<5"":0,""5-20"":0,""21-60"":0,""61-240"":1,"">240"":1}",390.5,41.879146999999996,-73.47711,813110.0,CT,9.0,9005.0,Litchfield County,90052621002.0
18880,sg:069e5b97162040b69d64ea074a399760,Noah's,CT,2019-11-01T00:00:00-04:00,2019-12-01T00:00:00-05:00,6378,191,81.0,"{""<5"":2,""5-20"":24,""21-60"":51,""61-240"":73,"">240"":41}",23197.0,41.333963,-71.90661300000001,722511.0,CT,9.0,9011.0,New London County,90117052002.0
19056,sg:14778b5fc362409aade98fcad98aa7d0,Koutsoukos James D DMD,CT,2019-11-01T00:00:00-04:00,2019-12-01T00:00:00-05:00,6902,3,17.0,"{""<5"":0,""5-20"":2,""21-60"":0,""61-240"":1,"">240"":0}",175.5,41.054967,-73.527823,621210.0,CT,9.0,9001.0,Fairfield County,90010217001.0
19181,sg:20607c1f39fe4c3f8b35d58521622c3a,Oakgrove Montessori Elementary & Preschool,CT,2019-11-01T00:00:00-04:00,2019-12-01T00:00:00-05:00,6250,7,10.0,"{""<5"":0,""5-20"":4,""21-60"":2,""61-240"":1,"">240"":0}",281.5,41.730996999999995,-72.233953,624410.0,CT,9.0,9013.0,Tolland County,90138815003.0
19184,sg:208841c43ba8413ba8ab77adb593d57c,Missionary Society of Connecticut,CT,2019-11-01T00:00:00-04:00,2019-12-01T00:00:00-05:00,6795,11,72.0,"{""<5"":0,""5-20"":2,""21-60"":3,""61-240"":5,"">240"":1}",1139.0,41.598504999999996,-73.137828,813110.0,CT,9.0,9005.0,Litchfield County,90053602002.0
19308,sg:2d487b43ffcc4f57865b9d3503f4294c,Matsu Sushi,CT,2019-11-01T00:00:00-04:00,2019-12-01T00:00:00-05:00,6880,142,44.0,"{""<5"":4,""5-20"":40,""21-60"":38,""61-240"":45,"">240"":15}",12421.5,41.140881,-73.361053,722511.0,CT,9.0,9001.0,Fairfield County,90010505004.0
19345,sg:2fec61bbf4074f5b85f1de8bdaa4351b,Northwest Catholic High School,CT,2019-11-01T00:00:00-04:00,2019-12-01T00:00:00-05:00,6117,1315,242.0,"{""<5"":4,""5-20"":144,""21-60"":185,""61-240"":319,"">240"":663}",216432.0,41.799426000000004,-72.752478,611110.0,CT,9.0,9003.0,Hartford County,90034975002.0
19438,sg:399f3276bbbb434abf794b0dd84b7924,Quakerlane Cooperative Nursery School,CT,2019-11-01T00:00:00-04:00,2019-12-01T00:00:00-05:00,6119,22,11.0,"{""<5"":0,""5-20"":20,""21-60"":2,""61-240"":0,"">240"":0}",331.0,41.75985,-72.728651,624410.0,CT,9.0,9003.0,Hartford County,90034969004.0
19735,sg:565efdab8a8e42ec9dd5e5a11a503399,Child and Adult Orthodontics,CT,2019-11-01T00:00:00-04:00,2019-12-01T00:00:00-05:00,6443,77,43.0,"{""<5"":2,""5-20"":17,""21-60"":34,""61-240"":22,"">240"":2}",5385.5,41.281119,-72.599439,621210.0,CT,9.0,9009.0,New Haven County,90091941003.0
19752,sg:57a7c9c85a8449a7ab4914bd5aa64906,Latella Joseph & Sons,CT,2019-11-01T00:00:00-04:00,2019-12-01T00:00:00-05:00,6516,12,18.5,"{""<5"":1,""5-20"":6,""21-60"":1,""61-240"":4,"">240"":0}",720.0,41.265461,-72.991958,445110.0,CT,9.0,9009.0,New Haven County,90091542006.0
19816,sg:5fd4ce384f5e4bf6b0c58931a6af8214,Stop & Shop,CT,2019-11-01T00:00:00-04:00,2019-12-01T00:00:00-05:00,6880,942,21.0,"{""<5"":23,""5-20"":446,""21-60"":403,""61-240"":59,"">240"":11}",33473.5,41.137484,-73.302058,445110.0,CT,9.0,9001.0,Fairfield County,90010506003.0
19958,sg:6e6cf8bf0e0542b8814745a0feda01c1,Comprehensive Hearing,CT,2019-11-01T00:00:00-04:00,2019-12-01T00:00:00-05:00,6410,24,68.0,"{""<5"":0,""5-20"":2,""21-60"":5,""61-240"":12,"">240"":5}",3233.5,41.509131,-72.900304,621511.0,CT,9.0,9009.0,New Haven County,90093431021.0
20024,sg:74547d1131894d0689a440bd7d31f8e2,Hodosi's Auto Body,CT,2019-11-01T00:00:00-04:00,2019-12-01T00:00:00-05:00,6418,82,50.0,"{""<5"":2,""5-20"":24,""21-60"":18,""61-240"":26,"">240"":12}",7827.0,41.322722999999996,-73.09433100000001,811121.0,CT,9.0,9009.0,New Haven County,90091202002.0
20042,sg:75f64a88e7b746c794c63de65bf88aab,Tinker After School,CT,2019-11-01T00:00:00-04:00,2019-12-01T00:00:00-05:00,6708,199,38.0,"{""<5"":2,""5-20"":75,""21-60"":38,""61-240"":35,"">240"":49}",19509.0,41.536134000000004,-73.051353,624410.0,CT,9.0,9009.0,New Haven County,90093516013.0
20116,sg:7e806f3f7b5242c087adb9a488a18927,Staples,CT,2019-11-01T00:00:00-04:00,2019-12-01T00:00:00-05:00,6360,213,32.0,"{""<5"":5,""5-20"":69,""21-60"":59,""61-240"":35,"">240"":45}",19332.0,41.514741,-72.108214,453210.0,CT,9.0,9011.0,New London County,90116966001.0
20279,sg:8dfaf2181eef4105b75bbc4751c17396,Dew Yoga,CT,2019-11-01T00:00:00-04:00,2019-12-01T00:00:00-05:00,6905,255,42.0,"{""<5"":2,""5-20"":65,""21-60"":94,""61-240"":78,"">240"":16}",20203.5,41.076268,-73.549227,713940.0,CT,9.0,9001.0,Fairfield County,90010212002.0
20286,sg:8ea5482b4acb4b8196787d0477a56406,Fitzgerald's Fine Catering Since 1948,CT,2019-11-01T00:00:00-04:00,2019-12-01T00:00:00-05:00,6605,88,120.5,"{""<5"":2,""5-20"":14,""21-60"":12,""61-240"":31,"">240"":29}",12291.5,41.158162,-73.229586,722511.0,CT,9.0,9001.0,Fairfield County,90010701004.0
20411,sg:9c621ce6fdfe4fab8d438577f823fa4e,Fernandez Ana M DDS,CT,2019-11-01T00:00:00-04:00,2019-12-01T00:00:00-05:00,6033,2,584.5,"{""<5"":0,""5-20"":0,""21-60"":0,""61-240"":1,"">240"":1}",390.5,41.720075,-72.61835,621210.0,CT,9.0,9003.0,Hartford County,90035203022.0
20574,sg:ad3d6bfe09404ecc86ef7bf00d9f03ff,Academy of Art & Music,CT,2019-11-01T00:00:00-04:00,2019-12-01T00:00:00-05:00,6405,59,82.0,"{""<5"":1,""5-20"":8,""21-60"":17,""61-240"":19,"">240"":14}",7010.5,41.298929,-72.771338,451140.0,CT,9.0,9009.0,New Haven County,90091847001.0
20587,sg:ae4e542e16fa4275905433956461dbd7,Monroe Elementary School,CT,2019-11-01T00:00:00-04:00,2019-12-01T00:00:00-05:00,6468,209,132.0,"{""<5"":4,""5-20"":54,""21-60"":26,""61-240"":37,"">240"":88}",28426.5,41.309173,-73.222503,611110.0,CT,9.0,9001.0,Fairfield County,90011002002.0
20670,sg:b6ab4206b1b440968ceeee910f512383,Bill's Bread and Breakfast,CT,2019-11-01T00:00:00-04:00,2019-12-01T00:00:00-05:00,6260,343,38.0,"{""<5"":7,""5-20"":83,""21-60"":170,""61-240"":53,"">240"":30}",23116.5,41.923716999999996,-71.907943,722511.0,CT,9.0,9015.0,Windham County,90159031003.0
20709,sg:ba50cf4ab7d94acfb1fcc0da2a50fb93,Bright Ideas Tutoring,CT,2019-11-01T00:00:00-04:00,2019-12-01T00:00:00-05:00,6840,8,184.5,"{""<5"":0,""5-20"":0,""21-60"":0,""61-240"":5,"">240"":3}",1472.5,41.148946,-73.49130600000001,611691.0,CT,9.0,9001.0,Fairfield County,90010351001.0
20733,sg:bdd21566dc1b4d759761663b0e3b10f2,Belden Robert H DVM,CT,2019-11-01T00:00:00-04:00,2019-12-01T00:00:00-05:00,6776,7,12.0,"{""<5"":0,""5-20"":4,""21-60"":0,""61-240"":3,"">240"":0}",501.5,41.540729999999996,-73.422539,541940.0,CT,9.0,9005.0,Litchfield County,90052533002.0
20973,sg:d4d742d59d31437a92a2081877113aef,PPG Pittsburgh Paints,CT,2019-11-01T00:00:00-04:00,2019-12-01T00:00:00-05:00,6114,12,16.5,"{""<5"":0,""5-20"":7,""21-60"":3,""61-240"":2,"">240"":0}",510.0,41.735492,-72.656813,444120.0,CT,9.0,9003.0,Hartford County,90035025001.0
21044,sg:dce895a2f9714a5fa5a6fbf792f28977,Sherwin-Williams,CT,2019-11-01T00:00:00-04:00,2019-12-01T00:00:00-05:00,6110,132,21.0,"{""<5"":5,""5-20"":58,""21-60"":34,""61-240"":24,"">240"":11}",8366.5,41.731001,-72.728521,444120.0,CT,9.0,9003.0,Hartford County,90034961002.0
21060,sg:ddfb6935544a40f380621cf55f449bf2,The USA Nursery,CT,2019-11-01T00:00:00-04:00,2019-12-01T00:00:00-05:00,6473,112,38.0,"{""<5"":2,""5-20"":39,""21-60"":32,""61-240"":34,"">240"":5}",8105.5,41.369131,-72.883688,811411.0,CT,9.0,9009.0,New Haven County,90091671002.0
21342,sg:fca4840c9d11456eba33871aaa26b38c,Browne Dental Laboratory,CT,2019-11-01T00:00:00-04:00,2019-12-01T00:00:00-05:00,6360,52,111.0,"{""<5"":1,""5-20"":5,""21-60"":12,""61-240"":21,"">240"":13}",6831.5,41.539871999999995,-72.08715500000001,621210.0,CT,9.0,9011.0,New London County,90116965003.0
21413,sg:03b862e15f5c48659e4b3716164d2105,Thompsonville Fire Department District 2,CT,2019-11-01T00:00:00-04:00,2019-12-01T00:00:00-05:00,6082,8,8.5,"{""<5"":1,""5-20"":6,""21-60"":0,""61-240"":1,"">240"":0}",228.0,41.998275,-72.600043,922160.0,CT,9.0,9003.0,Hartford County,90034806004.0
21559,sg:1113c993969c445ca8d3b751157aa8ec,Prime Sales Auto Dealers LLC,CT,2019-11-01T00:00:00-04:00,2019-12-01T00:00:00-05:00,6787,17,8.0,"{""<5"":1,""5-20"":12,""21-60"":3,""61-240"":1,"">240"":0}",424.5,41.659766,-73.08182,441228.0,CT,9.0,9005.0,Litchfield County,90053491003.0
21614,sg:16d167c3cb1141eba4097d81aecc5493,Highland School,CT,2019-11-01T00:00:00-04:00,2019-12-01T00:00:00-05:00,6492,362,58.0,"{""<5"":6,""5-20"":113,""21-60"":68,""61-240"":76,"">240"":99}",39379.5,41.487922999999995,-72.838479,611110.0,CT,9.0,9009.0,New Haven County,90091756004.0
21640,sg:192cc01dab36410cbac03bbc74327b3e,Go Buses,CT,2019-11-01T00:00:00-04:00,2019-12-01T00:00:00-05:00,6103,216,9.0,"{""<5"":17,""5-20"":146,""21-60"":31,""61-240"":14,"">240"":8}",7150.0,41.768832,-72.66994,482111.0,CT,9.0,9003.0,Hartford County,90035021002.0
21685,sg:1dd892721e534d9b8c8e5d2631b8aa69,4Structures com LLC,CT,2019-11-01T00:00:00-04:00,2019-12-01T00:00:00-05:00,6902,23,35.0,"{""<5"":0,""5-20"":5,""21-60"":11,""61-240"":3,"">240"":4}",1919.5,41.039592,-73.529679,524210.0,CT,9.0,9001.0,Fairfield County,90010221003.0
21856,sg:2c99371ae0c448e781adcd6cef6dd2aa,Classy Clipper,CT,2019-11-01T00:00:00-04:00,2019-12-01T00:00:00-05:00,6108,1284,124.0,"{""<5"":21,""5-20"":205,""21-60"":199,""61-240"":445,"">240"":414}",177007.0,41.769032,-72.67463000000001,453910.0,CT,9.0,9003.0,Hartford County,90035021002.0
21917,sg:31e36918251943e989fa35af693838f3,True Value Hardware,CT,2019-11-01T00:00:00-04:00,2019-12-01T00:00:00-05:00,6473,63,61.0,"{""<5"":0,""5-20"":15,""21-60"":14,""61-240"":26,"">240"":8}",6587.5,41.388115,-72.874329,444130.0,,,,,
21944,sg:34a30cf7dbee4d398922deaefe601867,Lyme Academy College of Fine Arts,CT,2019-11-01T00:00:00-04:00,2019-12-01T00:00:00-05:00,6371,45,139.0,"{""<5"":2,""5-20"":7,""21-60"":7,""61-240"":11,"">240"":18}",6351.5,41.322368,-72.329192,611310.0,CT,9.0,9011.0,New London County,90116601013.0
21953,sg:358d72336ffd4779995b9e8aad742228,Patco Handy Stop,CT,2019-11-01T00:00:00-04:00,2019-12-01T00:00:00-05:00,6786,112,8.0,"{""<5"":6,""5-20"":79,""21-60"":12,""61-240"":14,"">240"":1}",3835.5,41.678402,-73.00354,447110.0,CT,9.0,9005.0,Litchfield County,90054255003.0
21992,sg:38cc70a81af646049808ec400bb96469,Vein Centers of Ct,CT,2019-11-01T00:00:00-04:00,2019-12-01T00:00:00-05:00,6443,10,523.5,"{""<5"":0,""5-20"":1,""21-60"":1,""61-240"":0,"">240"":8}",1973.0,41.278865,-72.594325,621111.0,CT,9.0,9009.0,New Haven County,90091941005.0
22011,sg:3ab32853bd604c1d8aa03e01b8901532,Elmwood Pastry Shop,CT,2019-11-01T00:00:00-04:00,2019-12-01T00:00:00-05:00,6110,9,8.0,"{""<5"":2,""5-20"":4,""21-60"":2,""61-240"":0,"">240"":1}",376.0,41.733284000000005,-72.732934,722515.0,CT,9.0,9003.0,Hartford County,90034963001.0
22089,sg:41f0043791d7485babe742a52e58f7d9,Gifted Hands Massage &amp Spa,CT,2019-11-01T00:00:00-04:00,2019-12-01T00:00:00-05:00,6770,126,81.5,"{""<5"":4,""5-20"":23,""21-60"":25,""61-240"":45,"">240"":29}",15042.5,41.490132,-73.054727,446120.0,CT,9.0,9009.0,New Haven County,90093453001.0
22135,sg:4510af2678e3480d9e132f9823f467c9,Monroe Psychic Readings By Stephanie,CT,2019-11-01T00:00:00-04:00,2019-12-01T00:00:00-05:00,6468,1,6.0,"{""<5"":0,""5-20"":1,""21-60"":0,""61-240"":0,"">240"":0}",12.5,41.319556,-73.26280200000001,621330.0,CT,9.0,9001.0,Fairfield County,90011001003.0
22236,sg:4f808f4dedd04bf794f2f5d253146794,Danielle R Pannese DDS,CT,2019-11-01T00:00:00-04:00,2019-12-01T00:00:00-05:00,6825,7,40.0,"{""<5"":0,""5-20"":1,""21-60"":3,""61-240"":0,"">240"":3}",854.0,41.166451,-73.234735,621210.0,CT,9.0,9001.0,Fairfield County,90010614001.0
22314,sg:5844dce7691540f6806047569aa8764b,Arrow Cab CT,CT,2019-11-01T00:00:00-04:00,2019-12-01T00:00:00-05:00,6117,39,100.0,"{""<5"":3,""5-20"":7,""21-60"":4,""61-240"":13,"">240"":12}",5093.5,41.78371,-72.737833,485310.0,CT,9.0,9003.0,Hartford County,90034972002.0
22414,sg:62bb60d9f4d143adb5435e904baa2327,Knotty Pine Package Store,CT,2019-11-01T00:00:00-04:00,2019-12-01T00:00:00-05:00,6704,47,21.0,"{""<5"":3,""5-20"":20,""21-60"":6,""61-240"":9,"">240"":9}",4015.0,41.575725,-73.02611,445310.0,CT,9.0,9009.0,New Haven County,90093511001.0
22450,sg:660d67d0c4e8449aac0956a940d195d4,Ornamentals LLC,CT,2019-11-01T00:00:00-04:00,2019-12-01T00:00:00-05:00,6076,1,67.0,"{""<5"":0,""5-20"":0,""21-60"":0,""61-240"":1,"">240"":0}",150.5,41.986360999999995,-72.250788,444130.0,CT,9.0,9013.0,Tolland County,90138902011.0
22603,sg:73d54907915d4ec080f12bc78490826a,Hartford Tow Truck Company,CT,2019-11-01T00:00:00-04:00,2019-12-01T00:00:00-05:00,6106,368,47.0,"{""<5"":12,""5-20"":114,""21-60"":77,""61-240"":72,"">240"":93}",37729.5,41.759407,-72.695759,488410.0,CT,9.0,9003.0,Hartford County,90035029002.0
22632,sg:76bfe2f0aeab4d8abc93605bfc097ac3,Guilford Savings Bank,CT,2019-11-01T00:00:00-04:00,2019-12-01T00:00:00-05:00,6443,5,5.0,"{""<5"":0,""5-20"":4,""21-60"":0,""61-240"":0,"">240"":1}",290.0,41.360214,-72.635898,522110.0,CT,9.0,9009.0,New Haven County,90091942021.0
22656,sg:78c5e7a60d5344bbaaef8c7e069b6016,Candlewood Lake Club,CT,2019-11-01T00:00:00-04:00,2019-12-01T00:00:00-05:00,6776,12,16.0,"{""<5"":1,""5-20"":6,""21-60"":1,""61-240"":2,"">240"":2}",899.0,41.49726,-73.44155500000001,453998.0,CT,9.0,9005.0,Litchfield County,90052534003.0
22891,sg:9173b93b12d94e97b7319a45e9ddb4a4,Greenwich Dance Studio,CT,2019-11-01T00:00:00-04:00,2019-12-01T00:00:00-05:00,6830,138,31.5,"{""<5"":6,""5-20"":45,""21-60"":33,""61-240"":39,"">240"":15}",11383.5,41.036507,-73.601861,713940.0,CT,9.0,9001.0,Fairfield County,90010108002.0
23004,sg:9a4f471f98514760b6ae8b8e7b388a02,Jane's Place,CT,2019-11-01T00:00:00-04:00,2019-12-01T00:00:00-05:00,6062,265,75.0,"{""<5"":0,""5-20"":32,""21-60"":66,""61-240"":161,"">240"":6}",28743.5,41.67188,-72.854469,722515.0,CT,9.0,9003.0,Hartford County,90034206004.0
23123,sg:a63a37648d8a43cb89e53594791b64ac,Stevens Alternate High School,CT,2019-11-01T00:00:00-04:00,2019-12-01T00:00:00-05:00,6118,127,310.0,"{""<5"":0,""5-20"":7,""21-60"":7,""61-240"":31,"">240"":82}",24716.5,41.755495,-72.596323,611110.0,CT,9.0,9003.0,Hartford County,90035111002.0
23140,sg:a86b7d696673431d87a8e8a1184db400,Priority Automation & Security,CT,2019-11-01T00:00:00-04:00,2019-12-01T00:00:00-05:00,6351,20,9.0,"{""<5"":2,""5-20"":16,""21-60"":2,""61-240"":0,"">240"":0}",286.0,41.599579999999996,-71.989876,443142.0,CT,9.0,9011.0,New London County,90117101001.0
23396,sg:c3711567dcfe4032879815c9c9f8adf4,Effi's Salon,CT,2019-11-01T00:00:00-04:00,2019-12-01T00:00:00-05:00,6880,4,95.5,"{""<5"":0,""5-20"":0,""21-60"":0,""61-240"":3,"">240"":1}",691.5,41.124075,-73.37208100000001,812112.0,CT,9.0,9001.0,Fairfield County,90010504001.0
23400,sg:c3b701ed3fff45bf8ac041a33956b11b,Brito's Restaurant,CT,2019-11-01T00:00:00-04:00,2019-12-01T00:00:00-05:00,6810,112,27.0,"{""<5"":4,""5-20"":44,""21-60"":37,""61-240"":26,"">240"":1}",6211.5,41.389069,-73.434628,722511.0,CT,9.0,9001.0,Fairfield County,90012104002.0
23464,sg:ca86b1263612416f99405a93d491414f,Studio 180,CT,2019-11-01T00:00:00-04:00,2019-12-01T00:00:00-05:00,6098,1,6.0,"{""<5"":0,""5-20"":1,""21-60"":0,""61-240"":0,"">240"":0}",12.5,41.92352,-73.059471,812112.0,CT,9.0,9005.0,Litchfield County,90053201002.0
23488,sg:cce9119b3c3b49f7ac30c0f72e9c5a13,Scott Cameron PT,CT,2019-11-01T00:00:00-04:00,2019-12-01T00:00:00-05:00,6498,9,20.0,"{""<5"":0,""5-20"":5,""21-60"":1,""61-240"":0,"">240"":3}",823.0,41.295394,-72.489008,621340.0,CT,9.0,9007.0,Middlesex County,90076801001.0
23565,sg:d518f522b765426d9881b8947fa0e1c3,Harvey's Kitchen,CT,2019-11-01T00:00:00-04:00,2019-12-01T00:00:00-05:00,6610,124,108.0,"{""<5"":1,""5-20"":22,""21-60"":21,""61-240"":47,"">240"":33}",16121.5,41.195811,-73.158778,722511.0,CT,9.0,9001.0,Fairfield County,90010733001.0
23579,sg:d67898e901af4d329c8559872511151d,Waddell School,CT,2019-11-01T00:00:00-04:00,2019-12-01T00:00:00-05:00,6042,126,42.0,"{""<5"":2,""5-20"":39,""21-60"":29,""61-240"":21,"">240"":35}",13227.5,41.784105,-72.534626,611110.0,CT,9.0,9003.0,Hartford County,90035144004.0
23950,sg:fe00902e69794c1680b2dba9d738284c,Associated Urologists PC,CT,2019-11-01T00:00:00-04:00,2019-12-01T00:00:00-05:00,6040,2,673.0,"{""<5"":0,""5-20"":0,""21-60"":0,""61-240"":0,"">240"":2}",480.0,41.776070000000004,-72.518702,621111.0,CT,9.0,9003.0,Hartford County,90035147001.0
23952,sg:fe2e524798cc4c6d9198d3356e23b503,Indomitable Fitness and Martial Arts,CT,2019-11-01T00:00:00-04:00,2019-12-01T00:00:00-05:00,6111,8,181.0,"{""<5"":0,""5-20"":0,""21-60"":1,""61-240"":6,"">240"":1}",1183.5,41.721927,-72.717555,713940.0,CT,9.0,9003.0,Hartford County,90034945001.0
23956,sg:fe6128d3e5454e9ba9f1c750f6638f58,Verizon Authorized Retailer Wireless Zone,CT,2019-11-01T00:00:00-04:00,2019-12-01T00:00:00-05:00,6468,4,51.5,"{""<5"":0,""5-20"":0,""21-60"":4,""61-240"":0,"">240"":0}",162.0,41.339162,-73.263006,517312.0,CT,9.0,9001.0,Fairfield County,90011001001.0
23974,sg:ffbb088746794a5f994869bfac2b359e,Annie E Vinton School,CT,2019-11-01T00:00:00-04:00,2019-12-01T00:00:00-05:00,6250,181,30.0,"{""<5"":6,""5-20"":76,""21-60"":24,""61-240"":32,"">240"":43}",17073.0,41.74626,-72.259385,611110.0,CT,9.0,9013.0,Tolland County,90138815003.0
23994,sg:014ae76c691e40728860c9411f065934,Starbucks,CT,2019-11-01T00:00:00-04:00,2019-12-01T00:00:00-05:00,6067,584,9.0,"{""<5"":33,""5-20"":373,""21-60"":71,""61-240"":72,"">240"":35}",26856.5,41.647161,-72.677449,722515.0,CT,9.0,9003.0,Hartford County,90035242003.0
24038,sg:04e3b0ae120d452486f3755ddc9e2da2,Lyme Old Lyme High School,CT,2019-11-01T00:00:00-04:00,2019-12-01T00:00:00-05:00,6371,1536,364.5,"{""<5"":19,""5-20"":133,""21-60"":164,""61-240"":240,"">240"":980}",279672.0,41.318335999999995,-72.325041,611110.0,CT,9.0,9011.0,New London County,90116601013.0
24055,sg:06773a2d93c041898fe949f498e37dbc,Creative Stone & Tile,CT,2019-11-01T00:00:00-04:00,2019-12-01T00:00:00-05:00,6513,79,37.0,"{""<5"":3,""5-20"":26,""21-60"":21,""61-240"":14,"">240"":15}",6890.0,41.311488,-72.903818,442299.0,CT,9.0,9009.0,New Haven County,90091424004.0
24088,sg:095494cd2da640769668907ff7e31344,Shell Oil,CT,2019-11-01T00:00:00-04:00,2019-12-01T00:00:00-05:00,6359,314,9.0,"{""<5"":23,""5-20"":222,""21-60"":46,""61-240"":18,"">240"":5}",8604.5,41.44168,-71.799992,447110.0,CT,9.0,9011.0,New London County,90117071003.0
24272,sg:17eac35037784b32a82fb5c66f03ed3b,Danielson Medical Associates PC,CT,2019-11-01T00:00:00-04:00,2019-12-01T00:00:00-05:00,6239,22,24.0,"{""<5"":0,""5-20"":8,""21-60"":13,""61-240"":1,"">240"":0}",777.0,41.795783,-71.880732,621111.0,CT,9.0,9015.0,Windham County,90159045005.0
24307,sg:1ae7f308cda34082aff6b260c1dcd1b7,The Herbal Room,CT,2019-11-01T00:00:00-04:00,2019-12-01T00:00:00-05:00,6109,5,69.0,"{""<5"":0,""5-20"":0,""21-60"":2,""61-240"":3,"">240"":0}",532.5,41.710052000000005,-72.654988,621111.0,CT,9.0,9003.0,Hartford County,90034921002.0
24415,sg:26114b5026af4c069f9bc2a7b507af19,Sergio's Pizza,CT,2019-11-01T00:00:00-04:00,2019-12-01T00:00:00-05:00,6010,35,10.0,"{""<5"":4,""5-20"":21,""21-60"":4,""61-240"":4,"">240"":2}",1516.5,41.701558,-72.91029,722511.0,CT,9.0,9003.0,Hartford County,90034060022.0
24559,sg:3312c7edf3a643f7ab9c9a1520788564,Woodbury Financial Services Inc,CT,2019-11-01T00:00:00-04:00,2019-12-01T00:00:00-05:00,6410,11,11.0,"{""<5"":1,""5-20"":5,""21-60"":5,""61-240"":0,"">240"":0}",267.5,41.554276,-72.909671,523930.0,CT,9.0,9009.0,New Haven County,90093432001.0
24712,sg:41b14b1f50a9466cbd3cf1e965a3e399,Sliders Grill & Bar,CT,2019-11-01T00:00:00-04:00,2019-12-01T00:00:00-05:00,6062,437,74.0,"{""<5"":5,""5-20"":50,""21-60"":120,""61-240"":170,"">240"":92}",53162.5,41.67588,-72.853015,722511.0,CT,9.0,9003.0,Hartford County,90034206004.0
24740,sg:44a150068c914b37aac0a4eb8d91a2f5,Ophthalmic Consultants of Connecticut,CT,2019-11-01T00:00:00-04:00,2019-12-01T00:00:00-05:00,6450,34,170.5,"{""<5"":0,""5-20"":13,""21-60"":1,""61-240"":6,"">240"":14}",4466.0,41.520142,-72.762697,621111.0,CT,9.0,9009.0,New Haven County,90091712001.0
24755,sg:4638c7d331204eeb9fecbac143f84d8d,Milford Yacht Club,CT,2019-11-01T00:00:00-04:00,2019-12-01T00:00:00-05:00,6460,99,43.0,"{""<5"":1,""5-20"":26,""21-60"":33,""61-240"":34,"">240"":5}",7981.0,41.211308,-73.04992,441222.0,CT,9.0,9009.0,New Haven County,90091501002.0
25069,sg:63c2648c64ff429ca4610a9f802ffaa1,National Helicopter Museum,CT,2019-11-01T00:00:00-04:00,2019-12-01T00:00:00-05:00,6615,521,10.0,"{""<5"":31,""5-20"":352,""21-60"":97,""61-240"":31,"">240"":10}",15471.5,41.194727,-73.130488,712110.0,CT,9.0,9001.0,Fairfield County,90010807001.0
25154,sg:6c32de42711c4ccabcee55fa9c90af55,Strong Women's Health,CT,2019-11-01T00:00:00-04:00,2019-12-01T00:00:00-05:00,6519,6,462.0,"{""<5"":0,""5-20"":1,""21-60"":1,""61-240"":0,"">240"":4}",1013.0,41.300888,-72.930205,621111.0,CT,9.0,9009.0,New Haven County,90091403002.0
25347,sg:8024ab9527e7415fa8033309f6588bac,Compass Care,CT,2019-11-01T00:00:00-04:00,2019-12-01T00:00:00-05:00,6905,33,40.0,"{""<5"":1,""5-20"":12,""21-60"":5,""61-240"":6,"">240"":9}",3418.0,41.065012,-73.54350500000001,492110.0,CT,9.0,9001.0,Fairfield County,90010216003.0
25384,sg:8452f08104524b3fae0fd82df33e1ad5,Tractor Supply Co.,CT,2019-11-01T00:00:00-04:00,2019-12-01T00:00:00-05:00,6477,269,19.0,"{""<5"":9,""5-20"":135,""21-60"":62,""61-240"":27,"">240"":36}",16924.5,41.265436,-72.998035,444130.0,CT,9.0,9009.0,New Haven County,90091571001.0
25432,sg:88890bd373244e6faa3b56e60fb81792,Brito's Grocery,CT,2019-11-01T00:00:00-04:00,2019-12-01T00:00:00-05:00,6114,180,54.0,"{""<5"":9,""5-20"":55,""21-60"":32,""61-240"":45,"">240"":39}",18138.5,41.735253,-72.678251,445110.0,CT,9.0,9003.0,Hartford County,90035023002.0
25868,sg:b08212f624144609bc436791bc00d25c,Crown Trophy,CT,2019-11-01T00:00:00-04:00,2019-12-01T00:00:00-05:00,6851,20,51.5,"{""<5"":0,""5-20"":9,""21-60"":1,""61-240"":10,"">240"":0}",1658.0,41.120022999999996,-73.413143,453998.0,CT,9.0,9001.0,Fairfield County,90010437001.0
25877,sg:b0ff9b8e3da2477f9225460785b17f28,Life Storage,CT,2019-11-01T00:00:00-04:00,2019-12-01T00:00:00-05:00,6492,130,39.5,"{""<5"":6,""5-20"":47,""21-60"":28,""61-240"":36,"">240"":13}",10274.5,41.495711,-72.81658,531130.0,CT,9.0,9009.0,New Haven County,90091754004.0
26040,sg:c105f0a47e6e47ea9ae798aeaa506d8f,Bethel Temple Church of God In Christ,CT,2019-11-01T00:00:00-04:00,2019-12-01T00:00:00-05:00,6519,289,60.0,"{""<5"":7,""5-20"":78,""21-60"":60,""61-240"":78,"">240"":66}",31001.5,41.295034,-72.940423,813110.0,CT,9.0,9009.0,New Haven County,90091405003.0
26099,sg:c5ba43ac78a6427dbf19291ebebd4a8b,Gambino Joseph DC,CT,2019-11-01T00:00:00-04:00,2019-12-01T00:00:00-05:00,6905,1,1054.0,"{""<5"":0,""5-20"":0,""21-60"":0,""61-240"":0,"">240"":1}",240.0,41.077765,-73.53414000000001,621310.0,CT,9.0,9001.0,Fairfield County,90010212001.0
26152,sg:c9d40f276fe3476ba8555f032e296ba2,Trader Joe's,CT,2019-11-01T00:00:00-04:00,2019-12-01T00:00:00-05:00,6477,1350,20.0,"{""<5"":24,""5-20"":660,""21-60"":469,""61-240"":119,"">240"":78}",63934.0,41.251274,-73.01779,445110.0,CT,9.0,9009.0,New Haven County,90091571001.0
26166,sg:cb7e06331f3b4d39afd233c0d2b9c4a4,Greenwich Pharmacy,CT,2019-11-01T00:00:00-04:00,2019-12-01T00:00:00-05:00,6830,3,12.0,"{""<5"":0,""5-20"":3,""21-60"":0,""61-240"":0,"">240"":0}",37.5,41.028948,-73.626635,446110.0,CT,9.0,9001.0,Fairfield County,90010106003.0
26167,sg:cb800ab6db4f4e858d034ab16cdeece5,Black Rock Galleries,CT,2019-11-01T00:00:00-04:00,2019-12-01T00:00:00-05:00,6605,337,77.0,"{""<5"":10,""5-20"":92,""21-60"":50,""61-240"":96,"">240"":89}",39008.0,41.170035999999996,-73.21521700000001,453310.0,CT,9.0,9001.0,Fairfield County,90010710001.0
26250,sg:d4a6c246bc7f43b0a19e61b00c2c2152,Soundbridge,CT,2019-11-01T00:00:00-04:00,2019-12-01T00:00:00-05:00,6109,122,152.5,"{""<5"":1,""5-20"":14,""21-60"":16,""61-240"":62,"">240"":29}",17116.5,41.702564,-72.699519,611110.0,CT,9.0,9003.0,Hartford County,90034924002.0
26255,sg:d51f82288f9c4a2e8efa35eebb58d21f,Spa Keepers,CT,2019-11-01T00:00:00-04:00,2019-12-01T00:00:00-05:00,6457,97,35.0,"{""<5"":2,""5-20"":33,""21-60"":28,""61-240"":22,"">240"":12}",7742.5,41.596509000000005,-72.72189,423910.0,CT,9.0,9007.0,Middlesex County,90075414011.0
26312,sg:dc464b107b3e4c0899d0e14c46b2917b,Milldale Auto & Truck Wash,CT,2019-11-01T00:00:00-04:00,2019-12-01T00:00:00-05:00,6489,4,10.5,"{""<5"":0,""5-20"":3,""21-60"":1,""61-240"":0,"">240"":0}",78.0,41.56496,-72.890065,811192.0,CT,9.0,9003.0,Hartford County,90034304002.0
26402,sg:e513c42d60b949a09d01b6fa7ba13627,Our Lady of the Assumption Church,CT,2019-11-01T00:00:00-04:00,2019-12-01T00:00:00-05:00,6525,360,41.0,"{""<5"":6,""5-20"":69,""21-60"":184,""61-240"":95,"">240"":6}",24067.0,41.353799,-73.00414599999999,813110.0,CT,9.0,9009.0,New Haven County,90091602002.0
26550,sg:f229cef10795479f90f855019aa3f6a8,Shell Oil,CT,2019-11-01T00:00:00-04:00,2019-12-01T00:00:00-05:00,6098,35,6.0,"{""<5"":2,""5-20"":30,""21-60"":2,""61-240"":1,"">240"":0}",611.5,41.946527,-73.05046,447110.0,CT,9.0,9005.0,Litchfield County,90053201001.0
26578,sg:f495ab577d60424380139b9e0f033837,Gold's Delicatessen,CT,2019-11-01T00:00:00-04:00,2019-12-01T00:00:00-05:00,6880,248,38.5,"{""<5"":8,""5-20"":58,""21-60"":111,""61-240"":65,"">240"":6}",16463.0,41.140394,-73.350838,722511.0,CT,9.0,9001.0,Fairfield County,90010502001.0
26596,sg:f6c028ab001b40739211469959c4aa59,Empanadas,CT,2019-11-01T00:00:00-04:00,2019-12-01T00:00:00-05:00,6401,121,81.0,"{""<5"":3,""5-20"":30,""21-60"":17,""61-240"":47,"">240"":24}",13904.5,41.342237,-73.078863,722511.0,CT,9.0,9009.0,New Haven County,90091252002.0
26607,sg:f7b5184f67aa496ab4d94c5dceb4e07a,Family Dollar Stores,CT,2019-11-01T00:00:00-04:00,2019-12-01T00:00:00-05:00,6120,613,20.0,"{""<5"":12,""5-20"":304,""21-60"":148,""61-240"":114,"">240"":35}",35381.0,41.781117,-72.67549100000001,452319.0,CT,9.0,9003.0,Hartford County,90035009001.0
26635,sg:fa0de557c05044a0980d180c8b7dc53b,75 Center,CT,2019-11-01T00:00:00-04:00,2019-12-01T00:00:00-05:00,6489,395,74.0,"{""<5"":2,""5-20"":57,""21-60"":114,""61-240"":192,"">240"":30}",41430.5,41.601963,-72.879876,722511.0,CT,9.0,9003.0,Hartford County,90034306021.0
26711,sg:014dbeb149484af58194d727802268d3,RaMa LuNa Center for Yoga & Well being,CT,2019-11-01T00:00:00-04:00,2019-12-01T00:00:00-05:00,6457,132,72.5,"{""<5"":2,""5-20"":32,""21-60"":27,""61-240"":39,"">240"":32}",15048.0,41.54996,-72.641129,713940.0,CT,9.0,9007.0,Middlesex County,90075417002.0
26759,sg:058951578df84765999ab7fb59dd592d,Allingtown Fire District Minor Park Station,CT,2019-11-01T00:00:00-04:00,2019-12-01T00:00:00-05:00,6516,137,85.0,"{""<5"":2,""5-20"":37,""21-60"":22,""61-240"":38,"">240"":38}",16197.5,41.296717,-72.975532,922160.0,CT,9.0,9009.0,New Haven County,90091541006.0
26891,sg:1076a62c36a84a5ba30244b2375f0a8a,May Bonee & Walsh,CT,2019-11-01T00:00:00-04:00,2019-12-01T00:00:00-05:00,6033,94,197.5,"{""<5"":0,""5-20"":5,""21-60"":7,""61-240"":42,"">240"":40}",16267.0,41.720586,-72.622647,524210.0,CT,9.0,9003.0,Hartford County,90035203022.0
26949,sg:146862ce01474bb9a5950cb8c0972f42,Living Right Health Bar,CT,2019-11-01T00:00:00-04:00,2019-12-01T00:00:00-05:00,6770,37,12.0,"{""<5"":2,""5-20"":24,""21-60"":7,""61-240"":4,"">240"":0}",1190.5,41.501292,-73.047042,446191.0,CT,9.0,9009.0,New Haven County,90093451001.0
26974,sg:172fc16f1a344863a2a9cdcc57ff3a23,Seymour Park,CT,2019-11-01T00:00:00-04:00,2019-12-01T00:00:00-05:00,6010,22,7.5,"{""<5"":2,""5-20"":13,""21-60"":7,""61-240"":0,"">240"":0}",451.0,41.715855,-72.936376,712190.0,CT,9.0,9003.0,Hartford County,90034059001.0
27064,sg:1e8f03aaf701499595cb4561a8487e44,Greater Hartford Physical Therapy PC,CT,2019-11-01T00:00:00-04:00,2019-12-01T00:00:00-05:00,6489,4,542.5,"{""<5"":0,""5-20"":0,""21-60"":0,""61-240"":0,"">240"":4}",960.0,41.619136,-72.89869200000001,621340.0,CT,9.0,9003.0,Hartford County,90034306012.0
27169,sg:27b9d12f6df7494480a72fca236fc558,Advance Auto Parts,CT,2019-11-01T00:00:00-04:00,2019-12-01T00:00:00-05:00,6413,78,31.0,"{""<5"":5,""5-20"":28,""21-60"":16,""61-240"":20,"">240"":9}",6180.5,41.270214,-72.50074000000001,441310.0,CT,9.0,9007.0,Middlesex County,90076102002.0
27294,sg:34170934999c4cfc8fe89ff0f870c5cd,Suzio L Concrete,CT,2019-11-01T00:00:00-04:00,2019-12-01T00:00:00-05:00,6450,164,36.5,"{""<5"":0,""5-20"":52,""21-60"":56,""61-240"":39,"">240"":17}",12867.5,41.556467,-72.753496,444130.0,CT,9.0,9009.0,New Haven County,90091717003.0
27295,sg:3452695c1bfd47a580153e41e0aa766d,Sullivan's Discount Liquors,CT,2019-11-01T00:00:00-04:00,2019-12-01T00:00:00-05:00,6708,66,11.5,"{""<5"":4,""5-20"":47,""21-60"":13,""61-240"":1,"">240"":1}",1514.5,41.549362,-73.04398499999999,445310.0,CT,9.0,9009.0,New Haven County,90093519002.0
27510,sg:488d6a7bb5874557bd429fe83d8a9492,The Fan Sports Bar & Restaurant,CT,2019-11-01T00:00:00-04:00,2019-12-01T00:00:00-05:00,6525,343,53.0,"{""<5"":3,""5-20"":73,""21-60"":109,""61-240"":143,"">240"":15}",30456.0,41.339462,-72.982361,722511.0,CT,9.0,9009.0,New Haven County,90091602001.0
27565,sg:4e6cd5f9e67844b9b775ed8d69062f38,Sunrise Senior Living,CT,2019-11-01T00:00:00-04:00,2019-12-01T00:00:00-05:00,6897,25,21.0,"{""<5"":0,""5-20"":12,""21-60"":5,""61-240"":5,"">240"":3}",1825.0,41.186309,-73.42327,623312.0,CT,9.0,9001.0,Fairfield County,90010452002.0
27673,sg:582ba14ccf544564b32c1015e61d5acc,Cumberland Farms,CT,2019-11-01T00:00:00-04:00,2019-12-01T00:00:00-05:00,6471,345,6.0,"{""<5"":43,""5-20"":241,""21-60"":24,""61-240"":22,"">240"":15}",11003.0,41.335737,-72.756606,447110.0,CT,9.0,9009.0,New Haven County,90091861001.0
27712,sg:5c0393af6a7a4f5db9d23968ccbcb981,Yan's Acupuncture Clinic,CT,2019-11-01T00:00:00-04:00,2019-12-01T00:00:00-05:00,6473,16,102.5,"{""<5"":0,""5-20"":2,""21-60"":3,""61-240"":8,"">240"":3}",2070.5,41.412205,-72.8769,621111.0,CT,9.0,9009.0,New Haven County,90091671001.0
28011,sg:79869f76b9c94675b90026e92debd387,A Family Chiropractic Center,CT,2019-11-01T00:00:00-04:00,2019-12-01T00:00:00-05:00,6443,10,20.0,"{""<5"":0,""5-20"":7,""21-60"":3,""61-240"":0,"">240"":0}",209.0,41.2854,-72.63799300000001,621310.0,CT,9.0,9009.0,New Haven County,90091942014.0
28183,sg:8b704468140149b2a59477443519a716,AutoZone,CT,2019-11-01T00:00:00-04:00,2019-12-01T00:00:00-05:00,6114,372,29.5,"{""<5"":10,""5-20"":160,""21-60"":50,""61-240"":62,"">240"":90}",34981.0,41.741035,-72.672586,441310.0,CT,9.0,9003.0,Hartford County,90035024002.0
28225,sg:8f3c329742f341a6a196ecc24e95ffe3,Hope Academy,CT,2019-11-01T00:00:00-04:00,2019-12-01T00:00:00-05:00,6477,144,87.5,"{""<5"":2,""5-20"":41,""21-60"":24,""61-240"":45,"">240"":32}",15942.0,41.251160999999996,-72.999178,624410.0,CT,9.0,9009.0,New Haven County,90091571001.0
28253,sg:91e684f927cc4453a6813cb3cad1c970,La Tavola Ristorante,CT,2019-11-01T00:00:00-04:00,2019-12-01T00:00:00-05:00,6708,198,81.0,"{""<5"":3,""5-20"":25,""21-60"":50,""61-240"":106,"">240"":14}",21658.0,41.53882,-73.053248,722511.0,CT,9.0,9009.0,New Haven County,90093516022.0
28469,sg:a555db46c3ca42519169866790451f8e,Shell Oil,CT,2019-11-01T00:00:00-04:00,2019-12-01T00:00:00-05:00,6611,664,9.0,"{""<5"":57,""5-20"":382,""21-60"":89,""61-240"":82,"">240"":54}",33823.0,41.294498,-73.23116,447110.0,CT,9.0,9001.0,Fairfield County,90010901002.0
28525,sg:aac518f6bfe84f3fb426713892dc94e4,Eugene Markowski DMD,CT,2019-11-01T00:00:00-04:00,2019-12-01T00:00:00-05:00,6078,11,46.0,"{""<5"":0,""5-20"":2,""21-60"":6,""61-240"":0,"">240"":3}",988.0,41.984138,-72.656824,621210.0,CT,9.0,9003.0,Hartford County,90034771011.0
28582,sg:b02a9628deb5495ba134c32eca0e33ac,Tactical Solutions,CT,2019-11-01T00:00:00-04:00,2019-12-01T00:00:00-05:00,6437,2,10.5,"{""<5"":1,""5-20"":1,""21-60"":0,""61-240"":0,"">240"":0}",15.0,41.307941,-72.723673,451110.0,CT,9.0,9009.0,New Haven County,90091903021.0
28657,sg:b804127222c4438db6069e68cf736b2c,Meriden City of Board of Education,CT,2019-11-01T00:00:00-04:00,2019-12-01T00:00:00-05:00,6451,22,117.5,"{""<5"":1,""5-20"":8,""21-60"":1,""61-240"":7,"">240"":5}",2396.5,41.542297999999995,-72.799667,624410.0,CT,9.0,9009.0,New Haven County,90091702001.0
28745,sg:c0e8c8fc740e44799999183168b9c1ca,All Star Kids,CT,2019-11-01T00:00:00-04:00,2019-12-01T00:00:00-05:00,6033,4,35.0,"{""<5"":0,""5-20"":1,""21-60"":2,""61-240"":1,"">240"":0}",244.0,41.679527,-72.58933,451140.0,CT,9.0,9003.0,Hartford County,90035204002.0
28776,sg:c48f32f9894440cea1a0b5e066a619a1,Milford Farmers Market,CT,2019-11-01T00:00:00-04:00,2019-12-01T00:00:00-05:00,6460,133,17.0,"{""<5"":3,""5-20"":79,""21-60"":21,""61-240"":19,"">240"":11}",7345.0,41.223783000000005,-73.057967,445230.0,CT,9.0,9009.0,New Haven County,90091501001.0
28792,sg:c5c728e15944407f89556e91fc4c701b,Academy Of St Therese,CT,2019-11-01T00:00:00-04:00,2019-12-01T00:00:00-05:00,6335,3,64.0,"{""<5"":0,""5-20"":0,""21-60"":1,""61-240"":2,"">240"":0}",341.5,41.428546000000004,-72.08577,611110.0,CT,9.0,9011.0,New London County,90117012005.0
28808,sg:c6e18ef6daa04abf95c00bb51811177a,Yanagisawa Eiji PC,CT,2019-11-01T00:00:00-04:00,2019-12-01T00:00:00-05:00,6460,165,50.0,"{""<5"":4,""5-20"":21,""21-60"":67,""61-240"":57,"">240"":16}",15404.5,41.218865,-73.063833,621111.0,CT,9.0,9009.0,New Haven County,90091501002.0
