,safegraph_place_id,location_name,region,date_range_start,date_range_end,postal_code,raw_visit_counts,median_dwell,bucketed_dwell_times,est_total_dwell,latitude,longitude,naics_code,state,stateFIPS,countyFIPS,countyName,CBGFIPS
372,sg:2242c7693a20473a9298fc4c06b59375,Lincoln Shoe Repair,RI,2019-11-01T00:00:00-04:00,2019-12-01T00:00:00-05:00,2910,10,12.5,"{""<5"":0,""5-20"":6,""21-60"":3,""61-240"":1,"">240"":0}",347.0,41.784402,-71.436363,811430.0,RI,44.0,44007.0,Providence County,440070140001.0
694,sg:4085c0e2b54649eb9f5db8d58356cab8,Winning Edge Selling,RI,2019-11-01T00:00:00-04:00,2019-12-01T00:00:00-05:00,2916,2,272.0,"{""<5"":0,""5-20"":0,""21-60"":0,""61-240"":1,"">240"":1}",390.5,41.84088,-71.349195,611310.0,RI,44.0,44007.0,Providence County,440070101023.0
1420,sg:863a58fe3f6e419aa41850cb8bb3a281,Leo's Pizza,RI,2019-11-01T00:00:00-04:00,2019-12-01T00:00:00-05:00,2882,21,10.0,"{""<5"":2,""5-20"":14,""21-60"":0,""61-240"":2,"">240"":3}",1201.0,41.475738,-71.434559,722511.0,RI,44.0,44009.0,Washington County,440090515022.0
1745,sg:a65b4ed42e8c43f49d3e905187ea816b,Ponaug Marina,RI,2019-11-01T00:00:00-04:00,2019-12-01T00:00:00-05:00,2886,13,39.0,"{""<5"":2,""5-20"":3,""21-60"":4,""61-240"":3,"">240"":1}",896.0,41.69619,-71.453117,441222.0,RI,44.0,44003.0,Kent County,440030220003.0
2029,sg:c17402d77a68452db4d3d26119ce87e8,East Providence Public Library,RI,2019-11-01T00:00:00-04:00,2019-12-01T00:00:00-05:00,2914,197,41.0,"{""<5"":2,""5-20"":61,""21-60"":59,""61-240"":64,"">240"":11}",15429.0,41.818518,-71.375353,519120.0,RI,44.0,44007.0,Providence County,440070102005.0
2315,sg:dcb17f7bebe84e06a309b72e7cb9765f,Brylyn Construction,RI,2019-11-01T00:00:00-04:00,2019-12-01T00:00:00-05:00,2893,24,106.0,"{""<5"":1,""5-20"":5,""21-60"":3,""61-240"":10,"">240"":5}",2891.5,41.67334,-71.530899,444130.0,RI,44.0,44003.0,Kent County,440030201013.0
2477,sg:edfb6a43edba426f84519f2388f9dae0,Nettts,RI,2019-11-01T00:00:00-04:00,2019-12-01T00:00:00-05:00,2860,148,70.0,"{""<5"":1,""5-20"":30,""21-60"":41,""61-240"":49,"">240"":27}",15892.5,41.880308,-71.405906,611692.0,RI,44.0,44007.0,Providence County,440070151001.0
2489,sg:ef8e50e68aeb47fa87a7e8e61b685ca8,Sam's Tobacco & Convinience,RI,2019-11-01T00:00:00-04:00,2019-12-01T00:00:00-05:00,2908,254,42.5,"{""<5"":12,""5-20"":83,""21-60"":39,""61-240"":52,"">240"":68}",26793.0,41.850021999999996,-71.433768,453991.0,RI,44.0,44007.0,Providence County,440070028004.0
2495,sg:f055413b5ff94048aa05e1a35bfcea7b,Palmer Avenue Field,RI,2019-11-01T00:00:00-04:00,2019-12-01T00:00:00-05:00,2889,116,98.0,"{""<5"":2,""5-20"":27,""21-60"":19,""61-240"":30,"">240"":38}",14747.0,41.696253999999996,-71.371433,713940.0,RI,44.0,44003.0,Kent County,440030215022.0
3572,sg:578148679a764ffa87c1eef17ab480ae,Ferry Edward T Orthdont,RI,2019-11-01T00:00:00-04:00,2019-12-01T00:00:00-05:00,2910,55,27.0,"{""<5"":0,""5-20"":20,""21-60"":19,""61-240"":15,"">240"":1}",3517.0,41.770344,-71.43811,621210.0,RI,44.0,44007.0,Providence County,440070138004.0
4027,sg:86c8faa19a5f47f09631612dadde0717,Jamie Italiane DeCubellis DDS,RI,2019-11-01T00:00:00-04:00,2019-12-01T00:00:00-05:00,2816,70,164.5,"{""<5"":0,""5-20"":4,""21-60"":22,""61-240"":15,"">240"":29}",10158.5,41.680506,-71.57486,621210.0,RI,44.0,44003.0,Kent County,440030206022.0
4730,sg:cd628d7a633c461fbf84b0ec605ea9c5,Cumberland Farms,RI,2019-11-01T00:00:00-04:00,2019-12-01T00:00:00-05:00,2886,611,7.0,"{""<5"":33,""5-20"":522,""21-60"":22,""61-240"":11,"">240"":23}",14674.0,41.698218,-71.460083,447110.0,RI,44.0,44003.0,Kent County,440030220002.0
5482,sg:1224b74f4e094406b222271a7d714375,Yama Fuji,RI,2019-11-01T00:00:00-04:00,2019-12-01T00:00:00-05:00,2896,158,11.0,"{""<5"":7,""5-20"":97,""21-60"":16,""61-240"":30,"">240"":8}",8313.0,42.005354,-71.58488,722511.0,RI,44.0,44007.0,Providence County,440070128011.0
5530,sg:15f56c4585e6460ea01d2f1472656371,Vision Associates,RI,2019-11-01T00:00:00-04:00,2019-12-01T00:00:00-05:00,2920,151,21.0,"{""<5"":5,""5-20"":66,""21-60"":56,""61-240"":23,"">240"":1}",6807.0,41.767208000000004,-71.45796999999999,446130.0,RI,44.0,44007.0,Providence County,440070143001.0
5637,sg:1e92416e32464c78b3c9ac2914a617b2,University Otolaryngology,RI,2019-11-01T00:00:00-04:00,2019-12-01T00:00:00-05:00,2905,12,27.5,"{""<5"":0,""5-20"":4,""21-60"":5,""61-240"":0,"">240"":3}",972.5,41.805197,-71.40664,621111.0,RI,44.0,44007.0,Providence County,440070006001.0
7153,sg:b2ae3632620e47178a611b8e67d5126c,Displays by Garo,RI,2019-11-01T00:00:00-04:00,2019-12-01T00:00:00-05:00,2865,44,173.5,"{""<5"":0,""5-20"":9,""21-60"":4,""61-240"":12,"">240"":19}",6640.5,41.923737,-71.479628,451211.0,RI,44.0,44007.0,Providence County,440070116004.0
7376,sg:c80f1fda50ae46c4ba3a29fd53246032,Nathan's Famous,RI,2019-11-01T00:00:00-04:00,2019-12-01T00:00:00-05:00,2898,309,14.0,"{""<5"":14,""5-20"":193,""21-60"":91,""61-240"":10,"">240"":1}",7878.0,41.512242,-71.686228,722513.0,RI,44.0,44009.0,Washington County,440090506001.0
7392,sg:c96a83db54a94da88fdcb8f99d9768e9,Portsmouth High School,RI,2019-11-01T00:00:00-04:00,2019-12-01T00:00:00-05:00,2871,2260,145.0,"{""<5"":18,""5-20"":374,""21-60"":302,""61-240"":695,"">240"":871}",330588.5,41.612258000000004,-71.249401,611110.0,RI,44.0,44005.0,Newport County,440050401023.0
7429,sg:cd8a76e67dc54056ab537a28dce1b5a4,Medical Cannabis Consultants,RI,2019-11-01T00:00:00-04:00,2019-12-01T00:00:00-05:00,2852,27,36.0,"{""<5"":1,""5-20"":5,""21-60"":14,""61-240"":5,"">240"":2}",1864.5,41.572496,-71.48455600000001,621111.0,RI,44.0,44009.0,Washington County,440090503013.0
8278,sg:1fab29a0afb441dc82f64e8924579a4f,Chennai Tiffins,RI,2019-11-01T00:00:00-04:00,2019-12-01T00:00:00-05:00,2838,16,1060.5,"{""<5"":0,""5-20"":0,""21-60"":0,""61-240"":1,"">240"":15}",3750.5,41.966547,-71.47339699999999,722511.0,,,,,
8382,sg:28700f5a7fa243cca8f48702df995a96,Dels Lemonade of Warwick,RI,2019-11-01T00:00:00-04:00,2019-12-01T00:00:00-05:00,2889,66,41.0,"{""<5"":2,""5-20"":21,""21-60"":16,""61-240"":11,"">240"":16}",6411.0,41.720665000000004,-71.40339,445110.0,RI,44.0,44003.0,Kent County,440030214023.0
8552,sg:35ecfae01383459fb439ad3aab0fb7b4,Jenkins Melissa Psychologist,RI,2019-11-01T00:00:00-04:00,2019-12-01T00:00:00-05:00,2906,12,43.0,"{""<5"":0,""5-20"":5,""21-60"":1,""61-240"":5,"">240"":1}",1095.5,41.846282,-71.385626,621330.0,RI,44.0,44007.0,Providence County,440070034002.0
8825,sg:4e600d8fbf4c4512a4f9d2a502a19118,Benvenuto Restaurant,RI,2019-11-01T00:00:00-04:00,2019-12-01T00:00:00-05:00,2920,310,94.0,"{""<5"":0,""5-20"":43,""21-60"":70,""61-240"":147,"">240"":50}",37496.0,41.780727,-71.466075,722511.0,RI,44.0,44007.0,Providence County,440070145023.0
8976,sg:5beb4e05387e4aa48439e674d8c23cbf,News Star,RI,2019-11-01T00:00:00-04:00,2019-12-01T00:00:00-05:00,2859,61,10.0,"{""<5"":0,""5-20"":41,""21-60"":6,""61-240"":7,"">240"":7}",3489.0,41.9588,-71.701714,722511.0,RI,44.0,44007.0,Providence County,440070129004.0
9022,sg:5f9a1cc2ee69488a98859e7d0e78f186,Supercuts,RI,2019-11-01T00:00:00-04:00,2019-12-01T00:00:00-05:00,2889,6,36.5,"{""<5"":1,""5-20"":2,""21-60"":1,""61-240"":1,"">240"":1}",458.5,41.708104,-71.398938,812112.0,RI,44.0,44003.0,Kent County,440030218002.0
9227,sg:73fd5205b84a4eed9d45e2d4f3008403,Pizzeria Romana,RI,2019-11-01T00:00:00-04:00,2019-12-01T00:00:00-05:00,2865,395,31.0,"{""<5"":4,""5-20"":122,""21-60"":161,""61-240"":71,"">240"":37}",27621.0,41.933966,-71.47474,722511.0,RI,44.0,44007.0,Providence County,440070116004.0
9832,sg:aeeac08596814dcbacd92e6b163ffd59,Mario's Pizza,RI,2019-11-01T00:00:00-04:00,2019-12-01T00:00:00-05:00,2891,103,65.0,"{""<5"":2,""5-20"":35,""21-60"":13,""61-240"":13,"">240"":40}",12525.5,41.383187,-71.826262,722511.0,RI,44.0,44009.0,Washington County,440090508015.0
10375,sg:e5b5b7a809e9400982ed65a96f399aa5,Ocean State Job Lot,RI,2019-11-01T00:00:00-04:00,2019-12-01T00:00:00-05:00,2865,379,18.0,"{""<5"":18,""5-20"":198,""21-60"":145,""61-240"":17,"">240"":1}",11191.0,41.937628000000004,-71.477407,452319.0,RI,44.0,44007.0,Providence County,440070116004.0
10482,sg:eff54b8738af40dca40a6d7e4e5c1ca9,The Furniture Depots,RI,2019-11-01T00:00:00-04:00,2019-12-01T00:00:00-05:00,2909,99,14.0,"{""<5"":5,""5-20"":53,""21-60"":10,""61-240"":11,"">240"":20}",7535.5,41.817923,-71.446314,442110.0,RI,44.0,44007.0,Providence County,440070019003.0
10501,sg:f1d7dda04d5b4bbf9cc7e40666ae4449,L Skincare & Nails,RI,2019-11-01T00:00:00-04:00,2019-12-01T00:00:00-05:00,2910,98,123.0,"{""<5"":0,""5-20"":7,""21-60"":34,""61-240"":16,"">240"":41}",13712.5,41.774405,-71.449706,446120.0,RI,44.0,44007.0,Providence County,440070137022.0
10801,sg:119230fa7cbd4d79b5d01a8137eb94a5,Woodridge Medical Assoc,RI,2019-11-01T00:00:00-04:00,2019-12-01T00:00:00-05:00,2920,88,102.0,"{""<5"":0,""5-20"":15,""21-60"":19,""61-240"":28,"">240"":26}",11411.0,41.77363,-71.4578,621111.0,RI,44.0,44007.0,Providence County,440070143003.0
11046,sg:24f4665e1eae42da8f663ab92625576c,Cumberland Farms,RI,2019-11-01T00:00:00-04:00,2019-12-01T00:00:00-05:00,2895,879,7.0,"{""<5"":55,""5-20"":694,""21-60"":56,""61-240"":25,"">240"":49}",26603.0,41.990808,-71.48157900000001,447110.0,RI,44.0,44007.0,Providence County,440070185002.0
11133,sg:2d3949397d5244389f4c956e8a4a96d8,Francesca's,RI,2019-11-01T00:00:00-04:00,2019-12-01T00:00:00-05:00,2920,77,78.0,"{""<5"":2,""5-20"":20,""21-60"":13,""61-240"":13,"">240"":29}",9698.0,41.763715000000005,-71.458822,448120.0,RI,44.0,44007.0,Providence County,440070139003.0
11485,sg:4d1d1f6891fb4d0a9439b709ada62868,Mama Deluca's,RI,2019-11-01T00:00:00-04:00,2019-12-01T00:00:00-05:00,2881,164,20.0,"{""<5"":4,""5-20"":79,""21-60"":58,""61-240"":20,"">240"":3}",7076.5,41.486000000000004,-71.524056,722511.0,RI,44.0,44009.0,Washington County,440090514001.0
12091,sg:8a8618ef46e244e790c82b306fb751e1,Wings Over,RI,2019-11-01T00:00:00-04:00,2019-12-01T00:00:00-05:00,2906,8,30.5,"{""<5"":0,""5-20"":4,""21-60"":1,""61-240"":0,"">240"":3}",810.5,41.846546999999994,-71.395923,722511.0,RI,44.0,44007.0,Providence County,440070032003.0
12913,sg:dbe9c46067cd489081c6f4fa90c6da18,Warren Auto Body,RI,2019-11-01T00:00:00-04:00,2019-12-01T00:00:00-05:00,2885,11,219.0,"{""<5"":1,""5-20"":0,""21-60"":0,""61-240"":5,"">240"":5}",1955.0,41.730563000000004,-71.27622099999999,811121.0,RI,44.0,44001.0,Bristol County,440010305001.0
12931,sg:de29b5febb1b4d62a97933532f584311,Chelo's Hometown Bar & Grille,RI,2019-11-01T00:00:00-04:00,2019-12-01T00:00:00-05:00,2914,255,45.0,"{""<5"":1,""5-20"":50,""21-60"":114,""61-240"":80,"">240"":10}",19684.5,41.80769,-71.34706700000001,722511.0,RI,44.0,44007.0,Providence County,440070105011.0
13571,sg:1be1d1a144d04702b76ff6a244019d43,The Stork's Nest Child Academy Smithfield,RI,2019-11-01T00:00:00-04:00,2019-12-01T00:00:00-05:00,2917,158,25.0,"{""<5"":4,""5-20"":65,""21-60"":57,""61-240"":27,"">240"":5}",8394.5,41.928967,-71.499815,611110.0,RI,44.0,44007.0,Providence County,440070126025.0
15669,sg:eff269f1b9984adcb7dddac353ae50dc,Dunkin',RI,2019-11-01T00:00:00-04:00,2019-12-01T00:00:00-05:00,2809,249,12.0,"{""<5"":8,""5-20"":144,""21-60"":48,""61-240"":39,"">240"":10}",12033.5,41.691994,-71.27852,722515.0,RI,44.0,44001.0,Bristol County,440010309024.0
16327,sg:2fb248fbc7e24bbdb8781d5c57951954,The Attwater,RI,2019-11-01T00:00:00-04:00,2019-12-01T00:00:00-05:00,2840,716,35.0,"{""<5"":18,""5-20"":243,""21-60"":198,""61-240"":160,"">240"":97}",58461.5,41.485225,-71.307323,721110.0,RI,44.0,44005.0,Newport County,440050408001.0
16336,sg:309ec647a16e4deeb772aba4da1e031a,Optimal Wellness Therapeutic Massage,RI,2019-11-01T00:00:00-04:00,2019-12-01T00:00:00-05:00,2879,3,22.0,"{""<5"":0,""5-20"":0,""21-60"":3,""61-240"":0,"">240"":0}",121.5,41.431158,-71.491114,812199.0,RI,44.0,44009.0,Washington County,440090512021.0
16511,sg:3ef2a925570443d78679c3f4817d6bcc,Two Papas Biscotti by DeLuise,RI,2019-11-01T00:00:00-04:00,2019-12-01T00:00:00-05:00,2908,64,10.5,"{""<5"":5,""5-20"":33,""21-60"":7,""61-240"":10,"">240"":9}",4373.5,41.832827,-71.450069,445110.0,RI,44.0,44007.0,Providence County,440070021011.0
16639,sg:4b074bbd54c2446da360d6e7786e6e45,STATELINE NISSAN,RI,2019-11-01T00:00:00-04:00,2019-12-01T00:00:00-05:00,2914,218,81.5,"{""<5"":2,""5-20"":61,""21-60"":38,""61-240"":57,"">240"":60}",25285.0,41.822429,-71.348489,441110.0,RI,44.0,44007.0,Providence County,440070103002.0
17113,sg:76e71a63afd14d49977701bd96b76146,Stop & Shop Plaza,RI,2019-11-01T00:00:00-04:00,2019-12-01T00:00:00-05:00,2864,2653,16.0,"{""<5"":63,""5-20"":1483,""21-60"":811,""61-240"":172,"">240"":124}",107186.5,41.912859000000005,-71.404912,531120.0,RI,44.0,44007.0,Providence County,440070113012.0
17127,sg:786930bcd9ec45f7af1955760bae3a95,Auto Repair and Service,RI,2019-11-01T00:00:00-04:00,2019-12-01T00:00:00-05:00,2920,62,25.5,"{""<5"":0,""5-20"":25,""21-60"":16,""61-240"":13,"">240"":8}",4837.0,41.794959999999996,-71.475443,811111.0,RI,44.0,44007.0,Providence County,440070147006.0
17511,sg:9dabe7da8c39443aaa007ffc78099cf2,I Love Mexico Bar & Grille,RI,2019-11-01T00:00:00-04:00,2019-12-01T00:00:00-05:00,2908,214,180.0,"{""<5"":4,""5-20"":27,""21-60"":26,""61-240"":56,"">240"":101}",34068.5,41.833596,-71.42115,722511.0,RI,44.0,44007.0,Providence County,440070026001.0
17547,sg:a1b058c139474155b4dc359c778e0ec4,The Walker School of Allied Health,RI,2019-11-01T00:00:00-04:00,2019-12-01T00:00:00-05:00,2809,14,104.0,"{""<5"":0,""5-20"":3,""21-60"":0,""61-240"":11,"">240"":0}",1693.0,41.68707,-71.261522,621610.0,RI,44.0,44001.0,Bristol County,440010309012.0
17651,sg:ac4e3afbe2174b4f95c1c79c35d132de,Yoo Sushi,RI,2019-11-01T00:00:00-04:00,2019-12-01T00:00:00-05:00,2908,433,20.0,"{""<5"":27,""5-20"":192,""21-60"":71,""61-240"":74,"">240"":69}",33040.0,41.841534,-71.427634,722511.0,RI,44.0,44007.0,Providence County,440070027004.0
18082,sg:d595e011084c4c2c9c50dd5b6a2b20f9,Northern Rhode Island Animal Hospitals Inc,RI,2019-11-01T00:00:00-04:00,2019-12-01T00:00:00-05:00,2824,6,16.5,"{""<5"":0,""5-20"":4,""21-60"":1,""61-240"":0,"">240"":1}",330.5,41.997696999999995,-71.561998,541940.0,RI,44.0,44007.0,Providence County,440070128013.0
18202,sg:e13f150f2aeb426ea1311f411e51156b,Dunn Park,RI,2019-11-01T00:00:00-04:00,2019-12-01T00:00:00-05:00,2895,492,44.5,"{""<5"":6,""5-20"":166,""21-60"":100,""61-240"":136,"">240"":84}",46768.0,41.997298,-71.53055,712190.0,RI,44.0,44007.0,Providence County,440070174003.0
18532,sg:00f6ee2c2d8f41c2b9df0ec7a4d67ca2,Sushi Cafe,RI,2019-11-01T00:00:00-04:00,2019-12-01T00:00:00-05:00,2903,156,65.0,"{""<5"":5,""5-20"":49,""21-60"":22,""61-240"":42,"">240"":38}",16957.0,41.828205,-71.424231,722511.0,RI,44.0,44007.0,Providence County,440070025002.0
19634,sg:68df46a033de4f9ca1b0feb062a15a9d,Chez Pascal,RI,2019-11-01T00:00:00-04:00,2019-12-01T00:00:00-05:00,2906,69,72.0,"{""<5"":2,""5-20"":19,""21-60"":11,""61-240"":23,"">240"":14}",7509.5,41.853458,-71.39309300000001,722511.0,RI,44.0,44007.0,Providence County,440070033001.0
20183,sg:9c4aa7989b5c41c3a49680fe8160a30f,Four Corners Food Mart,RI,2019-11-01T00:00:00-04:00,2019-12-01T00:00:00-05:00,2914,133,19.0,"{""<5"":7,""5-20"":63,""21-60"":39,""61-240"":10,"">240"":14}",7249.5,41.813398,-71.370301,445120.0,RI,44.0,44007.0,Providence County,440070104001.0
20432,sg:b4a17843b7c84fcb961530fda86f4fa7,Architect's Inn George Champlin Mason House,RI,2019-11-01T00:00:00-04:00,2019-12-01T00:00:00-05:00,2840,55,187.0,"{""<5"":2,""5-20"":7,""21-60"":5,""61-240"":17,"">240"":24}",8613.5,41.4868,-71.30519699999999,721110.0,RI,44.0,44005.0,Newport County,440050408001.0
20861,sg:e0669cd49fc14f5f90c4122605294840,Starbucks,RI,2019-11-01T00:00:00-04:00,2019-12-01T00:00:00-05:00,2852,678,10.0,"{""<5"":32,""5-20"":405,""21-60"":78,""61-240"":144,"">240"":19}",34533.5,41.581022,-71.502098,722515.0,RI,44.0,44009.0,Washington County,440090503011.0
21346,sg:0bfca4412a704c0baf7dd91a56384752,Providence Church of God,RI,2019-11-01T00:00:00-04:00,2019-12-01T00:00:00-05:00,2907,137,71.0,"{""<5"":2,""5-20"":34,""21-60"":27,""61-240"":59,"">240"":15}",14003.0,41.803956,-71.43245999999999,813110.0,RI,44.0,44007.0,Providence County,440070014004.0
21406,sg:11c21cdf011a4a9b9fad581d88f74b03,Rock's Liquor,RI,2019-11-01T00:00:00-04:00,2019-12-01T00:00:00-05:00,2908,70,40.0,"{""<5"":6,""5-20"":25,""21-60"":7,""61-240"":17,"">240"":15}",6769.5,41.847512,-71.435187,445310.0,RI,44.0,44007.0,Providence County,440070024001.0
21552,sg:1ffcfb51caf64ddebd86d8e4ec6ddcdf,Valvoline,RI,2019-11-01T00:00:00-04:00,2019-12-01T00:00:00-05:00,2910,74,65.0,"{""<5"":1,""5-20"":22,""21-60"":13,""61-240"":15,"">240"":23}",8581.5,41.784321999999996,-71.436397,811198.0,RI,44.0,44007.0,Providence County,440070140001.0
21647,sg:28502e094f3346f49e2598438f32fc67,Royal Credit Club,RI,2019-11-01T00:00:00-04:00,2019-12-01T00:00:00-05:00,2905,11,113.0,"{""<5"":0,""5-20"":4,""21-60"":1,""61-240"":1,"">240"":5}",1441.0,41.797084999999996,-71.41299000000001,522110.0,RI,44.0,44007.0,Providence County,440070005003.0
22051,sg:4c429055a43e4c2397c464dab866e168,CVS,RI,2019-11-01T00:00:00-04:00,2019-12-01T00:00:00-05:00,2879,916,11.0,"{""<5"":49,""5-20"":621,""21-60"":176,""61-240"":48,"">240"":22}",27517.0,41.441762,-71.489521,446110.0,RI,44.0,44009.0,Washington County,440090512022.0
22159,sg:55b6f2a5363c496593e984b102b79918,Genie's Hookah Lounge,RI,2019-11-01T00:00:00-04:00,2019-12-01T00:00:00-05:00,2840,23,63.0,"{""<5"":0,""5-20"":4,""21-60"":7,""61-240"":12,"">240"":0}",2139.5,41.483532000000004,-71.30943,722511.0,RI,44.0,44005.0,Newport County,440050408002.0
22773,sg:9054f307fd0d4c00ae9c2fca864ba455,St Thomas Episcopal Church,RI,2019-11-01T00:00:00-04:00,2019-12-01T00:00:00-05:00,2828,23,50.0,"{""<5"":0,""5-20"":2,""21-60"":10,""61-240"":10,"">240"":1}",2175.0,41.871078999999995,-71.553009,813110.0,RI,44.0,44007.0,Providence County,440070127022.0
23031,sg:a811bd09bf3d4f1f973ca9e90300af31,Lowe's,RI,2019-11-01T00:00:00-04:00,2019-12-01T00:00:00-05:00,2920,1538,17.0,"{""<5"":48,""5-20"":843,""21-60"":455,""61-240"":124,"">240"":68}",64067.0,41.797084000000005,-71.444549,444130.0,RI,44.0,44007.0,Providence County,440070141004.0
23217,sg:ba26d1f3dfee4908986da289e90b9917,Picnic Basket,RI,2019-11-01T00:00:00-04:00,2019-12-01T00:00:00-05:00,2882,174,25.0,"{""<5"":3,""5-20"":59,""21-60"":79,""61-240"":23,"">240"":10}",9806.0,41.430676,-71.458841,445310.0,RI,44.0,44009.0,Washington County,440090515032.0
23725,sg:ed8cbea61de042e28228325e19cfc1e2,Astra Salon,RI,2019-11-01T00:00:00-04:00,2019-12-01T00:00:00-05:00,2886,66,39.5,"{""<5"":2,""5-20"":23,""21-60"":17,""61-240"":7,"">240"":17}",6114.5,41.713011,-71.496935,812112.0,RI,44.0,44003.0,Kent County,440030223002.0
24578,sg:400404d451af4aaa86875c9c786682d0,Woonsocket Career An Tech Ctr,RI,2019-11-01T00:00:00-04:00,2019-12-01T00:00:00-05:00,2895,330,60.0,"{""<5"":1,""5-20"":66,""21-60"":99,""61-240"":137,"">240"":27}",31935.5,42.003034,-71.485783,611110.0,RI,44.0,44007.0,Providence County,440070185001.0
24653,sg:47b36e0e5658489d84e7e5f41357e039,Totally Kids School Age Adventures,RI,2019-11-01T00:00:00-04:00,2019-12-01T00:00:00-05:00,2886,8,12.0,"{""<5"":0,""5-20"":7,""21-60"":1,""61-240"":0,"">240"":0}",128.0,41.728776,-71.475042,624410.0,RI,44.0,44003.0,Kent County,440030223003.0
25812,sg:b952ea923b844ead841d251b510f809d,Sheehan's Office Interiors,RI,2019-11-01T00:00:00-04:00,2019-12-01T00:00:00-05:00,2871,125,31.0,"{""<5"":0,""5-20"":29,""21-60"":64,""61-240"":29,"">240"":3}",8039.0,41.623745,-71.227135,453210.0,RI,44.0,44005.0,Newport County,440050401011.0
26424,sg:f7f5bd33019545d0abe08da8f4c4983a,Chief's Discount Jewelry,RI,2019-11-01T00:00:00-04:00,2019-12-01T00:00:00-05:00,2888,121,20.0,"{""<5"":9,""5-20"":52,""21-60"":31,""61-240"":20,"">240"":9}",7098.0,41.734379,-71.435148,448310.0,RI,44.0,44003.0,Kent County,440030211003.0
26455,sg:fae5fa918a6e4c41bbac02465d14c3bd,D & D Fence,RI,2019-11-01T00:00:00-04:00,2019-12-01T00:00:00-05:00,2840,84,57.0,"{""<5"":3,""5-20"":21,""21-60"":19,""61-240"":22,"">240"":19}",8910.5,41.497934,-71.312849,453910.0,RI,44.0,44005.0,Newport County,440050405003.0
27030,sg:3071ce7be9624f3d916886af8fc28b70,Hibachi Grill & Supreme Buffet,RI,2019-11-01T00:00:00-04:00,2019-12-01T00:00:00-05:00,2886,219,48.0,"{""<5"":1,""5-20"":26,""21-60"":119,""61-240"":71,"">240"":2}",16312.5,41.706358,-71.494788,722511.0,RI,44.0,44003.0,Kent County,440030223001.0
27144,sg:3c6556116d014b88bc8388d7716e3ac3,Aristocrat Dental Laboratory,RI,2019-11-01T00:00:00-04:00,2019-12-01T00:00:00-05:00,2904,76,297.5,"{""<5"":0,""5-20"":5,""21-60"":7,""61-240"":17,"">240"":47}",14184.5,41.860665000000004,-71.42271600000001,621210.0,RI,44.0,44007.0,Providence County,440070118003.0
27513,sg:60893c4842db4bf1aea3d4b24f99eaf4,Bill's Pizza,RI,2019-11-01T00:00:00-04:00,2019-12-01T00:00:00-05:00,2860,15,11.0,"{""<5"":0,""5-20"":10,""21-60"":1,""61-240"":1,"">240"":3}",1036.0,41.879252,-71.414289,722511.0,RI,44.0,44007.0,Providence County,440070150001.0
28162,sg:9c9bf041536f4001acf6720294098609,St Augustine's Parish Rectory,RI,2019-11-01T00:00:00-04:00,2019-12-01T00:00:00-05:00,2908,30,39.0,"{""<5"":1,""5-20"":12,""21-60"":13,""61-240"":4,"">240"":0}",1281.0,41.845782,-71.453184,813110.0,RI,44.0,44007.0,Providence County,440070024006.0
28174,sg:9db449aac67b43768b786e1a5f71bb36,Quaker Valley Mall,RI,2019-11-01T00:00:00-04:00,2019-12-01T00:00:00-05:00,2893,859,43.0,"{""<5"":16,""5-20"":197,""21-60"":338,""61-240"":266,"">240"":42}",66304.5,41.674937,-71.50077900000001,531120.0,RI,44.0,44003.0,Kent County,440030201011.0
28300,sg:aa1807ebb608445da5467e0a262d4b7a,Acamar Associates,RI,2019-11-01T00:00:00-04:00,2019-12-01T00:00:00-05:00,2840,82,116.0,"{""<5"":1,""5-20"":13,""21-60"":19,""61-240"":38,"">240"":11}",9293.5,41.490316,-71.310165,621330.0,RI,44.0,44005.0,Newport County,440050407003.0
28717,sg:d484c4b45b0e43389e2b578141ed8615,Riker Art Glass,RI,2019-11-01T00:00:00-04:00,2019-12-01T00:00:00-05:00,2914,82,42.5,"{""<5"":0,""5-20"":29,""21-60"":19,""61-240"":26,"">240"":8}",6965.0,41.826621,-71.376144,451140.0,RI,44.0,44007.0,Providence County,440070102003.0
28776,sg:dc0f50429e054c508c15a788ad9819ba,North Providence Fire Department Station 2,RI,2019-11-01T00:00:00-04:00,2019-12-01T00:00:00-05:00,2911,96,118.5,"{""<5"":6,""5-20"":17,""21-60"":14,""61-240"":27,"">240"":32}",12538.0,41.846264,-71.46718,922160.0,RI,44.0,44007.0,Providence County,440070120003.0
28866,sg:e35b3b6e5c4e48209c3abf2de6af5c54,Gurit USA,RI,2019-11-01T00:00:00-04:00,2019-12-01T00:00:00-05:00,2809,30,176.0,"{""<5"":0,""5-20"":4,""21-60"":4,""61-240"":16,"">240"":6}",4060.0,41.7039,-71.27043499999999,441222.0,RI,44.0,44001.0,Bristol County,440010309021.0
29766,sg:399dc2ed16a9429f90093c9514e76d96,Cardiovascular Assoceates Of Rhode Island,RI,2019-11-01T00:00:00-04:00,2019-12-01T00:00:00-05:00,2914,201,56.0,"{""<5"":0,""5-20"":43,""21-60"":63,""61-240"":65,"">240"":30}",20071.5,41.808496999999996,-71.34535600000001,621111.0,RI,44.0,44007.0,Providence County,440070105011.0
29914,sg:47c0ae8720c34a9ab99c63893bec26f6,National Museum of American Illustration,RI,2019-11-01T00:00:00-04:00,2019-12-01T00:00:00-05:00,2840,11,89.0,"{""<5"":1,""5-20"":2,""21-60"":1,""61-240"":6,"">240"":1}",1211.0,41.469699,-71.306129,712190.0,RI,44.0,44005.0,Newport County,440050409001.0
29939,sg:4ae77aa1879047deb488333deb0ee375,Speedway,RI,2019-11-01T00:00:00-04:00,2019-12-01T00:00:00-05:00,2909,320,11.0,"{""<5"":13,""5-20"":188,""21-60"":47,""61-240"":40,"">240"":32}",17986.0,41.82512,-71.454759,447110.0,RI,44.0,44007.0,Providence County,440070020003.0
30439,sg:7b85546c611441ff9cdcf27569f8b1d8,Woodward Rebecca DMD,RI,2019-11-01T00:00:00-04:00,2019-12-01T00:00:00-05:00,2891,50,50.5,"{""<5"":0,""5-20"":10,""21-60"":19,""61-240"":14,"">240"":7}",4681.5,41.361545,-71.82767,621210.0,RI,44.0,44009.0,Washington County,440090508022.0
30851,sg:a2ebd9954c7a40f1baafb262edd8ad85,Texas Roadhouse,RI,2019-11-01T00:00:00-04:00,2019-12-01T00:00:00-05:00,2818,915,53.0,"{""<5"":1,""5-20"":158,""21-60"":367,""61-240"":382,"">240"":7}",76012.0,41.66361,-71.497463,722511.0,RI,44.0,44003.0,Kent County,440030222013.0
30877,sg:a58ad874569544a3aa08ea8cdb918bd2,Diamond Threading Salon,RI,2019-11-01T00:00:00-04:00,2019-12-01T00:00:00-05:00,2861,69,40.0,"{""<5"":2,""5-20"":28,""21-60"":13,""61-240"":15,"">240"":11}",5779.0,41.886441,-71.359291,446120.0,RI,44.0,44007.0,Providence County,440070159001.0
31101,sg:bd5c0e441b7d43339d0ff7000ce4f010,Westwood Y At Metcalf,RI,2019-11-01T00:00:00-04:00,2019-12-01T00:00:00-05:00,2822,169,20.0,"{""<5"":1,""5-20"":86,""21-60"":26,""61-240"":48,"">240"":8}",11274.5,41.599845,-71.64276,624410.0,RI,44.0,44009.0,Washington County,440090505001.0
31233,sg:c8bce7ae7a844c72b94e29ee79617078,Premium Auto Sales,RI,2019-11-01T00:00:00-04:00,2019-12-01T00:00:00-05:00,2878,13,87.0,"{""<5"":0,""5-20"":2,""21-60"":4,""61-240"":7,"">240"":0}",1240.5,41.663118,-71.152913,,RI,44.0,44005.0,Newport County,440050417011.0
31814,sg:07d93a773d134706b11f3a006078a378,East Providence Family Eye Care,RI,2019-11-01T00:00:00-04:00,2019-12-01T00:00:00-05:00,2915,140,37.0,"{""<5"":2,""5-20"":45,""21-60"":42,""61-240"":27,"">240"":24}",12092.0,41.796017,-71.352805,446130.0,RI,44.0,44007.0,Providence County,440070105011.0
32201,sg:2c1a94bbc8154276b57f3058666c9a5e,Barrington High School,RI,2019-11-01T00:00:00-04:00,2019-12-01T00:00:00-05:00,2806,4160,85.0,"{""<5"":34,""5-20"":752,""21-60"":892,""61-240"":1710,"">240"":772}",488246.0,41.747067,-71.320588,611110.0,RI,44.0,44001.0,Bristol County,440010302002.0
32240,sg:2ed36b5dae584a10a94af12b92c021b4,Lasalle Jewelers,RI,2019-11-01T00:00:00-04:00,2019-12-01T00:00:00-05:00,2908,77,35.0,"{""<5"":0,""5-20"":24,""21-60"":33,""61-240"":16,"">240"":4}",5004.5,41.848476,-71.437437,448310.0,RI,44.0,44007.0,Providence County,440070024001.0
32528,sg:494a1944d28e42c4914152b1ab6f2192,Quick Mart,RI,2019-11-01T00:00:00-04:00,2019-12-01T00:00:00-05:00,2895,147,18.0,"{""<5"":4,""5-20"":73,""21-60"":18,""61-240"":27,"">240"":25}",11715.0,41.997567,-71.524213,447110.0,RI,44.0,44007.0,Providence County,440070176001.0
32552,sg:4b3cfe493bb04c20ae6f8fb709c36cf9,BTS Tire & Service,RI,2019-11-01T00:00:00-04:00,2019-12-01T00:00:00-05:00,2903,168,10.0,"{""<5"":13,""5-20"":92,""21-60"":27,""61-240"":25,"">240"":11}",8678.5,41.822004,-71.421116,441310.0,RI,44.0,44007.0,Providence County,440070011001.0
32614,sg:505a750ee99a4290af250675405b008c,Citizens Memorial School,RI,2019-11-01T00:00:00-04:00,2019-12-01T00:00:00-05:00,2895,151,23.0,"{""<5"":8,""5-20"":63,""21-60"":32,""61-240"":17,"">240"":31}",12102.0,42.011765000000004,-71.493382,611110.0,RI,44.0,44007.0,Providence County,440070182001.0
33412,sg:9eb549f8ebf443ee97ef34fb44ab0b86,Cunha cleaning services,RI,2019-11-01T00:00:00-04:00,2019-12-01T00:00:00-05:00,2914,82,79.5,"{""<5"":0,""5-20"":23,""21-60"":11,""61-240"":28,"">240"":20}",9747.0,41.812892,-71.38591,561740.0,RI,44.0,44007.0,Providence County,440070104003.0
33590,sg:ade31e0a92f7480b83dcfd20425926a6,Eben J Hutchison CPA,RI,2019-11-01T00:00:00-04:00,2019-12-01T00:00:00-05:00,2864,14,8.5,"{""<5"":1,""5-20"":12,""21-60"":0,""61-240"":0,"">240"":1}",392.5,41.917674,-71.386236,541213.0,RI,44.0,44007.0,Providence County,440070112001.0
34055,sg:de3f49c4252c47658ee70c438b742558,Ri Conference United Church of Christ,RI,2019-11-01T00:00:00-04:00,2019-12-01T00:00:00-05:00,2860,10,80.0,"{""<5"":0,""5-20"":1,""21-60"":3,""61-240"":6,"">240"":0}",1037.0,41.876670000000004,-71.380475,813110.0,RI,44.0,44007.0,Providence County,440070160001.0
34304,sg:f80e7474e76e4973b22c87a136702a22,Bristol Warren Regional Rockwell,RI,2019-11-01T00:00:00-04:00,2019-12-01T00:00:00-05:00,2809,82,12.5,"{""<5"":5,""5-20"":48,""21-60"":15,""61-240"":10,"">240"":4}",3685.0,41.69845,-71.28066,624410.0,RI,44.0,44001.0,Bristol County,440010309022.0
34378,sg:001d1cfbe0374cbe966acfaf4b868549,Dick Baron & Son Narragansett Auto Body,RI,2019-11-01T00:00:00-04:00,2019-12-01T00:00:00-05:00,2891,49,48.0,"{""<5"":1,""5-20"":17,""21-60"":9,""61-240"":18,"">240"":4}",4248.5,41.380696,-71.810702,811121.0,RI,44.0,44009.0,Washington County,440090509012.0
34548,sg:0e03358693b7425283ee7c9c425b8435,Costello Ellen Psychologist,RI,2019-11-01T00:00:00-04:00,2019-12-01T00:00:00-05:00,2906,1,159.0,"{""<5"":0,""5-20"":0,""21-60"":0,""61-240"":1,"">240"":0}",150.5,41.842393,-71.379929,621330.0,RI,44.0,44007.0,Providence County,440070034002.0
34573,sg:10ef25d9b20541b5946ca709886458c0,Westerly Virtual Golf,RI,2019-11-01T00:00:00-04:00,2019-12-01T00:00:00-05:00,2891,649,37.0,"{""<5"":16,""5-20"":206,""21-60"":231,""61-240"":148,"">240"":48}",45764.5,41.371984000000005,-71.819419,713910.0,RI,44.0,44009.0,Washington County,440090509012.0
35031,sg:3a3e2de2b67d466986e1d0a2e92dc232,Green Acres Cafe,RI,2019-11-01T00:00:00-04:00,2019-12-01T00:00:00-05:00,2919,258,25.0,"{""<5"":2,""5-20"":98,""21-60"":80,""61-240"":62,"">240"":16}",17641.0,41.793718,-71.533649,722511.0,RI,44.0,44007.0,Providence County,440070125003.0
35824,sg:7e16a43fce2748a98f07d10220273811,Staples,RI,2019-11-01T00:00:00-04:00,2019-12-01T00:00:00-05:00,2886,147,10.0,"{""<5"":3,""5-20"":109,""21-60"":20,""61-240"":12,"">240"":3}",4706.0,41.705927,-71.49075,453210.0,RI,44.0,44003.0,Kent County,440030222021.0
35925,sg:872b76db06294cd29c2c08c451c3a1c9,Beacon Boats,RI,2019-11-01T00:00:00-04:00,2019-12-01T00:00:00-05:00,2809,111,57.0,"{""<5"":6,""5-20"":26,""21-60"":26,""61-240"":31,"">240"":22}",11338.5,41.692130999999996,-71.25033499999999,441222.0,RI,44.0,44001.0,Bristol County,440010309012.0
36068,sg:93b5961ac92947629b14c5dcc25b0f80,Seasons Corner Market,RI,2019-11-01T00:00:00-04:00,2019-12-01T00:00:00-05:00,2886,47,9.0,"{""<5"":3,""5-20"":33,""21-60"":10,""61-240"":1,"">240"":0}",975.5,41.726501,-71.439137,447110.0,RI,44.0,44003.0,Kent County,440030211004.0
36201,sg:a1cf34e76bde486bb13b358a4c4f9f34,Dunkin',RI,2019-11-01T00:00:00-04:00,2019-12-01T00:00:00-05:00,2917,360,7.0,"{""<5"":31,""5-20"":267,""21-60"":55,""61-240"":5,"">240"":2}",6875.0,41.870566,-71.523884,722515.0,RI,44.0,44007.0,Providence County,440070126012.0
36263,sg:a890d9b12a2c440eaf48c44e75ec1f5f,Patrick's Pub,RI,2019-11-01T00:00:00-04:00,2019-12-01T00:00:00-05:00,2908,18,234.5,"{""<5"":0,""5-20"":4,""21-60"":0,""61-240"":7,"">240"":7}",2783.5,41.834835999999996,-71.424194,722511.0,RI,44.0,44007.0,Providence County,440070026001.0
36316,sg:adcc19f1fec4422cb04ec0fbe74bf2d8,Li'l Bear Sports Pub,RI,2019-11-01T00:00:00-04:00,2019-12-01T00:00:00-05:00,2878,182,50.5,"{""<5"":2,""5-20"":33,""21-60"":76,""61-240"":69,"">240"":2}",14360.0,41.649064,-71.202667,722511.0,RI,44.0,44005.0,Newport County,440050416022.0
36652,sg:d1cc3d8b12be44a195b535164ed42ff8,Children's Friend Hartford Avenue,RI,2019-11-01T00:00:00-04:00,2019-12-01T00:00:00-05:00,2909,40,259.5,"{""<5"":1,""5-20"":6,""21-60"":5,""61-240"":7,"">240"":21}",6373.5,41.818023,-71.461968,624410.0,RI,44.0,44007.0,Providence County,440070018005.0
36821,sg:e19f7ee6b7d14d77b0b8c79c09257819,Lakewood Ice Cream,RI,2019-11-01T00:00:00-04:00,2019-12-01T00:00:00-05:00,2888,68,13.0,"{""<5"":0,""5-20"":53,""21-60"":7,""61-240"":5,"">240"":3}",2418.5,41.755624,-71.412474,722515.0,RI,44.0,44003.0,Kent County,440030210012.0
36838,sg:e33ba5f224d44a348aa0e193313a6c68,Roger Williams Baptist Church,RI,2019-11-01T00:00:00-04:00,2019-12-01T00:00:00-05:00,2904,83,51.0,"{""<5"":1,""5-20"":22,""21-60"":26,""61-240"":30,"">240"":4}",6805.5,41.858219,-71.43236,813110.0,RI,44.0,44007.0,Providence County,440070028002.0
37154,sg:03be71f69e8c42d18551525261bb89d7,PD Autobody,RI,2019-11-01T00:00:00-04:00,2019-12-01T00:00:00-05:00,2909,5,8.0,"{""<5"":0,""5-20"":4,""21-60"":0,""61-240"":0,"">240"":1}",290.0,41.819699,-71.439269,811121.0,RI,44.0,44007.0,Providence County,440070019001.0
37332,sg:12e3dcee60e04bf1b034d91465d604db,Darlington Assisted Living Centers,RI,2019-11-01T00:00:00-04:00,2019-12-01T00:00:00-05:00,2860,112,31.0,"{""<5"":3,""5-20"":42,""21-60"":22,""61-240"":25,"">240"":20}",9986.0,41.876409,-71.37561600000001,621610.0,RI,44.0,44007.0,Providence County,440070167001.0
37512,sg:224eca6dcec64c7a8e5dd1dc3272e324,Sherri's Come Along Inn,RI,2019-11-01T00:00:00-04:00,2019-12-01T00:00:00-05:00,2816,117,59.0,"{""<5"":1,""5-20"":20,""21-60"":38,""61-240"":51,"">240"":7}",11147.0,41.695427,-71.53347,722511.0,RI,44.0,44003.0,Kent County,440030206043.0
37536,sg:246d5e32849346b0b5e6b7f7a3a69a64,Barrington Family Medicine,RI,2019-11-01T00:00:00-04:00,2019-12-01T00:00:00-05:00,2806,29,64.0,"{""<5"":0,""5-20"":2,""21-60"":11,""61-240"":10,"">240"":6}",3415.5,41.74698,-71.342959,621111.0,RI,44.0,44001.0,Bristol County,440010301003.0
37621,sg:2c32626680e04caabfb63747a40620da,Cumberland Public Library,RI,2019-11-01T00:00:00-04:00,2019-12-01T00:00:00-05:00,2864,377,52.0,"{""<5"":11,""5-20"":102,""21-60"":97,""61-240"":154,"">240"":13}",31528.0,41.934293,-71.404116,519120.0,RI,44.0,44007.0,Providence County,440070113013.0
37644,sg:2dda5b04e59e498799390af84ae58815,Saladworks,RI,2019-11-01T00:00:00-04:00,2019-12-01T00:00:00-05:00,2902,756,205.5,"{""<5"":10,""5-20"":118,""21-60"":71,""61-240"":218,"">240"":339}",118544.5,41.82425,-71.415595,722513.0,,,,,
37718,sg:35b8da2d979c4df1a282e78bc85c9bef,OSAKA Hibachi Express,RI,2019-11-01T00:00:00-04:00,2019-12-01T00:00:00-05:00,2919,80,29.5,"{""<5"":2,""5-20"":28,""21-60"":28,""61-240"":21,"">240"":1}",4889.5,41.822061,-71.498799,722511.0,RI,44.0,44007.0,Providence County,440070124015.0
37721,sg:366e41470f53458ab4b84df109221a17,O P Nails,RI,2019-11-01T00:00:00-04:00,2019-12-01T00:00:00-05:00,2861,1,401.0,"{""<5"":0,""5-20"":0,""21-60"":0,""61-240"":0,"">240"":1}",240.0,41.86003,-71.351919,812113.0,RI,44.0,44007.0,Providence County,440070170002.0
37863,sg:43ce433529d54f8da8718aa94e032e8d,East Bay Mental Health Center,RI,2019-11-01T00:00:00-04:00,2019-12-01T00:00:00-05:00,2806,124,72.5,"{""<5"":2,""5-20"":33,""21-60"":24,""61-240"":51,"">240"":14}",12425.0,41.75414,-71.326595,621330.0,RI,44.0,44001.0,Bristol County,440010302001.0
37883,sg:45b11fa5b0d442979841b7d65b69dcf1,Hampton,RI,2019-11-01T00:00:00-04:00,2019-12-01T00:00:00-05:00,2860,920,80.0,"{""<5"":18,""5-20"":199,""21-60"":181,""61-240"":260,"">240"":262}",111873.0,41.873963,-71.38651,721110.0,RI,44.0,44007.0,Providence County,440070152002.0
37922,sg:4930339760994f9fa6786f7d0ef38425,Arigna Irish Pub & Coal Fire Kitchen,RI,2019-11-01T00:00:00-04:00,2019-12-01T00:00:00-05:00,2904,298,54.0,"{""<5"":12,""5-20"":75,""21-60"":76,""61-240"":110,"">240"":25}",26600.5,41.867691,-71.42513000000001,722511.0,RI,44.0,44007.0,Providence County,440070118003.0
37975,sg:4e3228b01ffd4281b97476a9e5ede985,Sakis Pizza,RI,2019-11-01T00:00:00-04:00,2019-12-01T00:00:00-05:00,2903,412,20.0,"{""<5"":17,""5-20"":206,""21-60"":136,""61-240"":44,"">240"":9}",16907.5,41.821957,-71.412603,722511.0,RI,44.0,44007.0,Providence County,440070008003.0
38191,sg:6437aedd403e457f9eba69c74828c5e8,United States Postal Service (USPS),RI,2019-11-01T00:00:00-04:00,2019-12-01T00:00:00-05:00,2839,9,45.0,"{""<5"":0,""5-20"":4,""21-60"":1,""61-240"":1,"">240"":3}",961.0,41.952923,-71.649295,491110.0,RI,44.0,44007.0,Providence County,440070130024.0
38249,sg:69f3f044bb9b46c4950fd1f847ae9bf2,The Clubhouse,RI,2019-11-01T00:00:00-04:00,2019-12-01T00:00:00-05:00,2809,12,11.5,"{""<5"":0,""5-20"":8,""21-60"":0,""61-240"":4,"">240"":0}",702.0,41.70495,-71.273301,722511.0,RI,44.0,44001.0,Bristol County,440010309021.0
38701,sg:94072930e49c4d93921504075c223f54,University Of Rhode Island,RI,2019-11-01T00:00:00-04:00,2019-12-01T00:00:00-05:00,2881,35987,61.0,"{""<5"":469,""5-20"":8099,""21-60"":9184,""61-240"":12098,"">240"":6137}",3767991.0,41.484646999999995,-71.53236600000001,611310.0,RI,44.0,44009.0,Washington County,440090514001.0
38772,sg:9afa1f8367e842869a0b5329d633c8a2,Lime Rock Fire Department Station 2,RI,2019-11-01T00:00:00-04:00,2019-12-01T00:00:00-05:00,2865,44,12.5,"{""<5"":2,""5-20"":26,""21-60"":8,""61-240"":6,"">240"":2}",2037.0,41.892944,-71.44726800000001,922160.0,RI,44.0,44007.0,Providence County,440070116002.0
38867,sg:a639b228951b4cdab3f400cc5ab7942b,Cumberland Farms,RI,2019-11-01T00:00:00-04:00,2019-12-01T00:00:00-05:00,2910,1040,8.0,"{""<5"":57,""5-20"":835,""21-60"":67,""61-240"":42,"">240"":39}",28974.5,41.781402,-71.441553,447110.0,RI,44.0,44007.0,Providence County,440070140002.0
39986,sg:0f87f5f7a03346f1ac1a93d4a6c883c2,Edwards Garage,RI,2019-11-01T00:00:00-04:00,2019-12-01T00:00:00-05:00,2832,2,35.0,"{""<5"":0,""5-20"":1,""21-60"":0,""61-240"":1,"">240"":0}",163.0,41.492703999999996,-71.731617,811111.0,RI,44.0,44009.0,Washington County,440090507003.0
40519,sg:3dd1fb92dc544d9bbf282141b7db1318,SmokeZone Smoke Shop,RI,2019-11-01T00:00:00-04:00,2019-12-01T00:00:00-05:00,2903,49,72.0,"{""<5"":1,""5-20"":14,""21-60"":8,""61-240"":18,"">240"":8}",5130.5,41.819990999999995,-71.39518699999999,444120.0,RI,44.0,44007.0,Providence County,440070037003.0
40576,sg:430a8cc4270247d2b827294b7a8ba49d,Cardi's Furniture,RI,2019-11-01T00:00:00-04:00,2019-12-01T00:00:00-05:00,2893,321,40.0,"{""<5"":4,""5-20"":79,""21-60"":119,""61-240"":92,"">240"":27}",26143.0,41.669889000000005,-71.501019,442110.0,RI,44.0,44003.0,Kent County,440030201012.0
40728,sg:50d44eb6bc624148a9dc89b575a353b2,Rhode Is State of Donley Dr John E Jr Rehblttn Ctr,RI,2019-11-01T00:00:00-04:00,2019-12-01T00:00:00-05:00,2906,48,135.0,"{""<5"":1,""5-20"":13,""21-60"":8,""61-240"":12,"">240"":14}",5655.0,41.842146,-71.385079,524210.0,RI,44.0,44007.0,Providence County,440070034002.0
41108,sg:762a80ca3f1f4f5a89b5114c1b02ec3a,Mount St Charles Academy,RI,2019-11-01T00:00:00-04:00,2019-12-01T00:00:00-05:00,2895,2895,118.0,"{""<5"":30,""5-20"":493,""21-60"":458,""61-240"":966,"">240"":948}",397689.5,41.995911,-71.502309,611110.0,RI,44.0,44007.0,Providence County,440070178001.0
41344,sg:906e8368bbbc4d3d9284aafad59a7b3e,Gold's Auto Salvage,RI,2019-11-01T00:00:00-04:00,2019-12-01T00:00:00-05:00,2842,71,271.0,"{""<5"":0,""5-20"":15,""21-60"":13,""61-240"":5,"">240"":38}",10586.5,41.504084999999996,-71.297969,441310.0,RI,44.0,44005.0,Newport County,440050403022.0
41517,sg:a3761b9bfa724b82a7df5196c8a90db8,Salon Royale,RI,2019-11-01T00:00:00-04:00,2019-12-01T00:00:00-05:00,2895,4,223.5,"{""<5"":0,""5-20"":1,""21-60"":0,""61-240"":1,"">240"":2}",643.0,42.007333,-71.507958,812112.0,RI,44.0,44007.0,Providence County,440070180002.0
42301,sg:f345f1a55e8a468a9255b412aa5fe40e,United States Golf Association,RI,2019-11-01T00:00:00-04:00,2019-12-01T00:00:00-05:00,2882,31,24.0,"{""<5"":2,""5-20"":11,""21-60"":10,""61-240"":8,"">240"":0}",1751.5,41.4381,-71.458624,713910.0,RI,44.0,44009.0,Washington County,440090515031.0
42742,sg:1a812176c4614fe3ad93a8a12cb0f6e1,South County Nursing and Subacute Center,RI,2019-11-01T00:00:00-04:00,2019-12-01T00:00:00-05:00,2852,70,318.0,"{""<5"":0,""5-20"":3,""21-60"":10,""61-240"":17,"">240"":40}",12601.0,41.558822,-71.487905,621340.0,RI,44.0,44009.0,Washington County,440090503013.0
43177,sg:3eac9d1b77d64dc4a37c3ccf07f0cdd2,Shell Oil,RI,2019-11-01T00:00:00-04:00,2019-12-01T00:00:00-05:00,2905,83,7.0,"{""<5"":10,""5-20"":56,""21-60"":7,""61-240"":7,"">240"":3}",2782.0,41.786184999999996,-71.39474200000001,447110.0,RI,44.0,44007.0,Providence County,440070001011.0
43475,sg:59a4b39d412e4be49036add5e1b5142a,Slate Hill Park,RI,2019-11-01T00:00:00-04:00,2019-12-01T00:00:00-05:00,2920,112,14.5,"{""<5"":6,""5-20"":55,""21-60"":17,""61-240"":20,"">240"":14}",7761.0,41.756726,-71.463042,712190.0,RI,44.0,44007.0,Providence County,440070144001.0
44151,sg:9aa2e4ed9c6747378d95917afc66e3a6,Children's Dentistry of Westerly & Wakefield,RI,2019-11-01T00:00:00-04:00,2019-12-01T00:00:00-05:00,2891,2,525.5,"{""<5"":0,""5-20"":0,""21-60"":0,""61-240"":0,"">240"":2}",480.0,41.370517,-71.819643,621210.0,RI,44.0,44009.0,Washington County,440090508021.0
44585,sg:c747d50dcdad444bab583656c4b2395b,Smithfield High School,RI,2019-11-01T00:00:00-04:00,2019-12-01T00:00:00-05:00,2917,2208,330.5,"{""<5"":15,""5-20"":188,""21-60"":253,""61-240"":470,"">240"":1282}",391049.0,41.880657,-71.543948,611110.0,RI,44.0,44007.0,Providence County,440070127013.0
45254,sg:05e6889283c14b15bf19b817bb72a188,Bonetown Burgers & BBQ,RI,2019-11-01T00:00:00-04:00,2019-12-01T00:00:00-05:00,2920,74,59.0,"{""<5"":0,""5-20"":17,""21-60"":23,""61-240"":25,"">240"":9}",7066.5,41.78241,-71.466747,722511.0,RI,44.0,44007.0,Providence County,440070147005.0
45705,sg:2d6711eaa3a64aac96569a1024d15d01,Kingston Congregational Church,RI,2019-11-01T00:00:00-04:00,2019-12-01T00:00:00-05:00,2881,139,44.0,"{""<5"":5,""5-20"":27,""21-60"":47,""61-240"":38,"">240"":22}",13252.5,41.480059999999995,-71.525512,813110.0,RI,44.0,44009.0,Washington County,440090513063.0
45851,sg:3a5b3a05ed584d5b9617d28956b87b6f,Bay Marina,RI,2019-11-01T00:00:00-04:00,2019-12-01T00:00:00-05:00,2889,15,20.0,"{""<5"":0,""5-20"":8,""21-60"":4,""61-240"":3,"">240"":0}",713.5,41.698153000000005,-71.38810500000001,441222.0,RI,44.0,44003.0,Kent County,440030217001.0
46027,sg:48bbaa8444844dcb84ec6e090a96a87f,YMCA,RI,2019-11-01T00:00:00-04:00,2019-12-01T00:00:00-05:00,2816,2,30.0,"{""<5"":0,""5-20"":1,""21-60"":1,""61-240"":0,"">240"":0}",53.0,41.679024,-71.671625,624190.0,RI,44.0,44003.0,Kent County,440030207022.0
46078,sg:4bed263254494b708e71e821dac6bf6c,Jeff Allen's Latin and Ballroom Dance Studio,RI,2019-11-01T00:00:00-04:00,2019-12-01T00:00:00-05:00,2920,268,59.0,"{""<5"":1,""5-20"":42,""21-60"":94,""61-240"":79,"">240"":52}",28704.0,41.784886,-71.473382,713940.0,RI,44.0,44007.0,Providence County,440070148003.0
46205,sg:58cb52622ebd4cc79ad069f39fa4c0a5,Oop,RI,2019-11-01T00:00:00-04:00,2019-12-01T00:00:00-05:00,2906,82,39.5,"{""<5"":1,""5-20"":22,""21-60"":36,""61-240"":7,"">240"":16}",6629.0,41.827464,-71.39263100000001,452319.0,RI,44.0,44007.0,Providence County,440070036012.0
46242,sg:5c7a19dacad7496e92c0c0a81c15f9dc,Cranston Fire Department Station 2,RI,2019-11-01T00:00:00-04:00,2019-12-01T00:00:00-05:00,2910,237,81.0,"{""<5"":5,""5-20"":61,""21-60"":40,""61-240"":76,"">240"":55}",27033.0,41.779683,-71.43509399999999,922160.0,RI,44.0,44007.0,Providence County,440070140001.0
46413,sg:6cc36a6a86a64b28b3fc9a8f7bbbaf0a,Wally's Tap House,RI,2019-11-01T00:00:00-04:00,2019-12-01T00:00:00-05:00,2878,127,40.0,"{""<5"":5,""5-20"":43,""21-60"":37,""61-240"":41,"">240"":1}",8459.0,41.624887,-71.146982,722511.0,RI,44.0,44005.0,Newport County,440050417021.0
46823,sg:91eec752a4b8422687ba342f03f8362c,1 Alpha And Omega Cleaning Services,RI,2019-11-01T00:00:00-04:00,2019-12-01T00:00:00-05:00,2886,220,43.0,"{""<5"":8,""5-20"":66,""21-60"":51,""61-240"":70,"">240"":25}",19445.5,41.720009999999995,-71.47284300000001,561740.0,RI,44.0,44003.0,Kent County,440030223003.0
47003,sg:a3409a431fa34dcba83d5ef9431fc86a,Olympic Physical Therapy & Foot Orthotics,RI,2019-11-01T00:00:00-04:00,2019-12-01T00:00:00-05:00,2809,3,18.0,"{""<5"":0,""5-20"":2,""21-60"":1,""61-240"":0,"">240"":0}",65.5,41.670056,-71.27620999999999,446199.0,RI,44.0,44001.0,Bristol County,440010307004.0
47071,sg:a9c4aef88b2a46ca986489e2a0060d30,Ardente Supply Co Inc,RI,2019-11-01T00:00:00-04:00,2019-12-01T00:00:00-05:00,2908,130,20.0,"{""<5"":5,""5-20"":62,""21-60"":35,""61-240"":18,"">240"":10}",7314.0,41.827901000000004,-71.436596,444130.0,RI,44.0,44007.0,Providence County,440070022002.0
47127,sg:af4fa215b8ff47eca34f07c0cab30695,Robin Hollow Farm,RI,2019-11-01T00:00:00-04:00,2019-12-01T00:00:00-05:00,2874,10,672.5,"{""<5"":0,""5-20"":2,""21-60"":0,""61-240"":2,"">240"":6}",1766.0,41.517711,-71.451385,453110.0,RI,44.0,44009.0,Washington County,440090504023.0
47416,sg:c910cb9ab39149438846530bc597f053,El Paso Restaurant,RI,2019-11-01T00:00:00-04:00,2019-12-01T00:00:00-05:00,2863,269,43.0,"{""<5"":3,""5-20"":84,""21-60"":68,""61-240"":54,"">240"":60}",26338.5,41.896822,-71.388819,722511.0,RI,44.0,44007.0,Providence County,440070109003.0
47573,sg:d8c5b89fa43f4a83997bca8a71a10a98,Nicholas A Ferri Middle,RI,2019-11-01T00:00:00-04:00,2019-12-01T00:00:00-05:00,2919,285,375.0,"{""<5"":0,""5-20"":7,""21-60"":6,""61-240"":42,"">240"":230}",61851.5,41.829582,-71.502307,611110.0,RI,44.0,44007.0,Providence County,440070124014.0
47695,sg:e5cdb024c1e44e0a982f910b86439ab7,J's Deli,RI,2019-11-01T00:00:00-04:00,2019-12-01T00:00:00-05:00,2864,1,5.0,"{""<5"":0,""5-20"":1,""21-60"":0,""61-240"":0,"">240"":0}",12.5,41.954081,-71.402109,722511.0,RI,44.0,44007.0,Providence County,440070114013.0
47998,sg:03c596d51b5e4390acfe8ba121e9339a,Barrington Music,RI,2019-11-01T00:00:00-04:00,2019-12-01T00:00:00-05:00,2806,13,34.0,"{""<5"":0,""5-20"":4,""21-60"":7,""61-240"":2,"">240"":0}",634.5,41.752932,-71.295172,451140.0,RI,44.0,44001.0,Bristol County,440010303002.0
48357,sg:21951e25df004b199bdee851112096ac,Long Wharf General Store,RI,2019-11-01T00:00:00-04:00,2019-12-01T00:00:00-05:00,2840,214,22.0,"{""<5"":3,""5-20"":92,""21-60"":72,""61-240"":28,"">240"":19}",12847.5,41.490035999999996,-71.316335,453220.0,RI,44.0,44005.0,Newport County,440050411003.0
48368,sg:226ad1a6026e4140b5f916cb5b0b1268,Fred's Place,RI,2019-11-01T00:00:00-04:00,2019-12-01T00:00:00-05:00,2920,16,124.0,"{""<5"":0,""5-20"":1,""21-60"":5,""61-240"":8,"">240"":2}",1899.0,41.783569,-71.46491800000001,812112.0,RI,44.0,44007.0,Providence County,440070147005.0
48529,sg:325b33e1ec7949a79247fd1e52878b1e,Ocean State Credit Union,RI,2019-11-01T00:00:00-04:00,2019-12-01T00:00:00-05:00,2816,109,11.0,"{""<5"":3,""5-20"":69,""21-60"":18,""61-240"":6,"">240"":13}",5622.0,41.673959,-71.59350699999999,522110.0,RI,44.0,44003.0,Kent County,440030207032.0
48801,sg:49d51adceb354f26aceb830c81631eea,Allstate Insurance,RI,2019-11-01T00:00:00-04:00,2019-12-01T00:00:00-05:00,2904,55,164.0,"{""<5"":2,""5-20"":7,""21-60"":9,""61-240"":11,"">240"":26}",8352.5,41.869706,-71.42103,524210.0,RI,44.0,44007.0,Providence County,440070118001.0
49227,sg:71e9f4b421f94f7cb895a1c8b432c9a0,Adeline's Speakeasy Kitchen Bar,RI,2019-11-01T00:00:00-04:00,2019-12-01T00:00:00-05:00,2864,23,73.0,"{""<5"":0,""5-20"":0,""21-60"":9,""61-240"":14,"">240"":0}",2471.5,41.957378999999996,-71.443722,722511.0,RI,44.0,44007.0,Providence County,440070114034.0
49535,sg:8d3b8c91da9847b8b51885132e61c881,City Girl Cupcake,RI,2019-11-01T00:00:00-04:00,2019-12-01T00:00:00-05:00,2903,104,27.5,"{""<5"":1,""5-20"":41,""21-60"":33,""61-240"":24,"">240"":5}",6663.5,41.823274,-71.410945,311811.0,RI,44.0,44007.0,Providence County,440070008003.0
49706,sg:9c26a3f9c39f4481a47d9f194d83637e,147 Market And Deli,RI,2019-11-01T00:00:00-04:00,2019-12-01T00:00:00-05:00,2860,221,69.0,"{""<5"":6,""5-20"":61,""21-60"":37,""61-240"":55,"">240"":62}",25433.5,41.870746000000004,-71.378529,722511.0,RI,44.0,44007.0,Providence County,440070167002.0
49906,sg:b218858b97fa479094e08f063dee64de,The Charlestown Rathskeller,RI,2019-11-01T00:00:00-04:00,2019-12-01T00:00:00-05:00,2813,344,81.0,"{""<5"":2,""5-20"":27,""21-60"":100,""61-240"":178,"">240"":37}",40061.5,41.424076,-71.613175,722511.0,RI,44.0,44009.0,Washington County,440090511021.0
50371,sg:e3139e8498a84f13817eeba68a843544,Marcie's Pet Grooming,RI,2019-11-01T00:00:00-04:00,2019-12-01T00:00:00-05:00,2896,87,23.0,"{""<5"":3,""5-20"":31,""21-60"":36,""61-240"":15,"">240"":2}",4590.5,41.997706,-71.561952,812910.0,RI,44.0,44007.0,Providence County,440070128013.0
50489,sg:f02262ca908d4851966951842067c1b4,Village Collision Center,RI,2019-11-01T00:00:00-04:00,2019-12-01T00:00:00-05:00,2893,45,204.0,"{""<5"":0,""5-20"":7,""21-60"":4,""61-240"":16,"">240"":18}",6977.5,41.724552,-71.489756,811121.0,RI,44.0,44003.0,Kent County,440030205001.0
50500,sg:f12cf9a6ada848e79dc664614bec46bb,Supreme Cheese Pizzeria & Ristorante,RI,2019-11-01T00:00:00-04:00,2019-12-01T00:00:00-05:00,2891,177,22.0,"{""<5"":8,""5-20"":72,""21-60"":59,""61-240"":33,"">240"":5}",9476.0,41.368463,-71.819721,722511.0,RI,44.0,44009.0,Washington County,440090508021.0
50594,sg:facb2b40fcc248f18bc812d44137e4d4,The Mediator Fellowship,RI,2019-11-01T00:00:00-04:00,2019-12-01T00:00:00-05:00,2907,143,107.0,"{""<5"":1,""5-20"":21,""21-60"":29,""61-240"":38,"">240"":54}",20118.5,41.787516,-71.425111,813110.0,RI,44.0,44007.0,Providence County,440070015003.0
50836,sg:124c6ee3931d461cb55d6a2b83944015,Iggy's Doughboys & Chowder House,RI,2019-11-01T00:00:00-04:00,2019-12-01T00:00:00-05:00,2889,93,30.0,"{""<5"":1,""5-20"":27,""21-60"":51,""61-240"":8,"">240"":6}",5049.5,41.684506,-71.398025,722511.0,RI,44.0,44003.0,Kent County,440030217002.0
51142,sg:3152ed8ab8f8448e85e5fd78128b78ec,Depetrillo's Pizza & Bakery,RI,2019-11-01T00:00:00-04:00,2019-12-01T00:00:00-05:00,2889,186,56.0,"{""<5"":5,""5-20"":53,""21-60"":36,""61-240"":70,"">240"":22}",17948.0,41.729341,-71.406565,722511.0,RI,44.0,44003.0,Kent County,440030214013.0
51797,sg:753f2a2af4d7443a972158f2ee433859,Murphy's Providence,RI,2019-11-01T00:00:00-04:00,2019-12-01T00:00:00-05:00,2903,209,49.0,"{""<5"":4,""5-20"":56,""21-60"":67,""61-240"":75,"">240"":7}",16391.0,41.823423999999996,-71.415705,722511.0,RI,44.0,44007.0,Providence County,440070008001.0
51841,sg:79050ad68a5f4b5eb6dcc78b5aa9987d,CVS,RI,2019-11-01T00:00:00-04:00,2019-12-01T00:00:00-05:00,2863,283,14.0,"{""<5"":9,""5-20"":168,""21-60"":35,""61-240"":30,"">240"":41}",17895.0,41.883686,-71.38656,446110.0,RI,44.0,44007.0,Providence County,440070108001.0
51925,sg:80c2d6fe293f4f779f96de9c5e9de0f3,First Baptist Church of Pawt,RI,2019-11-01T00:00:00-04:00,2019-12-01T00:00:00-05:00,2907,16,77.5,"{""<5"":0,""5-20"":3,""21-60"":3,""61-240"":10,"">240"":0}",1664.0,41.79138,-71.428021,813110.0,RI,44.0,44007.0,Providence County,440070015002.0
52051,sg:8cf94bbaf37e46bfb410fe63f1d4b1df,International Pocket Cafe Kingston,RI,2019-11-01T00:00:00-04:00,2019-12-01T00:00:00-05:00,2881,107,20.0,"{""<5"":1,""5-20"":53,""21-60"":45,""61-240"":8,"">240"":0}",3691.5,41.485749,-71.52439,722511.0,RI,44.0,44009.0,Washington County,440090514001.0
52149,sg:947373fd91c34ed6bd0ad7f3eb8c2343,Golden House,RI,2019-11-01T00:00:00-04:00,2019-12-01T00:00:00-05:00,2914,110,36.5,"{""<5"":1,""5-20"":39,""21-60"":26,""61-240"":30,"">240"":14}",9418.0,41.811598,-71.361866,722511.0,RI,44.0,44007.0,Providence County,440070105012.0
52393,sg:acdac4ec53924109b92e61f4563d130c,Dunkin',RI,2019-11-01T00:00:00-04:00,2019-12-01T00:00:00-05:00,2920,1044,20.0,"{""<5"":16,""5-20"":532,""21-60"":385,""61-240"":82,"">240"":29}",41583.5,41.754731,-71.461167,722515.0,RI,44.0,44007.0,Providence County,440070142002.0
52594,sg:c067a9b1bb3649e3971c2722db413749,Pointview Marina,RI,2019-11-01T00:00:00-04:00,2019-12-01T00:00:00-05:00,2879,69,25.0,"{""<5"":1,""5-20"":28,""21-60"":20,""61-240"":17,"">240"":3}",4441.0,41.388521000000004,-71.51769,441222.0,RI,44.0,44009.0,Washington County,440090513026.0
52750,sg:cf10227ce55c4cbb8cb094d17055c5e6,WellOne Primary Medical & Dental Care,RI,2019-11-01T00:00:00-04:00,2019-12-01T00:00:00-05:00,2859,48,55.0,"{""<5"":2,""5-20"":10,""21-60"":16,""61-240"":16,"">240"":4}",4146.0,41.956802,-71.702402,621330.0,RI,44.0,44007.0,Providence County,440070129004.0
53392,sg:0a6ecf7a5c654968bbc9a28eb948a39f,Advance Auto Parts,RI,2019-11-01T00:00:00-04:00,2019-12-01T00:00:00-05:00,2919,77,8.0,"{""<5"":6,""5-20"":58,""21-60"":8,""61-240"":4,"">240"":1}",1906.0,41.859071,-71.48850300000001,441310.0,RI,44.0,44007.0,Providence County,440070123001.0
53487,sg:13ba6bd35b4d4ecdba84231946a21838,Jeffrey B Shapiro DMD,RI,2019-11-01T00:00:00-04:00,2019-12-01T00:00:00-05:00,2906,10,33.5,"{""<5"":0,""5-20"":4,""21-60"":4,""61-240"":1,"">240"":1}",602.5,41.827228999999996,-71.393668,621210.0,RI,44.0,44007.0,Providence County,440070036012.0
53555,sg:19e196efd5b84784827119c8410d9b07,Concordia Center for Spiritual Living,RI,2019-11-01T00:00:00-04:00,2019-12-01T00:00:00-05:00,2889,48,66.5,"{""<5"":0,""5-20"":12,""21-60"":9,""61-240"":10,"">240"":17}",6099.5,41.73105,-71.396731,813110.0,RI,44.0,44003.0,Kent County,440030213002.0
53900,sg:39a0bbf078544b10b88525ca72a29256,Massautowerks,RI,2019-11-01T00:00:00-04:00,2019-12-01T00:00:00-05:00,2895,57,38.0,"{""<5"":1,""5-20"":18,""21-60"":16,""61-240"":10,"">240"":12}",5260.5,42.006409000000005,-71.516014,811111.0,RI,44.0,44007.0,Providence County,440070180002.0
53964,sg:3fd3b8f5528642269c24b6b06b6bf55a,Eddy Tires Sales,RI,2019-11-01T00:00:00-04:00,2019-12-01T00:00:00-05:00,2920,69,66.0,"{""<5"":2,""5-20"":15,""21-60"":16,""61-240"":20,"">240"":16}",7690.5,41.801486,-71.444351,441310.0,RI,44.0,44007.0,Providence County,440070141003.0
54411,sg:6c847c34c88145a588888de2ed4d5295,Walker Farm Kayak Rental,RI,2019-11-01T00:00:00-04:00,2019-12-01T00:00:00-05:00,2806,5,12.0,"{""<5"":0,""5-20"":4,""21-60"":0,""61-240"":1,"">240"":0}",200.5,41.753415999999994,-71.32206,336999.0,RI,44.0,44001.0,Bristol County,440010302001.0
54730,sg:8d868754064f431a97c1fe45fe734905,Liberty Lunch,RI,2019-11-01T00:00:00-04:00,2019-12-01T00:00:00-05:00,2861,331,47.0,"{""<5"":12,""5-20"":84,""21-60"":83,""61-240"":45,"">240"":107}",36894.0,41.887912,-71.354858,722511.0,RI,44.0,44007.0,Providence County,440070156002.0
54765,sg:912b4bf227a2444189dbf654d2069730,Vendata Society of Providence,RI,2019-11-01T00:00:00-04:00,2019-12-01T00:00:00-05:00,2906,146,63.0,"{""<5"":0,""5-20"":37,""21-60"":32,""61-240"":53,"">240"":24}",15495.0,41.828117,-71.398424,813110.0,RI,44.0,44007.0,Providence County,440070036011.0
54822,sg:96dc8c6b5c4e49df85fed3a3f6754eb8,Moe's Southwest Grill,RI,2019-11-01T00:00:00-04:00,2019-12-01T00:00:00-05:00,2886,6,5.5,"{""<5"":0,""5-20"":4,""21-60"":2,""61-240"":0,"">240"":0}",131.0,41.686036,-71.498409,722511.0,RI,44.0,44003.0,Kent County,440030222022.0
56285,sg:25d4e839328245baba696ff09da3687f,Big Lots Stores,RI,2019-11-01T00:00:00-04:00,2019-12-01T00:00:00-05:00,2889,486,21.0,"{""<5"":12,""5-20"":229,""21-60"":157,""61-240"":55,"">240"":33}",25448.5,41.709881,-71.399136,452319.0,RI,44.0,44003.0,Kent County,440030218002.0
56302,sg:27279833b2d84b0d9990fe201c207926,Cox Store,RI,2019-11-01T00:00:00-04:00,2019-12-01T00:00:00-05:00,2865,125,200.0,"{""<5"":1,""5-20"":18,""21-60"":8,""61-240"":41,"">240"":57}",20402.0,41.93461,-71.481311,517312.0,RI,44.0,44007.0,Providence County,440070116004.0
56779,sg:562392ffb9324c8da727885cb461d3a0,CVS,RI,2019-11-01T00:00:00-04:00,2019-12-01T00:00:00-05:00,2859,366,10.0,"{""<5"":18,""5-20"":270,""21-60"":49,""61-240"":11,"">240"":18}",11380.0,41.955158000000004,-71.704053,446110.0,RI,44.0,44007.0,Providence County,440070129004.0
57263,sg:846e1343a2774935bf318284d3161d1e,US Air Force Recruiting,RI,2019-11-01T00:00:00-04:00,2019-12-01T00:00:00-05:00,2909,13,749.0,"{""<5"":0,""5-20"":1,""21-60"":0,""61-240"":0,"">240"":12}",2892.5,41.826087,-71.436128,921190.0,RI,44.0,44007.0,Providence County,440070025002.0
57286,sg:866526d8942c4f5ba82a9f2dfeab9873,Innovative Office Interiors,RI,2019-11-01T00:00:00-04:00,2019-12-01T00:00:00-05:00,2822,5,31.0,"{""<5"":0,""5-20"":2,""21-60"":2,""61-240"":0,"">240"":1}",346.0,41.567775,-71.540432,453210.0,RI,44.0,44009.0,Washington County,440090505001.0
57363,sg:8e4d62fe25f346539bffd9b9d86cd33e,West Broadway Middle School,RI,2019-11-01T00:00:00-04:00,2019-12-01T00:00:00-05:00,2909,312,327.5,"{""<5"":3,""5-20"":48,""21-60"":24,""61-240"":38,"">240"":199}",55058.5,41.817240000000005,-71.435965,611110.0,RI,44.0,44007.0,Providence County,440070010002.0
58239,sg:e5f9d368e8c54cb2a3fd8bcebf67977b,Kristina Grande Residential Properties,RI,2019-11-01T00:00:00-04:00,2019-12-01T00:00:00-05:00,2909,1,613.0,"{""<5"":0,""5-20"":0,""21-60"":0,""61-240"":0,"">240"":1}",240.0,41.819342,-71.43028000000001,531210.0,RI,44.0,44007.0,Providence County,440070011003.0
58245,sg:e65794c0d94441539a461c4c77fb9ee5,Darlington Early Childhood Center,RI,2019-11-01T00:00:00-04:00,2019-12-01T00:00:00-05:00,2861,28,38.0,"{""<5"":2,""5-20"":8,""21-60"":10,""61-240"":7,"">240"":1}",1803.5,41.875026,-71.35470699999999,624410.0,RI,44.0,44007.0,Providence County,440070168002.0
58534,sg:03a7b6cbd27f48cfb026feac88fe483d,West Warwick Fire Department Station 1 Headquarters,RI,2019-11-01T00:00:00-04:00,2019-12-01T00:00:00-05:00,2893,59,59.0,"{""<5"":2,""5-20"":15,""21-60"":14,""61-240"":17,"">240"":11}",5958.0,41.706540000000004,-71.522786,922160.0,RI,44.0,44003.0,Kent County,440030203003.0
58773,sg:179d1cb9329b4c6e83272a2e20643b91,Hair Designs,RI,2019-11-01T00:00:00-04:00,2019-12-01T00:00:00-05:00,2886,6,18.0,"{""<5"":0,""5-20"":4,""21-60"":1,""61-240"":1,"">240"":0}",241.0,41.722121,-71.441643,812112.0,RI,44.0,44003.0,Kent County,440030211004.0
59165,sg:3bebd51d8b7d413ba576aacf42dddf2a,Petro Home Services,RI,2019-11-01T00:00:00-04:00,2019-12-01T00:00:00-05:00,2895,2,46.5,"{""<5"":0,""5-20"":1,""21-60"":0,""61-240"":1,"">240"":0}",163.0,42.009027,-71.529609,221210.0,RI,44.0,44007.0,Providence County,440070174001.0
59772,sg:70780cd2eac944f7818872f3375ac04e,Universe Bar & Cafe,RI,2019-11-01T00:00:00-04:00,2019-12-01T00:00:00-05:00,2904,140,40.5,"{""<5"":3,""5-20"":38,""21-60"":58,""61-240"":33,"">240"":8}",9718.0,41.869026,-71.423787,722511.0,RI,44.0,44007.0,Providence County,440070118001.0
60076,sg:8d02d428e05c4f4f88fec7f72459ae53,Advance America Cash Advance Center,RI,2019-11-01T00:00:00-04:00,2019-12-01T00:00:00-05:00,2919,10,7.5,"{""<5"":0,""5-20"":9,""21-60"":1,""61-240"":0,"">240"":0}",153.0,41.825585,-71.499976,522291.0,RI,44.0,44007.0,Providence County,440070124014.0
60533,sg:b71f5bd32cf742dcafdc516e83c62521,White Dog Distilling,RI,2019-11-01T00:00:00-04:00,2019-12-01T00:00:00-05:00,2860,2,70.0,"{""<5"":0,""5-20"":1,""21-60"":0,""61-240"":1,"">240"":0}",163.0,41.872713,-71.407493,722515.0,RI,44.0,44007.0,Providence County,440070163001.0
60541,sg:b82b2eb234ff49c4b0348de95ceb90d5,Magniventris,RI,2019-11-01T00:00:00-04:00,2019-12-01T00:00:00-05:00,2905,178,98.0,"{""<5"":0,""5-20"":33,""21-60"":40,""61-240"":48,"">240"":57}",22936.5,41.787158000000005,-71.39695,448140.0,RI,44.0,44007.0,Providence County,440070001013.0
60746,sg:cb4c659565974e8e983503bc2219b6b8,Caribe Super Market,RI,2019-11-01T00:00:00-04:00,2019-12-01T00:00:00-05:00,2904,484,30.0,"{""<5"":12,""5-20"":189,""21-60"":118,""61-240"":100,"">240"":65}",37821.5,41.853419,-71.420053,445110.0,RI,44.0,44007.0,Providence County,440070029002.0
61047,sg:e7b2753e11fb40b096190ddb42fd9751,United Brothers Synagogue,RI,2019-11-01T00:00:00-04:00,2019-12-01T00:00:00-05:00,2809,6,104.0,"{""<5"":0,""5-20"":0,""21-60"":1,""61-240"":4,"">240"":1}",882.5,41.668913,-71.273425,813110.0,RI,44.0,44001.0,Bristol County,440010307004.0
61325,sg:030463e6c69e40f188db09329fb0009d,Abundance Coastal Designs,RI,2019-11-01T00:00:00-04:00,2019-12-01T00:00:00-05:00,2809,79,65.0,"{""<5"":4,""5-20"":15,""21-60"":18,""61-240"":29,"">240"":13}",8411.0,41.668405,-71.272577,453920.0,RI,44.0,44001.0,Bristol County,440010307003.0
61442,sg:0c952f610ee143c284d4d067b217abec,South Providence Library,RI,2019-11-01T00:00:00-04:00,2019-12-01T00:00:00-05:00,2905,111,86.0,"{""<5"":2,""5-20"":18,""21-60"":28,""61-240"":34,"">240"":29}",13441.0,41.801984999999995,-71.413684,519120.0,RI,44.0,44007.0,Providence County,440070004003.0
61478,sg:0ffa43d569c04e2f9af28e990b901943,Broaster House,RI,2019-11-01T00:00:00-04:00,2019-12-01T00:00:00-05:00,2895,204,71.0,"{""<5"":3,""5-20"":32,""21-60"":56,""61-240"":76,"">240"":37}",22993.5,42.00925,-71.51106,722511.0,RI,44.0,44007.0,Providence County,440070180001.0
61502,sg:124e9550c3d948cc93f86327b13e51e8,NAPA Auto Parts,RI,2019-11-01T00:00:00-04:00,2019-12-01T00:00:00-05:00,2898,14,10.0,"{""<5"":0,""5-20"":13,""21-60"":1,""61-240"":0,"">240"":0}",203.0,41.513762,-71.699522,441310.0,RI,44.0,44009.0,Washington County,440090506002.0
61713,sg:257f6347cc7e44eaa5951b72650f6518,DaVita,RI,2019-11-01T00:00:00-04:00,2019-12-01T00:00:00-05:00,2904,1,532.0,"{""<5"":0,""5-20"":0,""21-60"":0,""61-240"":0,"">240"":1}",240.0,41.864257,-71.449876,621492.0,RI,44.0,44007.0,Providence County,440070119023.0
62072,sg:459090f040434926a482437fad4876e5,JP Van Regenmorter DDS,RI,2019-11-01T00:00:00-04:00,2019-12-01T00:00:00-05:00,2878,74,59.0,"{""<5"":1,""5-20"":7,""21-60"":32,""61-240"":31,"">240"":3}",6771.5,41.63779,-71.205528,621210.0,RI,44.0,44005.0,Newport County,440050416021.0
62981,sg:9b83b99fe1234810b9b6ab79c2f6f0d1,Fisher Auto Parts,RI,2019-11-01T00:00:00-04:00,2019-12-01T00:00:00-05:00,2864,95,49.0,"{""<5"":2,""5-20"":32,""21-60"":19,""61-240"":29,"">240"":13}",8659.0,41.90423,-71.39236600000001,441310.0,RI,44.0,44007.0,Providence County,440070112003.0
63102,sg:a670f262f6294b5a85b4d84485b95c05,Mt Hope Community Baptist Church,RI,2019-11-01T00:00:00-04:00,2019-12-01T00:00:00-05:00,2906,7,132.0,"{""<5"":0,""5-20"":3,""21-60"":0,""61-240"":2,"">240"":2}",818.5,41.84665,-71.396456,813110.0,RI,44.0,44007.0,Providence County,440070032003.0
63230,sg:b45112e523ee4899bc574e2e18ad7f92,West Greenwich Liquors,RI,2019-11-01T00:00:00-04:00,2019-12-01T00:00:00-05:00,2817,125,23.0,"{""<5"":6,""5-20"":51,""21-60"":27,""61-240"":30,"">240"":11}",8901.0,41.612435999999995,-71.665426,445310.0,RI,44.0,44003.0,Kent County,440030208002.0
63231,sg:b471202c22924c0fb21c09b371949839,Town Pizza II,RI,2019-11-01T00:00:00-04:00,2019-12-01T00:00:00-05:00,2898,103,19.0,"{""<5"":2,""5-20"":55,""21-60"":14,""61-240"":30,"">240"":2}",6254.5,41.511733,-71.687265,722511.0,RI,44.0,44009.0,Washington County,440090506001.0
63245,sg:b5937bd655bb4f23ad33a1f1e42c786a,Taunton Ave Bakery,RI,2019-11-01T00:00:00-04:00,2019-12-01T00:00:00-05:00,2914,25,7.0,"{""<5"":0,""5-20"":22,""21-60"":3,""61-240"":0,"">240"":0}",396.5,41.8195,-71.371565,311811.0,RI,44.0,44007.0,Providence County,440070102006.0
63633,sg:db5d7346884e491daf44eb7f48a3708d,Eli's,RI,2019-11-01T00:00:00-04:00,2019-12-01T00:00:00-05:00,2807,9,41.0,"{""<5"":1,""5-20"":3,""21-60"":2,""61-240"":2,"">240"":1}",662.0,41.173162,-71.55905200000001,722511.0,RI,44.0,44009.0,Washington County,440090415001.0
64218,sg:169a730916ff4057a6daadfa092bb1fd,Sunoco,RI,2019-11-01T00:00:00-04:00,2019-12-01T00:00:00-05:00,2830,159,8.0,"{""<5"":14,""5-20"":92,""21-60"":37,""61-240"":15,"">240"":1}",5181.0,41.977711,-71.61455699999999,447110.0,RI,44.0,44007.0,Providence County,440070130021.0
64309,sg:1ced765d7af14df1b805c9515f97863d,Subway,RI,2019-11-01T00:00:00-04:00,2019-12-01T00:00:00-05:00,2860,185,22.0,"{""<5"":8,""5-20"":81,""21-60"":38,""61-240"":34,"">240"":24}",13448.5,41.871697,-71.413117,722513.0,RI,44.0,44007.0,Providence County,440070150001.0
64412,sg:255e50b9eb1a4013a3ec7bbfc9b2b4f6,Cozy Quarters Pet Inn,RI,2019-11-01T00:00:00-04:00,2019-12-01T00:00:00-05:00,2896,11,10.0,"{""<5"":0,""5-20"":10,""21-60"":1,""61-240"":0,"">240"":0}",165.5,41.953886,-71.490997,453910.0,RI,44.0,44007.0,Providence County,440070128032.0
64721,sg:3f6845dabca740b2b2f7e0786c682283,Coastway Bank,RI,2019-11-01T00:00:00-04:00,2019-12-01T00:00:00-05:00,2921,7,21.0,"{""<5"":0,""5-20"":3,""21-60"":1,""61-240"":0,"">240"":3}",798.0,41.783482,-71.515013,522110.0,RI,44.0,44007.0,Providence County,440070146002.0
65241,sg:6f5338ae61bf452ebdac1f5b83e71b8c,NBX Bikes of East Providence,RI,2019-11-01T00:00:00-04:00,2019-12-01T00:00:00-05:00,2914,168,40.5,"{""<5"":3,""5-20"":56,""21-60"":35,""61-240"":54,"">240"":20}",15052.0,41.813227000000005,-71.366654,451110.0,RI,44.0,44007.0,Providence County,440070104001.0
65433,sg:83c10f58332e4e41855ccf1405954d72,Studio101,RI,2019-11-01T00:00:00-04:00,2019-12-01T00:00:00-05:00,2903,19,121.0,"{""<5"":0,""5-20"":3,""21-60"":0,""61-240"":9,"">240"":7}",3072.0,41.822537,-71.4094,812112.0,RI,44.0,44007.0,Providence County,440070008003.0
65761,sg:a231d01c3ff34a18a59d49bdf208b8ba,Dear Hearts Iii,RI,2019-11-01T00:00:00-04:00,2019-12-01T00:00:00-05:00,2889,19,25.0,"{""<5"":3,""5-20"":4,""21-60"":9,""61-240"":2,"">240"":1}",963.0,41.703033000000005,-71.406222,722515.0,RI,44.0,44003.0,Kent County,440030218002.0
66129,sg:c6f1167fd8024bfe822a97d571559dd9,New York Style Pizza Boulevard,RI,2019-11-01T00:00:00-04:00,2019-12-01T00:00:00-05:00,2910,62,40.0,"{""<5"":2,""5-20"":19,""21-60"":16,""61-240"":9,"">240"":16}",6085.0,41.785768,-71.451173,722511.0,RI,44.0,44007.0,Providence County,440070140003.0
66162,sg:ca4df931cbf9446ba894b73a5960afc5,International jewelers inc,RI,2019-11-01T00:00:00-04:00,2019-12-01T00:00:00-05:00,2904,1,15.0,"{""<5"":0,""5-20"":1,""21-60"":0,""61-240"":0,"">240"":0}",12.5,41.867446,-71.438769,448310.0,RI,44.0,44007.0,Providence County,440070118005.0
66226,sg:d2a625c5579149459019d8b610fd6d47,Applebee's,RI,2019-11-01T00:00:00-04:00,2019-12-01T00:00:00-05:00,2816,518,45.0,"{""<5"":5,""5-20"":89,""21-60"":272,""61-240"":150,"">240"":2}",35196.0,41.662063,-71.546425,722511.0,RI,44.0,44003.0,Kent County,440030206033.0
66414,sg:e6e77247fee74565b1b106bf518b096d,Advance Auto Parts,RI,2019-11-01T00:00:00-04:00,2019-12-01T00:00:00-05:00,2861,17,10.0,"{""<5"":0,""5-20"":16,""21-60"":1,""61-240"":0,"">240"":0}",240.5,41.889109000000005,-71.367778,441310.0,RI,44.0,44007.0,Providence County,440070155003.0
66679,sg:015c7e51eaf442ba903261833d91fd31,Little Caesars,RI,2019-11-01T00:00:00-04:00,2019-12-01T00:00:00-05:00,2910,158,25.0,"{""<5"":3,""5-20"":66,""21-60"":24,""61-240"":27,"">240"":38}",14988.0,41.779422,-71.444193,722513.0,RI,44.0,44007.0,Providence County,440070140005.0
66857,sg:0efea47f828f4a1dbcfa84209db582fe,McCarthy's Auto Repair & Service,RI,2019-11-01T00:00:00-04:00,2019-12-01T00:00:00-05:00,2809,7,46.0,"{""<5"":0,""5-20"":2,""21-60"":4,""61-240"":1,"">240"":0}",337.5,41.674189,-71.259507,811111.0,RI,44.0,44001.0,Bristol County,440010308001.0
67004,sg:1d8e1846f6b74732a0178824c4e58757,BrewGrindz,RI,2019-11-01T00:00:00-04:00,2019-12-01T00:00:00-05:00,2904,149,21.0,"{""<5"":5,""5-20"":68,""21-60"":50,""61-240"":21,"">240"":5}",7248.0,41.862372,-71.45841,722515.0,RI,44.0,44007.0,Providence County,440070119021.0
67317,sg:3bcde52faf3e489b9f539f32eb259d3f,Wendy's,RI,2019-11-01T00:00:00-04:00,2019-12-01T00:00:00-05:00,2852,386,10.0,"{""<5"":17,""5-20"":268,""21-60"":56,""61-240"":15,"">240"":30}",15118.0,41.631214,-71.468968,722513.0,RI,44.0,44009.0,Washington County,440090501035.0
67855,sg:6bf10d5bcac64968ad17f6834616ae6a,Happy Garden,RI,2019-11-01T00:00:00-04:00,2019-12-01T00:00:00-05:00,2888,1,316.0,"{""<5"":0,""5-20"":0,""21-60"":0,""61-240"":0,"">240"":1}",240.0,41.741981,-71.406599,722511.0,RI,44.0,44003.0,Kent County,440030213004.0
68210,sg:8b09c87db1954986bb9487e53726d25c,The Chicken Coop on Smith Hill,RI,2019-11-01T00:00:00-04:00,2019-12-01T00:00:00-05:00,2908,121,54.0,"{""<5"":10,""5-20"":35,""21-60"":16,""61-240"":17,"">240"":43}",13989.0,41.834876,-71.42435400000001,722511.0,RI,44.0,44007.0,Providence County,440070026001.0
68395,sg:9bf4e0cccb274b639b8b84de51618f89,Dunkin',RI,2019-11-01T00:00:00-04:00,2019-12-01T00:00:00-05:00,2874,278,7.0,"{""<5"":23,""5-20"":215,""21-60"":31,""61-240"":8,"">240"":1}",5444.5,41.494968,-71.457321,722515.0,RI,44.0,44009.0,Washington County,440090513051.0
68790,sg:c19fd4d5fb7247409270b929580de59d,Smithfield Dental Associates,RI,2019-11-01T00:00:00-04:00,2019-12-01T00:00:00-05:00,2917,14,290.0,"{""<5"":0,""5-20"":0,""21-60"":0,""61-240"":1,"">240"":13}",3270.5,41.865029,-71.532985,621210.0,RI,44.0,44007.0,Providence County,440070127021.0
69054,sg:dc7283ec2b814c519fa8fceece8867ce,Providence Country Day School,RI,2019-11-01T00:00:00-04:00,2019-12-01T00:00:00-05:00,2914,905,55.0,"{""<5"":15,""5-20"":266,""21-60"":196,""61-240"":283,"">240"":145}",88692.0,41.816731,-71.354381,611110.0,RI,44.0,44007.0,Providence County,440070103002.0
69586,sg:112c314a7a40465bb8eccd812af3f53c,Rangoon Chinese & Japanese Restaurant,RI,2019-11-01T00:00:00-04:00,2019-12-01T00:00:00-05:00,2917,88,44.5,"{""<5"":0,""5-20"":24,""21-60"":30,""61-240"":26,"">240"":8}",7348.0,41.873028999999995,-71.495144,722511.0,RI,44.0,44007.0,Providence County,440070126024.0
69720,sg:1c14b1dcd44c40b0a5610fcc258b42c8,Tot Lot,RI,2019-11-01T00:00:00-04:00,2019-12-01T00:00:00-05:00,2906,48,40.0,"{""<5"":0,""5-20"":13,""21-60"":15,""61-240"":18,"">240"":2}",3959.0,41.843709999999994,-71.396007,713940.0,RI,44.0,44007.0,Providence County,440070032001.0
70537,sg:67c7d74572e14d4c8acb418ca206e80a,Just Fabric,RI,2019-11-01T00:00:00-04:00,2019-12-01T00:00:00-05:00,2920,20,11.5,"{""<5"":2,""5-20"":12,""21-60"":5,""61-240"":0,"">240"":1}",597.5,41.784439,-71.473389,451130.0,RI,44.0,44007.0,Providence County,440070148003.0
70583,sg:6b98fdefdcc7403aa6dab8a3c6d4610b,NBX Bikes of Narragansett,RI,2019-11-01T00:00:00-04:00,2019-12-01T00:00:00-05:00,2882,51,75.0,"{""<5"":0,""5-20"":11,""21-60"":9,""61-240"":19,"">240"":12}",6241.5,41.476768,-71.435743,451110.0,RI,44.0,44009.0,Washington County,440090515024.0
70643,sg:723284e8c2f94968a5e1336ba83f6637,Agape,RI,2019-11-01T00:00:00-04:00,2019-12-01T00:00:00-05:00,2906,40,49.5,"{""<5"":0,""5-20"":5,""21-60"":19,""61-240"":4,"">240"":12}",4314.0,41.827319,-71.386422,621111.0,RI,44.0,44007.0,Providence County,440070035003.0
70708,sg:7999123275f444aa94b6b5fbd1744478,Sarto,RI,2019-11-01T00:00:00-04:00,2019-12-01T00:00:00-05:00,2903,461,80.0,"{""<5"":8,""5-20"":75,""21-60"":103,""61-240"":214,"">240"":61}",51976.0,41.823143,-71.410607,722511.0,RI,44.0,44007.0,Providence County,440070008003.0
70856,sg:89dca73cf89b4dafa4a1cd0877e35af3,Papa Sam's Pizza,RI,2019-11-01T00:00:00-04:00,2019-12-01T00:00:00-05:00,2914,34,34.5,"{""<5"":0,""5-20"":16,""21-60"":7,""61-240"":4,"">240"":7}",2765.5,41.813367,-71.370182,722511.0,RI,44.0,44007.0,Providence County,440070104001.0
71208,sg:ad0440644b5a4b4898d9e876a65ed3df,Boilermakers,RI,2019-11-01T00:00:00-04:00,2019-12-01T00:00:00-05:00,2895,132,73.5,"{""<5"":3,""5-20"":23,""21-60"":32,""61-240"":42,"">240"":32}",15592.0,42.001095,-71.513786,722511.0,RI,44.0,44007.0,Providence County,440070180003.0
71596,sg:d3fc77d0ab4046588d405c000a1b9a2b,Providence Jewelry Museum,RI,2019-11-01T00:00:00-04:00,2019-12-01T00:00:00-05:00,2904,216,108.5,"{""<5"":2,""5-20"":49,""21-60"":35,""61-240"":54,"">240"":76}",28402.0,41.851999,-71.414052,712110.0,RI,44.0,44007.0,Providence County,440070029003.0
72197,sg:0c46523b61be4777b5112b564c42a632,Eden Park School,RI,2019-11-01T00:00:00-04:00,2019-12-01T00:00:00-05:00,2910,283,31.0,"{""<5"":4,""5-20"":105,""21-60"":56,""61-240"":59,"">240"":59}",26630.0,41.772403000000004,-71.446072,611110.0,RI,44.0,44007.0,Providence County,440070137023.0
72807,sg:4467eea3ea964b73902c3075210f5681,Papi's Tacos,RI,2019-11-01T00:00:00-04:00,2019-12-01T00:00:00-05:00,2889,153,43.0,"{""<5"":1,""5-20"":39,""21-60"":50,""61-240"":34,"">240"":29}",14592.0,41.724138,-71.382548,722511.0,RI,44.0,44003.0,Kent County,440030215011.0
72842,sg:476ea91a5ac24515b556c360d5077e36,Sandy Lane Auto Sales & Repairs,RI,2019-11-01T00:00:00-04:00,2019-12-01T00:00:00-05:00,2889,45,24.0,"{""<5"":1,""5-20"":17,""21-60"":14,""61-240"":13,"">240"":0}",2738.5,41.704776,-71.418227,441120.0,RI,44.0,44003.0,Kent County,440030219031.0
73062,sg:5bd1fa20a730401dba99beda14bb35cf,Sakonnet Greenway Trail,RI,2019-11-01T00:00:00-04:00,2019-12-01T00:00:00-05:00,2832,8,10.0,"{""<5"":0,""5-20"":7,""21-60"":1,""61-240"":0,"">240"":0}",128.0,41.541034,-71.696512,712190.0,RI,44.0,44009.0,Washington County,440090507001.0
73490,sg:84d70d937aa049eeb2959d2c53f0a89d,Dialysis Center Of Pawtucket,RI,2019-11-01T00:00:00-04:00,2019-12-01T00:00:00-05:00,2860,20,84.5,"{""<5"":1,""5-20"":7,""21-60"":0,""61-240"":8,"">240"":4}",2254.0,41.87975,-71.368375,621492.0,RI,44.0,44007.0,Providence County,440070171002.0
73856,sg:a78d909083e14ad2ad7e630263341901,Verizon Wireless,RI,2019-11-01T00:00:00-04:00,2019-12-01T00:00:00-05:00,2852,85,16.0,"{""<5"":1,""5-20"":51,""21-60"":21,""61-240"":11,"">240"":1}",3386.0,41.581185999999995,-71.500341,517312.0,RI,44.0,44009.0,Washington County,440090503011.0
74113,sg:c247e8921f4b4e98afa5ab9f3e12a3c8,3 Amigos Taqueria,RI,2019-11-01T00:00:00-04:00,2019-12-01T00:00:00-05:00,2863,87,29.0,"{""<5"":2,""5-20"":35,""21-60"":31,""61-240"":15,"">240"":4}",4915.5,41.887189,-71.39726800000001,722511.0,RI,44.0,44007.0,Providence County,440070110003.0
74720,sg:ff305bdb56184ac38531878e7f8d5e3d,Coventry Pines Country Club,RI,2019-11-01T00:00:00-04:00,2019-12-01T00:00:00-05:00,2816,30,10.5,"{""<5"":4,""5-20"":14,""21-60"":4,""61-240"":8,"">240"":0}",1551.0,41.669672,-71.630027,713910.0,RI,44.0,44003.0,Kent County,440030207022.0
74824,sg:081e93be3c0d4d218d48c30c5179bf96,Birch,RI,2019-11-01T00:00:00-04:00,2019-12-01T00:00:00-05:00,2903,59,27.0,"{""<5"":1,""5-20"":23,""21-60"":19,""61-240"":16,"">240"":0}",3467.5,41.82202,-71.416012,722511.0,RI,44.0,44007.0,Providence County,440070008003.0
75295,sg:3302bc478db04d50b909e48237dc5eb3,Autowizard Inc,RI,2019-11-01T00:00:00-04:00,2019-12-01T00:00:00-05:00,2828,45,61.0,"{""<5"":0,""5-20"":12,""21-60"":10,""61-240"":20,"">240"":3}",4285.0,41.866554,-71.53691500000001,811111.0,RI,44.0,44007.0,Providence County,440070127021.0
75445,sg:406262df86e54f7d9339e8844e0413fc,Complete Car Care,RI,2019-11-01T00:00:00-04:00,2019-12-01T00:00:00-05:00,2885,2,262.5,"{""<5"":0,""5-20"":1,""21-60"":0,""61-240"":0,"">240"":1}",252.5,41.743934,-71.272689,811192.0,RI,44.0,44001.0,Bristol County,440010306011.0
75523,sg:4652429334e34cb49c20a3fcd2b0f9d7,Hill and Harbor Cigar Lounge,RI,2019-11-01T00:00:00-04:00,2019-12-01T00:00:00-05:00,2818,46,74.0,"{""<5"":0,""5-20"":8,""21-60"":13,""61-240"":24,"">240"":1}",4478.5,41.656568,-71.45229599999999,453991.0,RI,44.0,44003.0,Kent County,440030209011.0
75713,sg:57effc60b2de47218d9d21f6baebc9a3,RI Pole Space,RI,2019-11-01T00:00:00-04:00,2019-12-01T00:00:00-05:00,2865,47,29.0,"{""<5"":1,""5-20"":19,""21-60"":15,""61-240"":9,"">240"":3}",2922.0,41.893578999999995,-71.408107,713940.0,RI,44.0,44007.0,Providence County,440070117021.0
75995,sg:72443970978641959c0869466992fb67,Taproot Brewing Co Newport Vineyards,RI,2019-11-01T00:00:00-04:00,2019-12-01T00:00:00-05:00,2842,60,60.0,"{""<5"":0,""5-20"":10,""21-60"":20,""61-240"":29,"">240"":1}",5539.5,41.529309000000005,-71.272643,312120.0,RI,44.0,44005.0,Newport County,440050404001.0
76348,sg:93002aeb06194b999ca2074f88bf81da,Cracker Barrel,RI,2019-11-01T00:00:00-04:00,2019-12-01T00:00:00-05:00,2816,728,52.0,"{""<5"":4,""5-20"":110,""21-60"":306,""61-240"":278,"">240"":30}",62817.0,41.661095,-71.546461,722511.0,RI,44.0,44003.0,Kent County,440030209031.0
76495,sg:a3df741f004046d69bfcf4e9c55a4024,Dunkin',RI,2019-11-01T00:00:00-04:00,2019-12-01T00:00:00-05:00,2891,99,6.0,"{""<5"":9,""5-20"":73,""21-60"":12,""61-240"":3,"">240"":2}",2352.5,41.367891,-71.81869,722515.0,RI,44.0,44009.0,Washington County,440090508021.0
76627,sg:b0082872e6a34da187724a25b16a41db,BoneBuilders of RI,RI,2019-11-01T00:00:00-04:00,2019-12-01T00:00:00-05:00,2828,265,119.0,"{""<5"":1,""5-20"":37,""21-60"":63,""61-240"":89,"">240"":75}",34411.0,41.880767999999996,-71.571965,713940.0,RI,44.0,44007.0,Providence County,440070127013.0
76780,sg:bda6da23cee040419adec7744b91804b,Cultro,RI,2019-11-01T00:00:00-04:00,2019-12-01T00:00:00-05:00,2885,75,67.0,"{""<5"":0,""5-20"":15,""21-60"":19,""61-240"":29,"">240"":12}",8201.5,41.725204,-71.281873,722511.0,RI,44.0,44001.0,Bristol County,440010305003.0
77261,sg:eb43af2d0ce645a98f9d7d32f63b33dd,West Marine,RI,2019-11-01T00:00:00-04:00,2019-12-01T00:00:00-05:00,2882,31,9.0,"{""<5"":1,""5-20"":22,""21-60"":6,""61-240"":2,"">240"":0}",821.5,41.430414,-71.484883,441222.0,RI,44.0,44009.0,Washington County,440090515044.0
77839,sg:20f2d7c0bb1a4c59b544ac66be24ea09,Harbour Point Financial Group,RI,2019-11-01T00:00:00-04:00,2019-12-01T00:00:00-05:00,2828,74,37.5,"{""<5"":4,""5-20"":23,""21-60"":17,""61-240"":14,"">240"":16}",6933.0,41.873852,-71.557045,524210.0,RI,44.0,44007.0,Providence County,440070127013.0
78976,sg:897c1b5009fe468382f737befcc7270e,Mobil,RI,2019-11-01T00:00:00-04:00,2019-12-01T00:00:00-05:00,2816,178,9.0,"{""<5"":14,""5-20"":115,""21-60"":33,""61-240"":11,"">240"":5}",5664.5,41.704975,-71.616807,447110.0,RI,44.0,44003.0,Kent County,440030207031.0
79293,sg:a70ba4ff591d4de5846891a70c49ffb7,Sky Lounge,RI,2019-11-01T00:00:00-04:00,2019-12-01T00:00:00-05:00,2917,12,259.0,"{""<5"":0,""5-20"":2,""21-60"":0,""61-240"":4,"">240"":6}",2067.0,41.877183,-71.470789,721110.0,RI,44.0,44007.0,Providence County,440070126026.0
79458,sg:b8574d9a235746d1b273aabac2b90a2b,SandFree,RI,2019-11-01T00:00:00-04:00,2019-12-01T00:00:00-05:00,2826,7,66.0,"{""<5"":0,""5-20"":0,""21-60"":3,""61-240"":2,"">240"":2}",902.5,41.983204,-71.660178,561740.0,RI,44.0,44007.0,Providence County,440070130022.0
79652,sg:cafc2dfcbd364248a89f8a9bc857527a,The Home Depot,RI,2019-11-01T00:00:00-04:00,2019-12-01T00:00:00-05:00,2891,1034,19.0,"{""<5"":17,""5-20"":555,""21-60"":386,""61-240"":48,"">240"":28}",36557.0,41.362638000000004,-71.807355,444130.0,RI,44.0,44009.0,Washington County,440090509012.0
79707,sg:d0dcd4fdc5fa42f3be104ba17b7b5783,Warwick Industrial Fasteners,RI,2019-11-01T00:00:00-04:00,2019-12-01T00:00:00-05:00,2888,65,198.0,"{""<5"":0,""5-20"":18,""21-60"":6,""61-240"":10,"">240"":31}",9413.0,41.742163,-71.442044,452319.0,RI,44.0,44003.0,Kent County,440030211004.0
79791,sg:da24f5b64f134adfb24958045db418fb,Little Engine,RI,2019-11-01T00:00:00-04:00,2019-12-01T00:00:00-05:00,2909,51,41.0,"{""<5"":0,""5-20"":19,""21-60"":15,""61-240"":13,"">240"":4}",3761.5,41.826705,-71.433989,713940.0,RI,44.0,44007.0,Providence County,440070025002.0
79830,sg:dce40d9d15874ae7a19f9581f876b68a,Berkman Lawrence E DMD,RI,2019-11-01T00:00:00-04:00,2019-12-01T00:00:00-05:00,2833,6,14.0,"{""<5"":0,""5-20"":5,""21-60"":1,""61-240"":0,"">240"":0}",103.0,41.512867,-71.70864,621210.0,RI,44.0,44009.0,Washington County,440090507001.0
79956,sg:eae0a808d48b4f8dacdf1c7cea819b1d,Storage Pros,RI,2019-11-01T00:00:00-04:00,2019-12-01T00:00:00-05:00,2879,15,11.0,"{""<5"":0,""5-20"":12,""21-60"":2,""61-240"":1,"">240"":0}",381.5,41.443052,-71.483526,531130.0,RI,44.0,44009.0,Washington County,440090512024.0
80426,sg:185179de365e4f9eb36015f441395a45,Caterpillar,RI,2019-11-01T00:00:00-04:00,2019-12-01T00:00:00-05:00,2921,5,51.0,"{""<5"":0,""5-20"":0,""21-60"":3,""61-240"":2,"">240"":0}",422.5,41.788329,-71.513852,423810.0,,,,,
80576,sg:25b0743080ae4223b23b70362970940e,Dunkin',RI,2019-11-01T00:00:00-04:00,2019-12-01T00:00:00-05:00,2861,341,10.0,"{""<5"":21,""5-20"":216,""21-60"":42,""61-240"":31,"">240"":31}",16559.0,41.888865,-71.368724,722515.0,RI,44.0,44007.0,Providence County,440070155003.0
80604,sg:28050989dc4249f3afcf875e18c06047,Bayside Country Club Apts,RI,2019-11-01T00:00:00-04:00,2019-12-01T00:00:00-05:00,2889,76,57.5,"{""<5"":1,""5-20"":20,""21-60"":17,""61-240"":15,"">240"":23}",8718.5,41.707514,-71.38572099999999,451110.0,RI,44.0,44003.0,Kent County,440030218001.0
80704,sg:31836704f5d14fc58f2ce97fd9491524,Village Hearth Bakery,RI,2019-11-01T00:00:00-04:00,2019-12-01T00:00:00-05:00,2835,34,12.5,"{""<5"":3,""5-20"":17,""21-60"":10,""61-240"":4,"">240"":0}",1227.0,41.498265,-71.374995,311811.0,RI,44.0,44005.0,Newport County,440050413004.0
80709,sg:32564ec0aa344556abaae26970988843,Best Eastern Restaurant,RI,2019-11-01T00:00:00-04:00,2019-12-01T00:00:00-05:00,2863,62,15.0,"{""<5"":2,""5-20"":38,""21-60"":11,""61-240"":7,"">240"":4}",2939.0,41.887186,-71.401335,722511.0,RI,44.0,44007.0,Providence County,440070111002.0
80783,sg:38b753c59ee84909a68f528d2eddbcec,Sakonnet Grooming & Pet Wellness,RI,2019-11-01T00:00:00-04:00,2019-12-01T00:00:00-05:00,2878,96,24.5,"{""<5"":2,""5-20"":43,""21-60"":21,""61-240"":6,"">240"":24}",8056.0,41.658714,-71.192357,453910.0,RI,44.0,44005.0,Newport County,440050416022.0
80877,sg:40cd393f9b0e437d86eb3c7838002460,Nancy's Hair Salon,RI,2019-11-01T00:00:00-04:00,2019-12-01T00:00:00-05:00,2860,164,64.0,"{""<5"":2,""5-20"":25,""21-60"":51,""61-240"":66,"">240"":20}",17116.0,41.858859,-71.364277,812112.0,RI,44.0,44007.0,Providence County,440070171003.0
81003,sg:4c034b5d60c34a3da8d02e611d66f3c8,City Limit Auto,RI,2019-11-01T00:00:00-04:00,2019-12-01T00:00:00-05:00,2919,63,97.0,"{""<5"":0,""5-20"":12,""21-60"":14,""61-240"":17,"">240"":20}",8075.5,41.819338,-71.470213,,RI,44.0,44007.0,Providence County,440070018006.0
81030,sg:4e0b72dad3464beaa1be6a3fa4e03ad2,Diversified Global Technologies,RI,2019-11-01T00:00:00-04:00,2019-12-01T00:00:00-05:00,2895,108,137.5,"{""<5"":2,""5-20"":29,""21-60"":9,""61-240"":36,"">240"":32}",13830.0,42.011289,-71.528997,446110.0,RI,44.0,44007.0,Providence County,440070173003.0
81180,sg:5bc2d7e52c364be6b540d213a99870bb,Newport Ambassador Inn,RI,2019-11-01T00:00:00-04:00,2019-12-01T00:00:00-05:00,2842,53,27.0,"{""<5"":2,""5-20"":23,""21-60"":6,""61-240"":8,"">240"":14}",5099.5,41.536206,-71.291472,721110.0,RI,44.0,44005.0,Newport County,440050403041.0
81465,sg:7741ffed4a314913a59b15294c10cfc4,Providence Fire Department Engine Company 10 Rescue 2,RI,2019-11-01T00:00:00-04:00,2019-12-01T00:00:00-05:00,2909,43,737.0,"{""<5"":0,""5-20"":7,""21-60"":3,""61-240"":4,"">240"":29}",7771.0,41.818977000000004,-71.460059,922160.0,RI,44.0,44007.0,Providence County,440070018002.0
81507,sg:7be3ce607ae94fbd9e83861c75f8b648,Alcohol & Drug Program,RI,2019-11-01T00:00:00-04:00,2019-12-01T00:00:00-05:00,2906,147,36.0,"{""<5"":0,""5-20"":53,""21-60"":54,""61-240"":30,"">240"":10}",9764.5,41.843395,-71.38103000000001,621111.0,RI,44.0,44007.0,Providence County,440070034002.0
82127,sg:b84d14e3522745738366ab39f59c3581,MidiCi Neopolitan Pizza,RI,2019-11-01T00:00:00-04:00,2019-12-01T00:00:00-05:00,2914,162,40.5,"{""<5"":5,""5-20"":41,""21-60"":66,""61-240"":49,"">240"":1}",10812.5,41.805149,-71.341391,722511.0,RI,44.0,44007.0,Providence County,440070105011.0
82246,sg:c2a24bbef46f47028d02acfd7659eab7,Prior Service,RI,2019-11-01T00:00:00-04:00,2019-12-01T00:00:00-05:00,2904,2,122.5,"{""<5"":0,""5-20"":0,""21-60"":0,""61-240"":2,"">240"":0}",301.0,41.857642,-71.42160200000001,811111.0,RI,44.0,44007.0,Providence County,440070029005.0
82955,sg:0b8ea0a8fe964547a11299703cec7013,Potter Burns School,RI,2019-11-01T00:00:00-04:00,2019-12-01T00:00:00-05:00,2861,321,156.0,"{""<5"":5,""5-20"":95,""21-60"":47,""61-240"":21,"">240"":153}",42984.0,41.88187,-71.353499,611110.0,RI,44.0,44007.0,Providence County,440070158003.0
83154,sg:1b0ff5a765214ae5868cd9af57bd6878,OB GYN Associates Inc,RI,2019-11-01T00:00:00-04:00,2019-12-01T00:00:00-05:00,2914,113,30.0,"{""<5"":0,""5-20"":42,""21-60"":32,""61-240"":10,"">240"":29}",10286.0,41.808628000000006,-71.34692199999999,621111.0,RI,44.0,44007.0,Providence County,440070105011.0
83338,sg:2b5d1d46528442a5b38e83a05dea1a73,Nathanael Greene Middle,RI,2019-11-01T00:00:00-04:00,2019-12-01T00:00:00-05:00,2908,717,303.0,"{""<5"":13,""5-20"":113,""21-60"":62,""61-240"":124,"">240"":405}",119818.0,41.834524,-71.43159399999999,611110.0,RI,44.0,44007.0,Providence County,440070023002.0
83398,sg:30768c50d3164ff190e3afa23d6b51a8,South Kingstown High,RI,2019-11-01T00:00:00-04:00,2019-12-01T00:00:00-05:00,2879,1829,203.0,"{""<5"":12,""5-20"":208,""21-60"":259,""61-240"":510,"">240"":840}",291474.5,41.446163,-71.49503100000001,611110.0,RI,44.0,44009.0,Washington County,440090512022.0
84009,sg:6a89555052e64007ad867e164420cb33,Margaret I Robertson School,RI,2019-11-01T00:00:00-04:00,2019-12-01T00:00:00-05:00,2863,27,298.0,"{""<5"":0,""5-20"":4,""21-60"":0,""61-240"":8,"">240"":15}",4854.0,41.896908,-71.389379,611110.0,RI,44.0,44007.0,Providence County,440070109003.0
84465,sg:9566a81f445a4befb69c7731ae66ad22,The Miriam Hospital,RI,2019-11-01T00:00:00-04:00,2019-12-01T00:00:00-05:00,2906,3999,148.0,"{""<5"":32,""5-20"":586,""21-60"":643,""61-240"":1238,"">240"":1500}",579765.5,41.852090000000004,-71.398397,622110.0,RI,44.0,44007.0,Providence County,440070033004.0
84866,sg:bb3bc3f4cd414f639cea7d8985371a12,Spring Green Auto Body,RI,2019-11-01T00:00:00-04:00,2019-12-01T00:00:00-05:00,2910,3,16.0,"{""<5"":0,""5-20"":3,""21-60"":0,""61-240"":0,"">240"":0}",37.5,41.762283000000004,-71.42475300000001,811121.0,RI,44.0,44007.0,Providence County,440070136002.0
85170,sg:d811de6c90cb4b5e97485168dad5421f,East Bay Auto Sales,RI,2019-11-01T00:00:00-04:00,2019-12-01T00:00:00-05:00,2885,10,12.5,"{""<5"":0,""5-20"":6,""21-60"":4,""61-240"":0,"">240"":0}",237.0,41.734048,-71.273421,441120.0,RI,44.0,44001.0,Bristol County,440010306011.0
85173,sg:d85c854090b04cad9a3ec65d3c375972,Arigna Irish Pub & Coal Fire Kitchen,RI,2019-11-01T00:00:00-04:00,2019-12-01T00:00:00-05:00,2861,358,52.5,"{""<5"":8,""5-20"":77,""21-60"":109,""61-240"":148,"">240"":16}",31511.0,41.878405,-71.355037,722511.0,RI,44.0,44007.0,Providence County,440070168001.0
85430,sg:f2cae252a1b24106aede6769b748a0fc,Native Fitness,RI,2019-11-01T00:00:00-04:00,2019-12-01T00:00:00-05:00,2871,217,43.0,"{""<5"":2,""5-20"":35,""21-60"":99,""61-240"":80,"">240"":1}",16732.0,41.59752,-71.261094,713940.0,RI,44.0,44005.0,Newport County,440050401035.0
85447,sg:f4f8f24fcbb34593a8ae4050bb4f8ca7,Boys & Girls Clubs of America,RI,2019-11-01T00:00:00-04:00,2019-12-01T00:00:00-05:00,2909,18,19.5,"{""<5"":0,""5-20"":9,""21-60"":4,""61-240"":3,"">240"":2}",1206.0,41.82405,-71.455086,624110.0,RI,44.0,44007.0,Providence County,440070020003.0
86447,sg:51e3f69efd0446f2a4ed0c7c08aeaf4d,Doolittle Sharon DVM,RI,2019-11-01T00:00:00-04:00,2019-12-01T00:00:00-05:00,2917,4,253.5,"{""<5"":0,""5-20"":0,""21-60"":1,""61-240"":1,"">240"":2}",671.0,41.86918,-71.509749,541940.0,RI,44.0,44007.0,Providence County,440070126023.0
86487,sg:5567644fd0a740cabc2f2b1763ec7cd6,Greenwood Inn,RI,2019-11-01T00:00:00-04:00,2019-12-01T00:00:00-05:00,2886,405,59.0,"{""<5"":2,""5-20"":75,""21-60"":134,""61-240"":172,"">240"":22}",37535.5,41.711797999999995,-71.448298,722511.0,RI,44.0,44003.0,Kent County,440030221001.0
87015,sg:878a33e584fd471f8a6d2c3fd44ae5f9,Sakonnet River Outfitters,RI,2019-11-01T00:00:00-04:00,2019-12-01T00:00:00-05:00,2878,71,33.0,"{""<5"":0,""5-20"":26,""21-60"":24,""61-240"":19,"">240"":2}",4636.5,41.653938000000004,-71.197939,451110.0,RI,44.0,44005.0,Newport County,440050416022.0
87082,sg:8f16de60442e42da92df41cf64957996,Time For You Studio,RI,2019-11-01T00:00:00-04:00,2019-12-01T00:00:00-05:00,2889,32,117.5,"{""<5"":0,""5-20"":7,""21-60"":7,""61-240"":9,"">240"":9}",3885.5,41.723893,-71.407143,812199.0,RI,44.0,44003.0,Kent County,440030214012.0
87127,sg:93f868861c1d4b76bb5ed5d7422ebd84,Amerigo Sailboat Charters,RI,2019-11-01T00:00:00-04:00,2019-12-01T00:00:00-05:00,2840,2,11.0,"{""<5"":0,""5-20"":2,""21-60"":0,""61-240"":0,"">240"":0}",25.0,41.483636,-71.315506,441222.0,RI,44.0,44005.0,Newport County,440050410001.0
87217,sg:9cb3b82e8019460e946dec6f9a670e09,Hair By The Water,RI,2019-11-01T00:00:00-04:00,2019-12-01T00:00:00-05:00,2830,3,67.0,"{""<5"":0,""5-20"":1,""21-60"":0,""61-240"":1,"">240"":1}",403.0,41.964912,-71.67528100000001,812112.0,RI,44.0,44007.0,Providence County,440070129001.0
87943,sg:e881a7e6dbe642f68d0ba4c9a857319a,Pizza Hut,RI,2019-11-01T00:00:00-04:00,2019-12-01T00:00:00-05:00,2809,47,14.0,"{""<5"":1,""5-20"":30,""21-60"":4,""61-240"":7,"">240"":5}",2793.0,41.677494,-71.260355,722513.0,RI,44.0,44001.0,Bristol County,440010308001.0
88077,sg:f5e9bf066f8c49e8a027a83bcc6594dc,Envisions Eye Care,RI,2019-11-01T00:00:00-04:00,2019-12-01T00:00:00-05:00,2893,201,57.0,"{""<5"":3,""5-20"":34,""21-60"":68,""61-240"":50,"">240"":46}",21751.5,41.685198,-71.50308299999999,446130.0,RI,44.0,44003.0,Kent County,440030201021.0
88194,sg:018e88fc8e1d4a18948ae328598bec8b,D'alessandro Vincent A,RI,2019-11-01T00:00:00-04:00,2019-12-01T00:00:00-05:00,2919,28,21.5,"{""<5"":0,""5-20"":12,""21-60"":13,""61-240"":3,"">240"":0}",1128.0,41.8434,-71.502424,621111.0,RI,44.0,44007.0,Providence County,440070123002.0
88518,sg:1c4769222b3a4ae0abeda7dc074eaeb2,Bradford Sutcliffe Insurance,RI,2019-11-01T00:00:00-04:00,2019-12-01T00:00:00-05:00,2828,43,275.0,"{""<5"":1,""5-20"":3,""21-60"":2,""61-240"":12,"">240"":25}",7927.0,41.870528,-71.537583,524210.0,RI,44.0,44007.0,Providence County,440070127023.0
89720,sg:8fc237becbee4537b54c8f2160265ff1,Skate Pond,RI,2019-11-01T00:00:00-04:00,2019-12-01T00:00:00-05:00,2865,283,14.0,"{""<5"":11,""5-20"":150,""21-60"":63,""61-240"":37,"">240"":22}",15302.5,41.935922999999995,-71.45323,713940.0,RI,44.0,44007.0,Providence County,440070116004.0
90052,sg:af3de4e2a2434b8583b863b609ad3a18,Wickford Package Store,RI,2019-11-01T00:00:00-04:00,2019-12-01T00:00:00-05:00,2852,43,7.0,"{""<5"":3,""5-20"":33,""21-60"":2,""61-240"":4,"">240"":1}",1343.0,41.571832,-71.453845,445310.0,RI,44.0,44009.0,Washington County,440090503023.0
90500,sg:da199c8cac9d498b956afa60a767bdb6,Greenbush Elementary School,RI,2019-11-01T00:00:00-04:00,2019-12-01T00:00:00-05:00,2893,205,41.0,"{""<5"":3,""5-20"":77,""21-60"":37,""61-240"":27,"">240"":61}",21172.0,41.669928000000006,-71.525221,611110.0,RI,44.0,44003.0,Kent County,440030201012.0
90527,sg:db78f4134986464e914de3ae086b1cdb,IGA,RI,2019-11-01T00:00:00-04:00,2019-12-01T00:00:00-05:00,2876,38,10.0,"{""<5"":0,""5-20"":36,""21-60"":1,""61-240"":0,"">240"":1}",730.5,42.005476,-71.584587,445110.0,RI,44.0,44007.0,Providence County,440070128011.0
91186,sg:160867d3b34b434e8afaec7efda37e3e,Melissa Barra Makeup,RI,2019-11-01T00:00:00-04:00,2019-12-01T00:00:00-05:00,2904,81,44.0,"{""<5"":0,""5-20"":27,""21-60"":20,""61-240"":23,"">240"":11}",7249.0,41.866214,-71.423548,446120.0,RI,44.0,44007.0,Providence County,440070118002.0
91327,sg:241e04cbe6824e2baa11245e822d8583,Avid Airline Products,RI,2019-11-01T00:00:00-04:00,2019-12-01T00:00:00-05:00,2842,82,282.0,"{""<5"":0,""5-20"":4,""21-60"":5,""61-240"":28,"">240"":45}",15266.5,41.504082000000004,-71.28556800000001,517312.0,RI,44.0,44005.0,Newport County,440050404002.0
91666,sg:4015ba84ac4e4e07924818e1a7b9faf7,New Garden Restaurant,RI,2019-11-01T00:00:00-04:00,2019-12-01T00:00:00-05:00,2909,293,12.0,"{""<5"":8,""5-20"":171,""21-60"":39,""61-240"":39,"">240"":36}",18246.5,41.825547,-71.454279,722511.0,RI,44.0,44007.0,Providence County,440070021022.0
92887,sg:b232b75c8beb4c18b92a3d177e31e2e6,American Diner Museum,RI,2019-11-01T00:00:00-04:00,2019-12-01T00:00:00-05:00,2865,23,13.0,"{""<5"":1,""5-20"":13,""21-60"":4,""61-240"":3,"">240"":2}",1258.5,41.892315,-71.409391,712110.0,RI,44.0,44007.0,Providence County,440070117021.0
94089,sg:230f4109dbc4487fa3e49928b7786804,Staples,RI,2019-11-01T00:00:00-04:00,2019-12-01T00:00:00-05:00,2842,160,12.0,"{""<5"":6,""5-20"":108,""21-60"":39,""61-240"":4,"">240"":3}",4266.5,41.527201,-71.297618,453210.0,RI,44.0,44005.0,Newport County,440050403032.0
94431,sg:44b85e80b79d48a898830151d3b255a5,Consultants In Urology,RI,2019-11-01T00:00:00-04:00,2019-12-01T00:00:00-05:00,2919,47,68.0,"{""<5"":0,""5-20"":3,""21-60"":19,""61-240"":20,"">240"":5}",5017.0,41.827391999999996,-71.501663,621111.0,RI,44.0,44007.0,Providence County,440070124014.0
94529,sg:4d1aa62122744745987e9d6bcb39b762,Dusty's Ice Cream Weekapaug,RI,2019-11-01T00:00:00-04:00,2019-12-01T00:00:00-05:00,2891,2,10.0,"{""<5"":0,""5-20"":2,""21-60"":0,""61-240"":0,"">240"":0}",25.0,41.330562,-71.764888,722515.0,RI,44.0,44009.0,Washington County,440090510004.0
94703,sg:5e39d4365a7b46cf926014b92474608e,Godavari,RI,2019-11-01T00:00:00-04:00,2019-12-01T00:00:00-05:00,2864,117,125.0,"{""<5"":2,""5-20"":20,""21-60"":23,""61-240"":23,"">240"":49}",16408.0,41.918926,-71.407585,722511.0,RI,44.0,44007.0,Providence County,440070113012.0
94929,sg:754d00187ad9447b982d9c3afc4ac1f4,Joshua's top notch,RI,2019-11-01T00:00:00-04:00,2019-12-01T00:00:00-05:00,2860,12,50.5,"{""<5"":0,""5-20"":2,""21-60"":5,""61-240"":4,"">240"":1}",1069.5,41.863125,-71.41287,812320.0,RI,44.0,44007.0,Providence County,440070163001.0
95003,sg:7c2b2feaec044df6aea2bd08ae9cd085,Taqueria,RI,2019-11-01T00:00:00-04:00,2019-12-01T00:00:00-05:00,2904,595,35.0,"{""<5"":6,""5-20"":142,""21-60"":250,""61-240"":120,"">240"":77}",48455.0,41.837222,-71.408268,722511.0,RI,44.0,44007.0,Providence County,440070031003.0
95133,sg:87908e5a2c164473a78f80469924b40a,G & S Automotive Repair,RI,2019-11-01T00:00:00-04:00,2019-12-01T00:00:00-05:00,2871,41,131.0,"{""<5"":0,""5-20"":9,""21-60"":5,""61-240"":8,"">240"":19}",6079.0,41.560931,-71.28705500000001,811111.0,RI,44.0,44005.0,Newport County,440050401032.0
95245,sg:93e4e60295434c67a10f962cd007f3a8,YMCA,RI,2019-11-01T00:00:00-04:00,2019-12-01T00:00:00-05:00,2865,38,21.0,"{""<5"":1,""5-20"":17,""21-60"":14,""61-240"":6,"">240"":0}",1685.0,41.903775,-71.44391,624190.0,RI,44.0,44007.0,Providence County,440070116003.0
96394,sg:0505b8b4cdc3490c97fa66987fc65d40,Healthtrax Fitness & Wellness,RI,2019-11-01T00:00:00-04:00,2019-12-01T00:00:00-05:00,2914,457,57.0,"{""<5"":4,""5-20"":76,""21-60"":166,""61-240"":189,"">240"":22}",41407.5,41.805856,-71.34248199999999,713940.0,RI,44.0,44007.0,Providence County,440070105011.0
96530,sg:0fd3fc3ca85242e3bbfc18d5d5c265b0,Metropolitan Career Tech Ctr,RI,2019-11-01T00:00:00-04:00,2019-12-01T00:00:00-05:00,2905,342,106.5,"{""<5"":4,""5-20"":57,""21-60"":63,""61-240"":140,"">240"":78}",43064.0,41.806948,-71.410549,611110.0,RI,44.0,44007.0,Providence County,440070006002.0
97365,sg:5d8937a024c949d1a25709082bb3d571,Robinson Supply,RI,2019-11-01T00:00:00-04:00,2019-12-01T00:00:00-05:00,2920,23,145.0,"{""<5"":1,""5-20"":1,""21-60"":3,""61-240"":10,"">240"":8}",3561.5,41.75158,-71.447673,444130.0,RI,44.0,44007.0,Providence County,440070139003.0
98605,sg:d9e5c8368e8d41a6874aa257469b4a6e,Elite Performance Systems,RI,2019-11-01T00:00:00-04:00,2019-12-01T00:00:00-05:00,2891,8,58.5,"{""<5"":0,""5-20"":3,""21-60"":1,""61-240"":4,"">240"":0}",680.0,41.34395,-71.815564,713940.0,RI,44.0,44009.0,Washington County,440090509023.0
98731,sg:e6bd0c3020324058ab864fb4b010c6d4,Fifth Avenue Jewelers,RI,2019-11-01T00:00:00-04:00,2019-12-01T00:00:00-05:00,2910,21,20.0,"{""<5"":0,""5-20"":12,""21-60"":7,""61-240"":1,"">240"":1}",824.0,41.778628000000005,-71.4356,448310.0,RI,44.0,44007.0,Providence County,440070137014.0
100030,sg:614b6f15ca2f43098ca9e91f8336b528,Kearsarge SKSC2 LLC,RI,2019-11-01T00:00:00-04:00,2019-12-01T00:00:00-05:00,2892,170,24.0,"{""<5"":8,""5-20"":72,""21-60"":22,""61-240"":33,"">240"":35}",15177.5,41.491079,-71.536506,221112.0,RI,44.0,44009.0,Washington County,440090514001.0
100479,sg:8c4dea1c983d4896b9c82cf1fde80418,Taco Bell,RI,2019-11-01T00:00:00-04:00,2019-12-01T00:00:00-05:00,2861,79,30.0,"{""<5"":5,""5-20"":24,""21-60"":28,""61-240"":10,"">240"":12}",5831.5,41.860232,-71.352757,722513.0,,,,,
100985,sg:c0098e8a563c464dacf3717ebc62a9b1,Jiffy Lube,RI,2019-11-01T00:00:00-04:00,2019-12-01T00:00:00-05:00,2904,1,361.0,"{""<5"":0,""5-20"":0,""21-60"":0,""61-240"":0,"">240"":1}",240.0,41.867985,-71.436476,811191.0,RI,44.0,44007.0,Providence County,440070118005.0
100999,sg:c16a69bdab344e64857121dbc2d14dab,C & L Agency Inc,RI,2019-11-01T00:00:00-04:00,2019-12-01T00:00:00-05:00,2907,4,133.5,"{""<5"":1,""5-20"":0,""21-60"":1,""61-240"":0,"">240"":2}",523.0,41.790226000000004,-71.428702,524210.0,RI,44.0,44007.0,Providence County,440070015002.0
101016,sg:c2f5f1958a0a43d395ae293cbeb39465,Once Upon A Time Academy Llc,RI,2019-11-01T00:00:00-04:00,2019-12-01T00:00:00-05:00,2911,53,21.0,"{""<5"":1,""5-20"":25,""21-60"":8,""61-240"":13,"">240"":6}",4035.5,41.859173999999996,-71.47565,624410.0,RI,44.0,44007.0,Providence County,440070121041.0
101360,sg:e4ae585fd17f4b4c9dc1668377d8d290,Koi Japanese Cuisine,RI,2019-11-01T00:00:00-04:00,2019-12-01T00:00:00-05:00,2891,156,80.0,"{""<5"":0,""5-20"":17,""21-60"":32,""61-240"":81,"">240"":26}",19939.0,41.379239,-71.82972600000001,722511.0,RI,44.0,44009.0,Washington County,440090508014.0
101522,sg:f56b990f4c0e4ab6a201e8de7e1077db,Seven Stars Bakery,RI,2019-11-01T00:00:00-04:00,2019-12-01T00:00:00-05:00,2906,249,21.0,"{""<5"":6,""5-20"":116,""21-60"":73,""61-240"":48,"">240"":6}",13085.5,41.849638,-71.395093,722515.0,RI,44.0,44007.0,Providence County,440070033002.0
101647,sg:013698dcadb74ee792e5f480ab060e13,ANLI Academy,RI,2019-11-01T00:00:00-04:00,2019-12-01T00:00:00-05:00,2914,16,70.5,"{""<5"":0,""5-20"":4,""21-60"":3,""61-240"":8,"">240"":1}",1615.5,41.816618,-71.358081,611310.0,RI,44.0,44007.0,Providence County,440070103003.0
101777,sg:0dc5c14060d34b629c59a3a6f3a2f47e,Triggs Memorial Golf Course,RI,2019-11-01T00:00:00-04:00,2019-12-01T00:00:00-05:00,2909,570,61.0,"{""<5"":16,""5-20"":170,""21-60"":97,""61-240"":164,"">240"":123}",60295.5,41.836644,-71.458718,713910.0,RI,44.0,44007.0,Providence County,440070024005.0
101843,sg:13a9a2736f154688a140e84856416006,Ivy Lodge Bed and Breakfast,RI,2019-11-01T00:00:00-04:00,2019-12-01T00:00:00-05:00,2840,94,63.0,"{""<5"":2,""5-20"":17,""21-60"":26,""61-240"":23,"">240"":26}",10972.0,41.476844,-71.306035,721110.0,RI,44.0,44005.0,Newport County,440050408003.0
102008,sg:22364343a2624c74864186f44a332908,Washington Trust,RI,2019-11-01T00:00:00-04:00,2019-12-01T00:00:00-05:00,2886,78,10.0,"{""<5"":6,""5-20"":43,""21-60"":10,""61-240"":4,"">240"":15}",5159.5,41.697505,-71.468096,522110.0,RI,44.0,44003.0,Kent County,440030222011.0
102254,sg:3822b9be5dc94e1da8f46ea83b13d664,R B S,RI,2019-11-01T00:00:00-04:00,2019-12-01T00:00:00-05:00,2842,55,166.0,"{""<5"":1,""5-20"":2,""21-60"":7,""61-240"":24,"">240"":21}",8963.0,41.501872,-71.287583,541213.0,RI,44.0,44005.0,Newport County,440050404002.0
102420,sg:455d5133e463418d81e973ce0f41956f,Fearless Fish Market,RI,2019-11-01T00:00:00-04:00,2019-12-01T00:00:00-05:00,2903,1,12.0,"{""<5"":0,""5-20"":1,""21-60"":0,""61-240"":0,"">240"":0}",12.5,41.818838,-71.423889,445220.0,RI,44.0,44007.0,Providence County,440070011002.0
102634,sg:5bca9d707ba7452eab9acd6762eed9d0,Dog House,RI,2019-11-01T00:00:00-04:00,2019-12-01T00:00:00-05:00,2879,18,17.5,"{""<5"":1,""5-20"":8,""21-60"":4,""61-240"":5,"">240"":0}",1017.0,41.440374,-71.493921,453910.0,RI,44.0,44009.0,Washington County,440090512021.0
102724,sg:6442a838cf07477b9106f299e7811688,Living Hope Assembly of God,RI,2019-11-01T00:00:00-04:00,2019-12-01T00:00:00-05:00,2860,128,76.5,"{""<5"":2,""5-20"":23,""21-60"":29,""61-240"":46,"">240"":28}",15110.0,41.877449,-71.380619,813110.0,RI,44.0,44007.0,Providence County,440070160001.0
104119,sg:e8bcf9165cb54dd79dc5e8bbde29536c,Belanger Michael Dr,RI,2019-11-01T00:00:00-04:00,2019-12-01T00:00:00-05:00,2919,6,79.5,"{""<5"":0,""5-20"":0,""21-60"":2,""61-240"":4,"">240"":0}",683.0,41.827502,-71.50142199999999,621111.0,RI,44.0,44007.0,Providence County,440070124014.0
104392,sg:0116a9ae80904429b41185ddaec56392,East Side Clinical,RI,2019-11-01T00:00:00-04:00,2019-12-01T00:00:00-05:00,2904,4,23.5,"{""<5"":0,""5-20"":2,""21-60"":1,""61-240"":0,"">240"":1}",305.5,41.85033,-71.403701,621511.0,RI,44.0,44007.0,Providence County,440070033004.0
104458,sg:0729e7544ba74263a206999034ce569c,Ichiban Karate & Kickbox,RI,2019-11-01T00:00:00-04:00,2019-12-01T00:00:00-05:00,2879,88,55.5,"{""<5"":2,""5-20"":23,""21-60"":21,""61-240"":31,"">240"":11}",8448.5,41.438404999999996,-71.497327,713940.0,RI,44.0,44009.0,Washington County,440090512021.0
104853,sg:2b8b8282f64c4d82baa00579a9619252,Washington Trust,RI,2019-11-01T00:00:00-04:00,2019-12-01T00:00:00-05:00,2904,5,9.0,"{""<5"":0,""5-20"":4,""21-60"":1,""61-240"":0,"">240"":0}",90.5,41.864294,-71.447518,522110.0,RI,44.0,44007.0,Providence County,440070119011.0
105000,sg:39c741072f674da0a58a4dcf97dafa26,Circe Restaurant & Bar,RI,2019-11-01T00:00:00-04:00,2019-12-01T00:00:00-05:00,2903,229,137.0,"{""<5"":1,""5-20"":17,""21-60"":45,""61-240"":87,"">240"":79}",34091.0,41.824007,-71.40949599999999,722511.0,RI,44.0,44007.0,Providence County,440070008003.0
105069,sg:404720d3fcc64bca9a23e8d28976b385,Boys & Girls Club Of Pawtucket,RI,2019-11-01T00:00:00-04:00,2019-12-01T00:00:00-05:00,2860,41,63.0,"{""<5"":0,""5-20"":5,""21-60"":13,""61-240"":21,"">240"":2}",4229.5,41.864409,-71.376634,624410.0,RI,44.0,44007.0,Providence County,440070171001.0
105142,sg:475b1d53ff24417d846025aa27242a21,The Power Of Juice,RI,2019-11-01T00:00:00-04:00,2019-12-01T00:00:00-05:00,2842,20,8.0,"{""<5"":3,""5-20"":14,""21-60"":2,""61-240"":1,"">240"":0}",414.0,41.519211,-71.282931,722515.0,RI,44.0,44005.0,Newport County,440050404002.0
105906,sg:930ccba279ed40b98449e4291b645d8c,Plum Beach Equestrian Centre,RI,2019-11-01T00:00:00-04:00,2019-12-01T00:00:00-05:00,2874,4,73.0,"{""<5"":0,""5-20"":0,""21-60"":1,""61-240"":2,"">240"":1}",581.5,41.520796000000004,-71.417497,453220.0,RI,44.0,44009.0,Washington County,440090504022.0
105973,sg:998a2ae3346741be8e4c30e9d0fb4335,United States Postal Service (USPS),RI,2019-11-01T00:00:00-04:00,2019-12-01T00:00:00-05:00,2914,53,14.0,"{""<5"":0,""5-20"":30,""21-60"":13,""61-240"":9,"">240"":1}",2496.0,41.819037,-71.376442,491110.0,RI,44.0,44007.0,Providence County,440070102005.0
