,safegraph_place_id,location_name,region,date_range_start,date_range_end,postal_code,raw_visit_counts,median_dwell,bucketed_dwell_times,est_total_dwell,latitude,longitude,naics_code,state,stateFIPS,countyFIPS,countyName,CBGFIPS
51,sg:03cde31f876a4784af8cec08c5ba88c3,Michael P Gaudio DMD,CT,2019-03-01T00:00:00-05:00,2019-04-01T00:00:00-04:00,6492,129,28.0,"{""<5"":0,""5-20"":44,""21-60"":56,""61-240"":18,"">240"":11}",8167.0,41.48057,-72.80686700000001,621210.0,CT,9.0,9009.0,New Haven County,90091758002.0
173,sg:0fd0b34a23f444ce83558cdbb073e9f7,Liberty Bank,CT,2019-03-01T00:00:00-05:00,2019-04-01T00:00:00-04:00,6424,59,8.0,"{""<5"":5,""5-20"":50,""21-60"":4,""61-240"":0,"">240"":0}",799.5,41.582434,-72.506755,522110.0,CT,9.0,9007.0,Middlesex County,90075501002.0
211,sg:139d88d856d7452581d55a937fa21b37,Hotel Hi Ho,CT,2019-03-01T00:00:00-05:00,2019-04-01T00:00:00-04:00,6824,307,60.0,"{""<5"":2,""5-20"":53,""21-60"":99,""61-240"":121,"">240"":32}",30567.5,41.203793,-73.271225,721110.0,CT,9.0,9001.0,Fairfield County,90010603003.0
239,sg:16963b3df98b4cdd9f4c1829b2220828,Amity Gardens Center LLC,CT,2019-03-01T00:00:00-05:00,2019-04-01T00:00:00-04:00,6524,2,34.5,"{""<5"":0,""5-20"":1,""21-60"":1,""61-240"":0,"">240"":0}",53.0,41.438860999999996,-72.990737,811411.0,CT,9.0,9009.0,New Haven County,90091611002.0
424,sg:281f59e7cab04535bce5ae9eea4834c1,Stamford Smile Arts,CT,2019-03-01T00:00:00-05:00,2019-04-01T00:00:00-04:00,6902,192,63.0,"{""<5"":7,""5-20"":36,""21-60"":50,""61-240"":47,"">240"":52}",22046.0,41.064469,-73.53259200000001,621210.0,CT,9.0,9001.0,Fairfield County,90010218012.0
550,sg:3560f5967a8846e38e1d422f5eae9005,4 Eat & Drink,CT,2019-03-01T00:00:00-05:00,2019-04-01T00:00:00-04:00,6032,93,22.0,"{""<5"":2,""5-20"":43,""21-60"":24,""61-240"":22,"">240"":2}",5305.5,41.727915,-72.826379,445310.0,CT,9.0,9003.0,Hartford County,90034602021.0
627,sg:3d45977cef2149609928b406ab170e9d,Herceg Agnes DDS,CT,2019-03-01T00:00:00-05:00,2019-04-01T00:00:00-04:00,6902,3,779.0,"{""<5"":0,""5-20"":0,""21-60"":0,""61-240"":0,"">240"":3}",720.0,41.061458,-73.53379,621210.0,CT,9.0,9001.0,Fairfield County,90010216004.0
655,sg:3ff4f54552b44d51826b3b170a359105,Newyork Deli Mart,CT,2019-03-01T00:00:00-05:00,2019-04-01T00:00:00-04:00,6066,231,99.0,"{""<5"":2,""5-20"":53,""21-60"":41,""61-240"":50,"">240"":85}",30253.0,41.868891,-72.444455,722511.0,CT,9.0,9013.0,Tolland County,90135302001.0
703,sg:45007ab64bec43d4a4cc4a4ce2ed2818,Pequot Woods Park,CT,2019-03-01T00:00:00-05:00,2019-04-01T00:00:00-04:00,6355,49,46.0,"{""<5"":1,""5-20"":14,""21-60"":13,""61-240"":9,"">240"":12}",4938.5,41.362093,-71.988291,712190.0,CT,9.0,9011.0,New London County,90117028002.0
977,sg:61db0010173f4a4da602605812f090a2,Spiegel Zamecnik & Shah,CT,2019-03-01T00:00:00-05:00,2019-04-01T00:00:00-04:00,6511,233,52.0,"{""<5"":7,""5-20"":61,""21-60"":59,""61-240"":66,"">240"":40}",22702.5,41.309543,-72.923843,621330.0,CT,9.0,9009.0,New Haven County,90093614022.0
1015,sg:659520629cc04848b24d85ec167d1601,C & N Heating and Cooling,CT,2019-03-01T00:00:00-05:00,2019-04-01T00:00:00-04:00,6335,25,175.0,"{""<5"":2,""5-20"":0,""21-60"":8,""61-240"":6,"">240"":9}",3392.0,41.424928,-72.064502,444130.0,CT,9.0,9011.0,New London County,90117012004.0
1264,sg:7d7ba0dd508d4adfb55c5f004b9a0351,River Ridge Golf Course,CT,2019-03-01T00:00:00-05:00,2019-04-01T00:00:00-04:00,6351,86,28.5,"{""<5"":4,""5-20"":34,""21-60"":15,""61-240"":28,"">240"":5}",6456.5,41.576075,-71.982186,713910.0,CT,9.0,9011.0,New London County,90117091003.0
1290,sg:7fdb7ff747084042a3655e4d97e21487,Hertz,CT,2019-03-01T00:00:00-05:00,2019-04-01T00:00:00-04:00,6032,263,208.0,"{""<5"":1,""5-20"":43,""21-60"":46,""61-240"":47,"">240"":126}",39716.5,41.713229999999996,-72.801707,532111.0,CT,9.0,9003.0,Hartford County,90034601002.0
1302,sg:812b82a6721f40d5b3ec3e0aeb0fb51e,Figaro's Ristorante,CT,2019-03-01T00:00:00-05:00,2019-04-01T00:00:00-04:00,6082,409,28.0,"{""<5"":6,""5-20"":165,""21-60"":127,""61-240"":98,"">240"":13}",25090.0,41.996821000000004,-72.583224,722511.0,CT,9.0,9003.0,Hartford County,90034808004.0
1655,sg:a3087ecee4aa41629ad32947521fbd59,Castle View Deli & Catering,CT,2019-03-01T00:00:00-05:00,2019-04-01T00:00:00-04:00,6831,111,11.0,"{""<5"":5,""5-20"":62,""21-60"":20,""61-240"":12,"">240"":12}",6283.5,41.027015000000006,-73.66212,722511.0,CT,9.0,9001.0,Fairfield County,90010104003.0
1794,sg:aff2511659834b318ffd29cef7f4fdef,Artcraft Dental Laboratory,CT,2019-03-01T00:00:00-05:00,2019-04-01T00:00:00-04:00,6516,110,101.5,"{""<5"":0,""5-20"":34,""21-60"":15,""61-240"":25,"">240"":36}",13435.0,41.273846,-72.951288,621210.0,CT,9.0,9009.0,New Haven County,90091546003.0
1813,sg:b1decccf4fb44eb29e33e391ab46db39,Southbury Dog Park,CT,2019-03-01T00:00:00-05:00,2019-04-01T00:00:00-04:00,6488,88,19.5,"{""<5"":2,""5-20"":45,""21-60"":38,""61-240"":3,"">240"":0}",2558.0,41.502959999999995,-73.21896,712190.0,CT,9.0,9009.0,New Haven County,90093481242.0
1817,sg:b219afd90908482582445021fbb050c0,Urbane A Hair Salon,CT,2019-03-01T00:00:00-05:00,2019-04-01T00:00:00-04:00,6437,35,85.0,"{""<5"":0,""5-20"":3,""21-60"":12,""61-240"":7,"">240"":13}",4697.0,41.309248,-72.724907,812112.0,CT,9.0,9009.0,New Haven County,90091903024.0
1835,sg:b32ff449958645e48f241a6541e0fc25,Lawrence & Memorial Hospital,CT,2019-03-01T00:00:00-05:00,2019-04-01T00:00:00-04:00,6340,1,15.0,"{""<5"":0,""5-20"":1,""21-60"":0,""61-240"":0,"">240"":0}",12.5,41.351729999999996,-72.082311,621111.0,CT,9.0,9011.0,New London County,90117024003.0
1911,sg:b97e176acb9f476a847c6bb92af1d223,Express,CT,2019-03-01T00:00:00-05:00,2019-04-01T00:00:00-04:00,6413,60,19.0,"{""<5"":2,""5-20"":32,""21-60"":22,""61-240"":4,"">240"":0}",1898.0,41.292894,-72.53485,448140.0,CT,9.0,9007.0,Middlesex County,90076104001.0
1913,sg:b9a07a090c044199b90898b575ad3b11,The Kiwi Spoon,CT,2019-03-01T00:00:00-05:00,2019-04-01T00:00:00-04:00,6492,333,20.0,"{""<5"":11,""5-20"":165,""21-60"":140,""61-240"":16,"">240"":1}",10408.0,41.488147999999995,-72.809205,722515.0,CT,9.0,9009.0,New Haven County,90091754001.0
1960,sg:bef22041ce8948c88cdd0c2daed2f5df,Song A Day Music Center,CT,2019-03-01T00:00:00-05:00,2019-04-01T00:00:00-04:00,6238,16,397.0,"{""<5"":1,""5-20"":2,""21-60"":2,""61-240"":2,"">240"":9}",2569.5,41.797189,-72.416854,451140.0,CT,9.0,9013.0,Tolland County,90135291003.0
1983,sg:c161d89ba6d04498b384acba1b413677,ABC Supply,CT,2019-03-01T00:00:00-05:00,2019-04-01T00:00:00-04:00,6604,151,27.0,"{""<5"":1,""5-20"":68,""21-60"":32,""61-240"":27,"">240"":23}",11732.0,41.164814,-73.202423,423330.0,CT,9.0,9001.0,Fairfield County,90010703001.0
1990,sg:c226007a36294338b6972e69878652b4,Guilford Savings Bank,CT,2019-03-01T00:00:00-05:00,2019-04-01T00:00:00-04:00,6475,4,30.0,"{""<5"":0,""5-20"":1,""21-60"":2,""61-240"":1,"">240"":0}",244.0,41.292612,-72.38207299999999,522110.0,CT,9.0,9007.0,Middlesex County,90076702004.0
2285,sg:e0076c95c7cc4b57ab81a6c8312fb64a,Rite Aid,CT,2019-03-01T00:00:00-05:00,2019-04-01T00:00:00-04:00,6473,163,10.0,"{""<5"":9,""5-20"":113,""21-60"":21,""61-240"":6,"">240"":14}",6548.5,41.339996,-72.86276099999999,446110.0,CT,9.0,9009.0,New Haven County,90091673003.0
2368,sg:e7b2ea532d2748d1a76031f32ce7c185,Professional Physical Therapy,CT,2019-03-01T00:00:00-05:00,2019-04-01T00:00:00-04:00,6877,110,40.5,"{""<5"":8,""5-20"":28,""21-60"":37,""61-240"":28,"">240"":9}",8242.5,41.292083,-73.49219000000001,621340.0,CT,9.0,9001.0,Fairfield County,90012453003.0
2603,sg:fe1bc0bd6ac34c88b6f7ab87cfd643eb,Gardenhouse Floral & Home,CT,2019-03-01T00:00:00-05:00,2019-04-01T00:00:00-04:00,6518,152,34.5,"{""<5"":9,""5-20"":49,""21-60"":35,""61-240"":47,"">240"":12}",12006.0,41.386943,-72.900936,453110.0,CT,9.0,9009.0,New Haven County,90091660014.0
2780,sg:0f2d3c75ae154c2fab9c7d0892629296,Melchi African Market,CT,2019-03-01T00:00:00-05:00,2019-04-01T00:00:00-04:00,6604,17,18.0,"{""<5"":0,""5-20"":9,""21-60"":1,""61-240"":5,"">240"":2}",1385.5,41.182434,-73.20638000000001,445110.0,CT,9.0,9001.0,Fairfield County,90010712001.0
2933,sg:20b56866f0c642b6bc22f2066cbddff2,West Side Ii Park,CT,2019-03-01T00:00:00-05:00,2019-04-01T00:00:00-04:00,6605,338,55.5,"{""<5"":6,""5-20"":107,""21-60"":61,""61-240"":83,"">240"":81}",35754.5,41.163043,-73.213616,712190.0,CT,9.0,9001.0,Fairfield County,90010703001.0
2983,sg:260f5d119b894c3785e22284f351b10e,BD Plumbing,CT,2019-03-01T00:00:00-05:00,2019-04-01T00:00:00-04:00,6108,11,12.0,"{""<5"":0,""5-20"":9,""21-60"":0,""61-240"":1,"">240"":1}",503.0,41.78702,-72.615255,444130.0,CT,9.0,9003.0,Hartford County,90035103001.0
3074,sg:2f07d9b422104c838450ca432d3c7283,Bristol Chamber Of Commerce,CT,2019-03-01T00:00:00-05:00,2019-04-01T00:00:00-04:00,6010,1,13.0,"{""<5"":0,""5-20"":1,""21-60"":0,""61-240"":0,"">240"":0}",12.5,41.671336,-72.942447,921190.0,CT,9.0,9003.0,Hartford County,90034061003.0
3161,sg:36b40eba79ea4000816131136b299149,NAPA Auto Parts,CT,2019-03-01T00:00:00-05:00,2019-04-01T00:00:00-04:00,6074,56,17.5,"{""<5"":2,""5-20"":28,""21-60"":5,""61-240"":16,"">240"":5}",4165.5,41.826332,-72.607562,441310.0,CT,9.0,9003.0,Hartford County,90034873002.0
3304,sg:41d75b63a2d640ae90adb601508f4766,The Boathouse,CT,2019-03-01T00:00:00-05:00,2019-04-01T00:00:00-04:00,6039,3,66.0,"{""<5"":0,""5-20"":0,""21-60"":0,""61-240"":3,"">240"":0}",451.5,41.964892,-73.440831,722511.0,CT,9.0,9005.0,Litchfield County,90052611003.0
3319,sg:4382c3f3bd844c198d5e7b1d564e91a3,The Light House Niantic,CT,2019-03-01T00:00:00-05:00,2019-04-01T00:00:00-04:00,6357,1,301.0,"{""<5"":0,""5-20"":0,""21-60"":0,""61-240"":0,"">240"":1}",240.0,41.322606,-72.194889,611110.0,CT,9.0,9011.0,New London County,90118707042.0
3628,sg:61ecc9aba8d343c69114fe591efa88f8,Waterbury Fire Department Station 4,CT,2019-03-01T00:00:00-05:00,2019-04-01T00:00:00-04:00,6706,161,68.0,"{""<5"":2,""5-20"":51,""21-60"":25,""61-240"":25,"">240"":58}",19337.5,41.541564,-73.033265,922160.0,CT,9.0,9009.0,New Haven County,90093514002.0
3648,sg:63ba4750e9b444f88965c024cc1f4a97,Chris' Auto Repair,CT,2019-03-01T00:00:00-05:00,2019-04-01T00:00:00-04:00,6851,1,11.0,"{""<5"":0,""5-20"":1,""21-60"":0,""61-240"":0,"">240"":0}",12.5,41.13243,-73.424653,811111.0,CT,9.0,9001.0,Fairfield County,90010434003.0
3813,sg:72d5e026512342e1aae4800c90b5e599,Dunkin',CT,2019-03-01T00:00:00-05:00,2019-04-01T00:00:00-04:00,6610,204,19.0,"{""<5"":9,""5-20"":99,""21-60"":44,""61-240"":45,"">240"":7}",11494.5,41.222252000000005,-73.168981,722515.0,CT,9.0,9001.0,Fairfield County,90010730001.0
3814,sg:7332996fc88142e3a63ddce0c59cdbc7,Coopersmith Richard Dr,CT,2019-03-01T00:00:00-05:00,2019-04-01T00:00:00-04:00,6470,40,21.0,"{""<5"":1,""5-20"":18,""21-60"":18,""61-240"":2,"">240"":1}",1497.5,41.401053999999995,-73.29701800000001,621310.0,CT,9.0,9001.0,Fairfield County,90012303003.0
3870,sg:78a1738367b0439bb14d66acfdf3d2fa,uBreakiFix,CT,2019-03-01T00:00:00-05:00,2019-04-01T00:00:00-04:00,6820,16,8.0,"{""<5"":2,""5-20"":13,""21-60"":1,""61-240"":0,"">240"":0}",208.0,41.084731,-73.4613,443142.0,CT,9.0,9001.0,Fairfield County,90010302001.0
3871,sg:78b4d49e1c354273897f72153b555125,Literacy Center of Milford,CT,2019-03-01T00:00:00-05:00,2019-04-01T00:00:00-04:00,6460,13,39.0,"{""<5"":0,""5-20"":2,""21-60"":7,""61-240"":3,"">240"":1}",1000.0,41.226924,-72.994355,611691.0,CT,9.0,9009.0,New Haven County,90091511002.0
4004,sg:86595d5d11d74896ad94c687c6f835be,Jalao Deli,CT,2019-03-01T00:00:00-05:00,2019-04-01T00:00:00-04:00,6051,639,50.0,"{""<5"":7,""5-20"":217,""21-60"":119,""61-240"":148,"">240"":148}",65343.5,41.665729,-72.770732,722511.0,CT,9.0,9003.0,Hartford County,90034153002.0
4120,sg:905bac57bf4041eb899f9aef1b8a215b,CVS,CT,2019-03-01T00:00:00-05:00,2019-04-01T00:00:00-04:00,6516,316,11.0,"{""<5"":18,""5-20"":206,""21-60"":59,""61-240"":21,"">240"":12}",11050.0,41.268039,-72.947762,446110.0,CT,9.0,9009.0,New Haven County,90091550003.0
4151,sg:92d8cbdd6f34485dba652830793c46fa,Dr James H Naylor Ccsu Leadership Academy,CT,2019-03-01T00:00:00-05:00,2019-04-01T00:00:00-04:00,6114,193,34.0,"{""<5"":9,""5-20"":68,""21-60"":33,""61-240"":43,"">240"":40}",18280.5,41.730552,-72.675214,611110.0,CT,9.0,9003.0,Hartford County,90035023003.0
4285,sg:a180638619fe4a83bd39bb99bd88ad8f,Fusaro's Italian Deli & Market,CT,2019-03-01T00:00:00-05:00,2019-04-01T00:00:00-04:00,6905,81,21.0,"{""<5"":3,""5-20"":36,""21-60"":10,""61-240"":15,"">240"":17}",7200.0,41.093434,-73.547987,445110.0,CT,9.0,9001.0,Fairfield County,90010206002.0
4362,sg:a88cb133cdde4bc3983ceb9e0bd40212,Club Sandwich,CT,2019-03-01T00:00:00-05:00,2019-04-01T00:00:00-04:00,6840,65,20.0,"{""<5"":3,""5-20"":31,""21-60"":15,""61-240"":7,"">240"":9}",4216.0,41.146602,-73.49010600000001,722511.0,CT,9.0,9001.0,Fairfield County,90010351002.0
4367,sg:a96043aa0c2a4119ba75cff9022102c4,CITGO,CT,2019-03-01T00:00:00-05:00,2019-04-01T00:00:00-04:00,6451,131,10.0,"{""<5"":4,""5-20"":81,""21-60"":24,""61-240"":16,"">240"":6}",5842.5,41.535633000000004,-72.80753,447110.0,CT,9.0,9009.0,New Haven County,90091709001.0
4419,sg:ad45c46f08a24cc7afb20b0a4ad9a72a,United States Postal Service (USPS),CT,2019-03-01T00:00:00-05:00,2019-04-01T00:00:00-04:00,6072,33,9.0,"{""<5"":0,""5-20"":27,""21-60"":3,""61-240"":3,"">240"":0}",910.5,41.983592,-72.489122,491110.0,CT,9.0,9013.0,Tolland County,90135382014.0
4441,sg:b08d0467cad4457c861a2761b04ea7ce,Lyn Kehoe Power Yoga,CT,2019-03-01T00:00:00-05:00,2019-04-01T00:00:00-04:00,6877,248,62.0,"{""<5"":0,""5-20"":5,""21-60"":109,""61-240"":125,"">240"":9}",25449.5,41.293279999999996,-73.49427800000001,713940.0,CT,9.0,9001.0,Fairfield County,90012453003.0
4525,sg:b9cb592938244704a37541ad672071f8,K C's Package Store,CT,2019-03-01T00:00:00-05:00,2019-04-01T00:00:00-04:00,6787,33,21.0,"{""<5"":3,""5-20"":13,""21-60"":3,""61-240"":2,"">240"":12}",3472.5,41.670959,-73.07620899999999,445310.0,CT,9.0,9005.0,Litchfield County,90053492002.0
4578,sg:bf4ca79ecf154ac091f642568e573c61,Sunglass Hut,CT,2019-03-01T00:00:00-05:00,2019-04-01T00:00:00-04:00,6338,41,20.0,"{""<5"":1,""5-20"":20,""21-60"":13,""61-240"":4,"">240"":3}",2101.0,41.47565,-71.960463,446130.0,CT,9.0,9011.0,New London County,90117011005.0
4804,sg:d71179af406d40cb9600c7d1c8d7d9f0,SkyArt Studio & Gallery,CT,2019-03-01T00:00:00-05:00,2019-04-01T00:00:00-04:00,6450,60,288.0,"{""<5"":4,""5-20"":14,""21-60"":0,""61-240"":5,"">240"":37}",9817.5,41.542014,-72.79108000000001,453920.0,CT,9.0,9009.0,New Haven County,90091714001.0
4913,sg:e3ca9e6fea724fa4a8d5b275af0c61ea,Coffee Con Cannella,CT,2019-03-01T00:00:00-05:00,2019-04-01T00:00:00-04:00,6405,203,26.0,"{""<5"":5,""5-20"":88,""21-60"":34,""61-240"":68,"">240"":8}",14643.5,41.30311,-72.767604,722511.0,CT,9.0,9009.0,New Haven County,90091847001.0
4941,sg:e61268cf09274ff39d14fc86d56e8889,Shell Oil,CT,2019-03-01T00:00:00-05:00,2019-04-01T00:00:00-04:00,6851,208,8.0,"{""<5"":19,""5-20"":128,""21-60"":38,""61-240"":16,"">240"":7}",7274.5,41.126432,-73.390647,447110.0,CT,9.0,9001.0,Fairfield County,90010426004.0
4950,sg:e6b2ac1a95f44af0a86bb854317b38e7,PACK-RAT,CT,2019-03-01T00:00:00-05:00,2019-04-01T00:00:00-04:00,6473,403,88.0,"{""<5"":2,""5-20"":89,""21-60"":83,""61-240"":129,"">240"":100}",47893.5,41.37249,-72.881959,532289.0,CT,9.0,9009.0,New Haven County,90091671002.0
4994,sg:ebe00c1e02d0484b8c9cc64cf3915672,Neil's Donuts and Bake Shop,CT,2019-03-01T00:00:00-05:00,2019-04-01T00:00:00-04:00,6492,259,7.0,"{""<5"":19,""5-20"":209,""21-60"":18,""61-240"":9,"">240"":4}",5703.5,41.473967,-72.831055,722515.0,CT,9.0,9009.0,New Haven County,90091755002.0
5050,sg:f0f9d865ec7246d79b435dfc23370522,Mezcal,CT,2019-03-01T00:00:00-05:00,2019-04-01T00:00:00-04:00,6511,227,61.0,"{""<5"":3,""5-20"":47,""21-60"":60,""61-240"":85,"">240"":32}",23497.5,41.316693,-72.90895,722511.0,CT,9.0,9009.0,New Haven County,90091419002.0
5108,sg:f6c501ca6fae4db99ef10e852b5d4cbc,Old Navy,CT,2019-03-01T00:00:00-05:00,2019-04-01T00:00:00-04:00,6460,728,22.0,"{""<5"":14,""5-20"":304,""21-60"":296,""61-240"":70,"">240"":44}",36918.0,41.237046,-73.039304,448140.0,CT,9.0,9009.0,New Haven County,90091508002.0
5111,sg:f6ed45f481224bf395754fdc9f21e94f,LA Fitness,CT,2019-03-01T00:00:00-05:00,2019-04-01T00:00:00-04:00,6111,1302,27.0,"{""<5"":86,""5-20"":486,""21-60"":377,""61-240"":328,"">240"":25}",76922.5,41.650189000000005,-72.732676,713940.0,CT,9.0,9003.0,Hartford County,90034942013.0
5119,sg:f81039a841424d05b8ba4c086c2140eb,The Cork Shop,CT,2019-03-01T00:00:00-05:00,2019-04-01T00:00:00-04:00,6405,26,16.0,"{""<5"":2,""5-20"":14,""21-60"":4,""61-240"":3,"">240"":3}",1513.5,41.292237,-72.7881,445310.0,CT,9.0,9009.0,New Haven County,90091845001.0
5121,sg:f838029e047049e480b0af7348055162,Not The Same Senior Care,CT,2019-03-01T00:00:00-05:00,2019-04-01T00:00:00-04:00,6477,31,180.0,"{""<5"":2,""5-20"":3,""21-60"":2,""61-240"":13,"">240"":11}",4720.0,41.266705,-73.00039100000001,621330.0,CT,9.0,9009.0,New Haven County,90091571001.0
5143,sg:fa80904e419e475ab71d2b0e82307aba,Fur Babies Self Service Dog Wash,CT,2019-03-01T00:00:00-05:00,2019-04-01T00:00:00-04:00,6479,14,64.0,"{""<5"":0,""5-20"":5,""21-60"":2,""61-240"":6,"">240"":1}",1286.5,41.564526,-72.885852,453910.0,CT,9.0,9003.0,Hartford County,90034304002.0
5370,sg:10da70175b7b4cf893ec3472ab8783e0,Auto Glass Repair Haven,CT,2019-03-01T00:00:00-05:00,2019-04-01T00:00:00-04:00,6513,83,75.0,"{""<5"":2,""5-20"":22,""21-60"":14,""61-240"":27,"">240"":18}",9230.5,41.294483,-72.897148,423390.0,CT,9.0,9009.0,New Haven County,90091427004.0
5569,sg:233eb55392b344d79dc9a402d05869ef,Alfa Pizza,CT,2019-03-01T00:00:00-05:00,2019-04-01T00:00:00-04:00,6460,143,36.0,"{""<5"":6,""5-20"":50,""21-60"":27,""61-240"":41,"">240"":19}",12464.0,41.193509999999996,-73.08449499999999,722511.0,CT,9.0,9009.0,New Haven County,90091504002.0
5695,sg:30ffc94c34584d83805b9d68f8f7bb16,Sherwin-Williams,CT,2019-03-01T00:00:00-05:00,2019-04-01T00:00:00-04:00,6610,69,14.0,"{""<5"":1,""5-20"":42,""21-60"":15,""61-240"":5,"">240"":6}",3327.5,41.203532,-73.187843,444120.0,CT,9.0,9001.0,Fairfield County,90010734003.0
5788,sg:390f65ec6b594a2fbf92bc5b8542c79b,European Autoworks,CT,2019-03-01T00:00:00-05:00,2019-04-01T00:00:00-04:00,6830,1,445.0,"{""<5"":0,""5-20"":0,""21-60"":0,""61-240"":0,"">240"":1}",240.0,41.022887,-73.619442,811111.0,CT,9.0,9001.0,Fairfield County,90010107003.0
5794,sg:39fa72c533e94aae8aaa936d145b5d2f,First Church of Christ Congregational,CT,2019-03-01T00:00:00-05:00,2019-04-01T00:00:00-04:00,6896,5,72.0,"{""<5"":0,""5-20"":0,""21-60"":1,""61-240"":4,"">240"":0}",642.5,41.304672,-73.378584,813110.0,CT,9.0,9001.0,Fairfield County,90012402001.0
5884,sg:428180a36e6a492fb0d48e43cbe41a86,Brightening Lives Homecare,CT,2019-03-01T00:00:00-05:00,2019-04-01T00:00:00-04:00,6082,21,8.0,"{""<5"":1,""5-20"":15,""21-60"":2,""61-240"":2,"">240"":1}",812.0,42.002998999999996,-72.593388,621610.0,CT,9.0,9003.0,Hartford County,90034806003.0
5920,sg:456baeb6e4234d488df6eb1083aad9cc,Ann S Katz Yoga Center LLC,CT,2019-03-01T00:00:00-05:00,2019-04-01T00:00:00-04:00,6880,43,126.0,"{""<5"":1,""5-20"":12,""21-60"":4,""61-240"":10,"">240"":16}",5659.5,41.170625,-73.349602,713940.0,CT,9.0,9001.0,Fairfield County,90010503005.0
5999,sg:4c9482be011d42a3bda2c161a7579c69,Jerry's Auto Body,CT,2019-03-01T00:00:00-05:00,2019-04-01T00:00:00-04:00,6607,148,120.5,"{""<5"":5,""5-20"":30,""21-60"":30,""61-240"":27,"">240"":56}",19106.0,41.181304,-73.158562,811121.0,CT,9.0,9001.0,Fairfield County,90010743002.0
6164,sg:5c0c4b86fd074b9f8d2c8027ae4d683f,Change,CT,2019-03-01T00:00:00-05:00,2019-04-01T00:00:00-04:00,6457,24,98.5,"{""<5"":0,""5-20"":6,""21-60"":4,""61-240"":4,"">240"":10}",3239.0,41.525227,-72.665112,621330.0,CT,9.0,9007.0,Middlesex County,90075422001.0
6187,sg:5f5a99b5640c4021a3d28ed63f6e2592,PABS African Restaurant,CT,2019-03-01T00:00:00-05:00,2019-04-01T00:00:00-04:00,6108,268,24.0,"{""<5"":3,""5-20"":120,""21-60"":55,""61-240"":35,"">240"":55}",22202.5,41.784436,-72.58856,722511.0,CT,9.0,9003.0,Hartford County,90035113001.0
6255,sg:66080c11935d4a0c9c55619e00660ad4,ALDI,CT,2019-03-01T00:00:00-05:00,2019-04-01T00:00:00-04:00,6066,851,18.0,"{""<5"":21,""5-20"":476,""21-60"":343,""61-240"":11,"">240"":0}",21549.5,41.841770000000004,-72.486521,445110.0,CT,9.0,9013.0,Tolland County,90135303023.0
6283,sg:68eec071d89c4693b5bb1865eab8f6f4,Holiday Inn Express Hotel & Suites Hartford Convention Ctr,CT,2019-03-01T00:00:00-05:00,2019-04-01T00:00:00-04:00,6114,190,100.5,"{""<5"":5,""5-20"":47,""21-60"":26,""61-240"":44,"">240"":68}",24595.0,41.734427000000004,-72.66074499999999,721110.0,CT,9.0,9003.0,Hartford County,90035025001.0
6295,sg:69c21dc8796d45db9783e2af8d07f89b,Sun Splash Bar & Grill,CT,2019-03-01T00:00:00-05:00,2019-04-01T00:00:00-04:00,6114,199,40.0,"{""<5"":5,""5-20"":67,""21-60"":42,""61-240"":46,"">240"":39}",18834.0,41.737837,-72.675138,722511.0,CT,9.0,9003.0,Hartford County,90035024003.0
6446,sg:782c457cfd2b4aeaacafcbf0c6c22ebb,Lucky Stone,CT,2019-03-01T00:00:00-05:00,2019-04-01T00:00:00-04:00,6489,22,15.0,"{""<5"":1,""5-20"":13,""21-60"":6,""61-240"":2,"">240"":0}",709.0,41.639356,-72.874778,442299.0,CT,9.0,9003.0,Hartford County,90034306013.0
6593,sg:866982b233644ac6bf86fb17c0ac2e78,Evangelical Covenant Church,CT,2019-03-01T00:00:00-05:00,2019-04-01T00:00:00-04:00,6511,22,46.5,"{""<5"":0,""5-20"":3,""21-60"":9,""61-240"":6,"">240"":4}",2265.0,41.316528000000005,-72.916361,813110.0,CT,9.0,9009.0,New Haven County,90091420003.0
6644,sg:8c204df17d2849b2aa49b69157a56da6,3D Kitchen And Bath,CT,2019-03-01T00:00:00-05:00,2019-04-01T00:00:00-04:00,6902,34,21.0,"{""<5"":1,""5-20"":16,""21-60"":7,""61-240"":6,"">240"":4}",2349.0,41.048852000000004,-73.52817399999999,444120.0,CT,9.0,9001.0,Fairfield County,90010221002.0
6693,sg:9035eea4febb4eb0b3b8a53e0c910337,Jeanne A Galvin CPA LLC,CT,2019-03-01T00:00:00-05:00,2019-04-01T00:00:00-04:00,6824,6,13.0,"{""<5"":1,""5-20"":3,""21-60"":0,""61-240"":2,"">240"":0}",341.0,41.209386,-73.29095500000001,541213.0,CT,9.0,9001.0,Fairfield County,90010603003.0
6927,sg:a8f7fbfef7d643bc84152c67bb479650,Kenneth J Huwer DDS,CT,2019-03-01T00:00:00-05:00,2019-04-01T00:00:00-04:00,6812,91,27.0,"{""<5"":1,""5-20"":29,""21-60"":46,""61-240"":8,"">240"":7}",5112.0,41.467073,-73.485512,621210.0,CT,9.0,9001.0,Fairfield County,90012202001.0
6942,sg:aa608996a6bd49ba9ae3e792ba0931ac,Monterrey,CT,2019-03-01T00:00:00-05:00,2019-04-01T00:00:00-04:00,6010,255,41.0,"{""<5"":5,""5-20"":69,""21-60"":105,""61-240"":60,"">240"":16}",17997.5,41.670265,-72.937489,722511.0,CT,9.0,9003.0,Hartford County,90034061003.0
6947,sg:aad8795214e24fcd9e429b3b47fe798f,Boost Mobile,CT,2019-03-01T00:00:00-05:00,2019-04-01T00:00:00-04:00,6702,7,241.0,"{""<5"":0,""5-20"":1,""21-60"":1,""61-240"":1,"">240"":4}",1163.5,41.55526,-73.04101899999999,517312.0,CT,9.0,9009.0,New Haven County,90093501003.0
6979,sg:adc3fecc13ca4ab2b0125d2f57fe7299,Modern Vehicle Care,CT,2019-03-01T00:00:00-05:00,2019-04-01T00:00:00-04:00,6712,38,41.0,"{""<5"":0,""5-20"":5,""21-60"":24,""61-240"":9,"">240"":0}",2389.0,41.505221999999996,-72.984612,441120.0,CT,9.0,9009.0,New Haven County,90093472001.0
7092,sg:b9377f22dc084250be6c0dada51f4864,M White Lounge,CT,2019-03-01T00:00:00-05:00,2019-04-01T00:00:00-04:00,6605,63,81.0,"{""<5"":2,""5-20"":22,""21-60"":4,""61-240"":17,"">240"":18}",7320.5,41.163682,-73.220865,722511.0,CT,9.0,9001.0,Fairfield County,90010702002.0
7161,sg:bf115b56ff93486595ac5ae4a7832151,Connecticut Retina Consultants,CT,2019-03-01T00:00:00-05:00,2019-04-01T00:00:00-04:00,6519,397,48.0,"{""<5"":7,""5-20"":95,""21-60"":125,""61-240"":126,"">240"":44}",35790.5,41.300971000000004,-72.930134,621111.0,CT,9.0,9009.0,New Haven County,90091403002.0
7579,sg:e8aed8e45c364f968d662c37b13106af,Sunoco,CT,2019-03-01T00:00:00-05:00,2019-04-01T00:00:00-04:00,6770,255,6.0,"{""<5"":29,""5-20"":164,""21-60"":18,""61-240"":15,"">240"":29}",12069.0,41.50508,-73.04503100000001,447110.0,CT,9.0,9009.0,New Haven County,90093451004.0
7603,sg:ec63744ad71944d3b6b28e7490571388,IBM Southbury,CT,2019-03-01T00:00:00-05:00,2019-04-01T00:00:00-04:00,6488,5,45.0,"{""<5"":0,""5-20"":1,""21-60"":2,""61-240"":1,"">240"":1}",484.0,41.472561999999996,-73.20725300000001,221111.0,CT,9.0,9009.0,New Haven County,90093481232.0
7821,sg:01e00cd4f8ea4ecd997d69e9eec83dfc,Greenwich Hospital Association,CT,2019-03-01T00:00:00-05:00,2019-04-01T00:00:00-04:00,6830,3245,84.0,"{""<5"":60,""5-20"":663,""21-60"":670,""61-240"":905,"">240"":947}",399055.0,41.034317,-73.630601,622110.0,CT,9.0,9001.0,Fairfield County,90010103003.0
8162,sg:2265fa72d2c74f52a22ab5d97b949eb3,Clinton Park,CT,2019-03-01T00:00:00-05:00,2019-04-01T00:00:00-04:00,6604,348,115.0,"{""<5"":8,""5-20"":83,""21-60"":50,""61-240"":81,"">240"":126}",45513.0,41.179244,-73.215252,712190.0,CT,9.0,9001.0,Fairfield County,90010721003.0
8177,sg:23d6540f5a5b486385ab8addb0a864a2,Savers Thrift Stores,CT,2019-03-01T00:00:00-05:00,2019-04-01T00:00:00-04:00,6477,416,29.0,"{""<5"":12,""5-20"":147,""21-60"":130,""61-240"":77,"">240"":50}",30721.0,41.274048,-72.99095600000001,453310.0,CT,9.0,9009.0,New Haven County,90091571001.0
8303,sg:2ec301707338444fa17433ca0b898b15,Waxy O'Connor's,CT,2019-03-01T00:00:00-05:00,2019-04-01T00:00:00-04:00,6062,198,63.5,"{""<5"":5,""5-20"":35,""21-60"":54,""61-240"":85,"">240"":19}",19989.5,41.671493,-72.836924,722511.0,CT,9.0,9003.0,Hartford County,90034207003.0
8587,sg:481bd4b02149478ab83f43fc93c49897,The Cue,CT,2019-03-01T00:00:00-05:00,2019-04-01T00:00:00-04:00,6811,318,80.5,"{""<5"":1,""5-20"":48,""21-60"":74,""61-240"":164,"">240"":31}",35721.5,41.425208000000005,-73.473248,722511.0,CT,9.0,9001.0,Fairfield County,90012110002.0
8688,sg:51de7bdffecb48c880216306326512ec,Dual Language Arts Academy Academia Bilingue De Las Artes,CT,2019-03-01T00:00:00-05:00,2019-04-01T00:00:00-04:00,6371,23,100.0,"{""<5"":0,""5-20"":3,""21-60"":0,""61-240"":17,"">240"":3}",3316.0,41.319129,-72.266483,611110.0,CT,9.0,9011.0,New London County,90116601022.0
8712,sg:53ef4ddc252a4043a157db97ca9cd452,Big Daddy's Take Out,CT,2019-03-01T00:00:00-05:00,2019-04-01T00:00:00-04:00,6798,6,14.5,"{""<5"":0,""5-20"":5,""21-60"":1,""61-240"":0,"">240"":0}",103.0,41.595865,-73.168786,722511.0,CT,9.0,9005.0,Litchfield County,90053621021.0
8728,sg:550a45cc8fd14373ac38e63d514afbcf,Congregational Church of Plainville,CT,2019-03-01T00:00:00-05:00,2019-04-01T00:00:00-04:00,6062,32,49.0,"{""<5"":0,""5-20"":5,""21-60"":13,""61-240"":10,"">240"":4}",3054.0,41.670164,-72.87406,813110.0,CT,9.0,9003.0,Hartford County,90034205002.0
8925,sg:69b9ffb268d149f28df395e8460e372e,Montessori School Of Madison,CT,2019-03-01T00:00:00-05:00,2019-04-01T00:00:00-04:00,6443,9,21.0,"{""<5"":2,""5-20"":2,""21-60"":4,""61-240"":1,"">240"":0}",342.5,41.294573,-72.627083,624410.0,,,,,
8985,sg:70749aff76664303b0e7c1baa992351e,Hallinan Thomas M LMFT LADC,CT,2019-03-01T00:00:00-05:00,2019-04-01T00:00:00-04:00,6708,134,21.0,"{""<5"":2,""5-20"":63,""21-60"":54,""61-240"":13,"">240"":2}",5416.0,41.549223,-73.065641,621330.0,CT,9.0,9009.0,New Haven County,90093518002.0
9082,sg:787200fc649942bc8122cbf957a1441c,South Windsor Pediatrics Llc,CT,2019-03-01T00:00:00-05:00,2019-04-01T00:00:00-04:00,6074,3,533.0,"{""<5"":0,""5-20"":0,""21-60"":0,""61-240"":0,"">240"":3}",720.0,41.826757,-72.558995,621111.0,CT,9.0,9003.0,Hartford County,90034875002.0
9123,sg:7d7f597deaf946029e4a39a07133229b,Gray Jeffrey DMD,CT,2019-03-01T00:00:00-05:00,2019-04-01T00:00:00-04:00,6770,38,64.5,"{""<5"":1,""5-20"":8,""21-60"":8,""61-240"":7,"">240"":14}",4840.0,41.491531,-73.056128,621210.0,CT,9.0,9009.0,New Haven County,90093453001.0
9201,sg:847ca4397ba147449d13db4fcb36bc5f,El Dorado Meat Market,CT,2019-03-01T00:00:00-05:00,2019-04-01T00:00:00-04:00,6606,11,15.0,"{""<5"":0,""5-20"":8,""21-60"":3,""61-240"":0,"">240"":0}",221.5,41.207822,-73.178678,445110.0,CT,9.0,9001.0,Fairfield County,90010731002.0
9260,sg:89d6a128a0754190901897a1c775e553,Cromwell Martial Arts Training Center LLC,CT,2019-03-01T00:00:00-05:00,2019-04-01T00:00:00-04:00,6457,431,54.0,"{""<5"":2,""5-20"":117,""21-60"":114,""61-240"":117,"">240"":81}",43133.0,41.582691,-72.67356,713940.0,CT,9.0,9007.0,Middlesex County,90075412002.0
9263,sg:8a29808515da45c88b6373704c8da793,Pick & Mix,CT,2019-03-01T00:00:00-05:00,2019-04-01T00:00:00-04:00,6107,29,17.0,"{""<5"":1,""5-20"":17,""21-60"":6,""61-240"":1,"">240"":4}",1568.5,41.755199,-72.766132,722511.0,CT,9.0,9003.0,Hartford County,90034977002.0
9331,sg:90095df260a7483eabbbb32dd35e4e2f,Augie's Cafe,CT,2019-03-01T00:00:00-05:00,2019-04-01T00:00:00-04:00,6010,187,82.0,"{""<5"":6,""5-20"":44,""21-60"":33,""61-240"":58,"">240"":46}",21670.5,41.672181,-72.960313,722511.0,CT,9.0,9003.0,Hartford County,90034056005.0
9400,sg:96d8cc816b324bfb8cb727aab17469cf,Brookside Bar and Grill,CT,2019-03-01T00:00:00-05:00,2019-04-01T00:00:00-04:00,6441,140,42.5,"{""<5"":1,""5-20"":40,""21-60"":49,""61-240"":41,"">240"":9}",10817.5,41.494775,-72.557354,722511.0,CT,9.0,9007.0,Middlesex County,90075901001.0
9598,sg:a9984cca69a74510913a7202e6d7774b,Bravo Supermarkets,CT,2019-03-01T00:00:00-05:00,2019-04-01T00:00:00-04:00,6114,528,40.5,"{""<5"":12,""5-20"":196,""21-60"":93,""61-240"":106,"">240"":121}",51239.5,41.741501,-72.683948,445110.0,CT,9.0,9003.0,Hartford County,90035026002.0
9636,sg:ae098d4b70df4339abf314a784dba62b,Marci's Unisex Hair Salon,CT,2019-03-01T00:00:00-05:00,2019-04-01T00:00:00-04:00,6468,29,19.0,"{""<5"":0,""5-20"":17,""21-60"":5,""61-240"":4,"">240"":3}",1737.0,41.299915999999996,-73.249708,446120.0,CT,9.0,9001.0,Fairfield County,90011001003.0
9781,sg:bd99e79c9c9c498cbd904246463cedfc,Midas,CT,2019-03-01T00:00:00-05:00,2019-04-01T00:00:00-04:00,6614,1,241.0,"{""<5"":0,""5-20"":0,""21-60"":0,""61-240"":0,"">240"":1}",240.0,41.199467999999996,-73.130013,811111.0,CT,9.0,9001.0,Fairfield County,90010808002.0
9942,sg:d0a95f2e334b4952814a24c4f599597d,The Next Street,CT,2019-03-01T00:00:00-05:00,2019-04-01T00:00:00-04:00,6489,37,61.0,"{""<5"":1,""5-20"":3,""21-60"":14,""61-240"":8,"">240"":11}",4451.0,41.596406,-72.87668000000001,611692.0,CT,9.0,9003.0,Hartford County,90034301001.0
10082,sg:deee1e59646b460ea4aa2b87c8e96769,ALDI,CT,2019-03-01T00:00:00-05:00,2019-04-01T00:00:00-04:00,6704,442,16.0,"{""<5"":10,""5-20"":277,""21-60"":139,""61-240"":10,"">240"":6}",12062.0,41.579466,-73.029012,445110.0,CT,9.0,9009.0,New Haven County,90093525002.0
10145,sg:e4f1be49b20f4453b88187b74603e02f,Hooters,CT,2019-03-01T00:00:00-05:00,2019-04-01T00:00:00-04:00,6109,514,41.0,"{""<5"":11,""5-20"":159,""21-60"":140,""61-240"":159,"">240"":45}",42414.5,41.707772999999996,-72.701355,722511.0,CT,9.0,9003.0,Hartford County,90034923004.0
10243,sg:ef2bca32f62b45a6b237f21009e90de7,Sanford Avenue Field,CT,2019-03-01T00:00:00-05:00,2019-04-01T00:00:00-04:00,6787,171,36.0,"{""<5"":4,""5-20"":67,""21-60"":37,""61-240"":45,"">240"":18}",13438.5,41.674833,-73.075919,713940.0,CT,9.0,9005.0,Litchfield County,90053492002.0
10290,sg:f53b10e5c40349ad9148b7f61038a270,Sister City Park,CT,2019-03-01T00:00:00-05:00,2019-04-01T00:00:00-04:00,6051,810,43.0,"{""<5"":23,""5-20"":278,""21-60"":161,""61-240"":246,"">240"":102}",71556.0,41.662094,-72.77999200000001,712190.0,CT,9.0,9003.0,Hartford County,90034171002.0
10418,sg:03a904d53080478280c5cf41b8cf83e8,David Ring Ameriprise Financial Services,CT,2019-03-01T00:00:00-05:00,2019-04-01T00:00:00-04:00,6890,2,4.5,"{""<5"":1,""5-20"":1,""21-60"":0,""61-240"":0,"">240"":0}",15.0,41.139476,-73.274873,523930.0,CT,9.0,9001.0,Fairfield County,90010606001.0
10632,sg:16c62c24c2574c079984acc13394b0c8,Cromwell Pizza & Pasta,CT,2019-03-01T00:00:00-05:00,2019-04-01T00:00:00-04:00,6416,188,61.5,"{""<5"":4,""5-20"":43,""21-60"":44,""61-240"":44,"">240"":53}",21671.5,41.593672,-72.646148,722511.0,CT,9.0,9007.0,Middlesex County,90075703001.0
10748,sg:226cb11954d1420da3f0c436378c0d38,MyEyeDr.,CT,2019-03-01T00:00:00-05:00,2019-04-01T00:00:00-04:00,6470,1,9.0,"{""<5"":0,""5-20"":1,""21-60"":0,""61-240"":0,"">240"":0}",12.5,41.372294000000004,-73.27362099999999,621320.0,CT,9.0,9001.0,Fairfield County,90012304002.0
10842,sg:2b52e5811db8436ca63fee18bcd82bf6,United States Postal Service (USPS),CT,2019-03-01T00:00:00-05:00,2019-04-01T00:00:00-04:00,6239,32,7.0,"{""<5"":2,""5-20"":20,""21-60"":3,""61-240"":5,"">240"":2}",1609.0,41.80328,-71.88540400000001,491110.0,CT,9.0,9015.0,Windham County,90159045003.0
10866,sg:2e2ac00cab504cf895e5a2478940788f,Mobil,CT,2019-03-01T00:00:00-05:00,2019-04-01T00:00:00-04:00,6405,371,9.0,"{""<5"":28,""5-20"":227,""21-60"":40,""61-240"":51,"">240"":25}",18203.0,41.286196000000004,-72.81788399999999,447110.0,CT,9.0,9009.0,New Haven County,90091841005.0
11032,sg:3c43a4306bae40d388c52ffa54ba495c,JumpDrum,CT,2019-03-01T00:00:00-05:00,2019-04-01T00:00:00-04:00,6810,441,92.0,"{""<5"":10,""5-20"":73,""21-60"":85,""61-240"":153,"">240"":120}",56206.5,41.397861,-73.452628,713940.0,CT,9.0,9001.0,Fairfield County,90012101001.0
11120,sg:471f18f1c638458dbfce2cca71984bcd,Inside Living Style,CT,2019-03-01T00:00:00-05:00,2019-04-01T00:00:00-04:00,6460,4,9.5,"{""<5"":0,""5-20"":4,""21-60"":0,""61-240"":0,"">240"":0}",50.0,41.221022,-73.058266,442110.0,CT,9.0,9009.0,New Haven County,90091501002.0
11223,sg:50c105061722474bae9cf3c3eb563a3c,Liberty Bank,CT,2019-03-01T00:00:00-05:00,2019-04-01T00:00:00-04:00,6475,6,5.0,"{""<5"":0,""5-20"":6,""21-60"":0,""61-240"":0,"">240"":0}",75.0,41.292028,-72.382684,522110.0,CT,9.0,9007.0,Middlesex County,90076702004.0
11251,sg:535f02130d634f78afac8e090809c403,Theodore J Adamidis DMD,CT,2019-03-01T00:00:00-05:00,2019-04-01T00:00:00-04:00,6111,1,531.0,"{""<5"":0,""5-20"":0,""21-60"":0,""61-240"":0,"">240"":1}",240.0,41.708493,-72.73688800000001,621210.0,CT,9.0,9003.0,Hartford County,90034946002.0
11344,sg:5be3abbe26a64bffa0e41d9ba541dc38,St Marys Roman Catholic Church,CT,2019-03-01T00:00:00-05:00,2019-04-01T00:00:00-04:00,6830,1,76.0,"{""<5"":0,""5-20"":0,""21-60"":0,""61-240"":1,"">240"":0}",150.5,41.027787,-73.626657,813110.0,CT,9.0,9001.0,Fairfield County,90010106003.0
11369,sg:5db6331b9b8041578e1aab72a6b0c141,McDonald's,CT,2019-03-01T00:00:00-05:00,2019-04-01T00:00:00-04:00,6042,413,8.0,"{""<5"":23,""5-20"":326,""21-60"":50,""61-240"":7,"">240"":7}",8891.0,41.797049,-72.556057,722513.0,CT,9.0,9003.0,Hartford County,90035141021.0
11449,sg:65c6b6c00c184f64bb93907a0fb36552,Bank of America,CT,2019-03-01T00:00:00-05:00,2019-04-01T00:00:00-04:00,6226,26,6.0,"{""<5"":4,""5-20"":20,""21-60"":0,""61-240"":1,"">240"":1}",650.5,41.721889000000004,-72.23795,522110.0,CT,9.0,9015.0,Windham County,90158003001.0
11488,sg:68c1353260eb4a8cad6f1be6000ef999,Via Sforza Trattoria,CT,2019-03-01T00:00:00-05:00,2019-04-01T00:00:00-04:00,6880,245,44.0,"{""<5"":4,""5-20"":74,""21-60"":71,""61-240"":72,"">240"":24}",20406.5,41.133906,-73.372523,722511.0,CT,9.0,9001.0,Fairfield County,90010504001.0
11568,sg:6ffa96428f154f9fb5d214610557f64a,Iwo Jima Survivors Memorial Park,CT,2019-03-01T00:00:00-05:00,2019-04-01T00:00:00-04:00,6111,99,6.0,"{""<5"":10,""5-20"":69,""21-60"":11,""61-240"":4,"">240"":5}",3135.0,41.693978,-72.75658,712120.0,CT,9.0,9003.0,Hartford County,90034946002.0
11574,sg:70bc4bd8bf6b49cb96b6eec625077dbd,Winners New Britain,CT,2019-03-01T00:00:00-05:00,2019-04-01T00:00:00-04:00,6051,445,40.0,"{""<5"":10,""5-20"":137,""21-60"":122,""61-240"":136,"">240"":40}",36746.5,41.671484,-72.778511,713210.0,CT,9.0,9003.0,Hartford County,90034171001.0
11601,sg:739d441c2fc94ae7a074376c651594be,Ellington Farmers Market,CT,2019-03-01T00:00:00-05:00,2019-04-01T00:00:00-04:00,6029,104,74.0,"{""<5"":1,""5-20"":16,""21-60"":22,""61-240"":43,"">240"":22}",12845.0,41.902514000000004,-72.464674,445230.0,CT,9.0,9013.0,Tolland County,90135351004.0
11952,sg:97dbf4d8ff054963b875eeab217f1f04,Berkshire Food,CT,2019-03-01T00:00:00-05:00,2019-04-01T00:00:00-04:00,6810,95,79.0,"{""<5"":2,""5-20"":27,""21-60"":14,""61-240"":30,"">240"":22}",10704.5,41.406188,-73.424504,445110.0,CT,9.0,9001.0,Fairfield County,90012104003.0
12044,sg:a0e058c1ab6743ae9e8b64aaf9b963b1,Resilient Training Lab,CT,2019-03-01T00:00:00-05:00,2019-04-01T00:00:00-04:00,6473,85,16.0,"{""<5"":0,""5-20"":51,""21-60"":23,""61-240"":8,"">240"":3}",3493.0,41.394442,-72.859299,713940.0,CT,9.0,9009.0,New Haven County,90091672022.0
12175,sg:aee234e8bcba443bba6499b3584db9ca,American Family Care,CT,2019-03-01T00:00:00-05:00,2019-04-01T00:00:00-04:00,6051,58,19.5,"{""<5"":2,""5-20"":29,""21-60"":19,""61-240"":6,"">240"":2}",2520.0,41.670274,-72.778812,621111.0,CT,9.0,9003.0,Hartford County,90034171001.0
12210,sg:b3101c783c894dd58337678ebd478879,American Job Centers,CT,2019-03-01T00:00:00-05:00,2019-04-01T00:00:00-04:00,6457,9,20.0,"{""<5"":1,""5-20"":4,""21-60"":0,""61-240"":1,"">240"":3}",923.0,41.548778000000006,-72.649951,561311.0,CT,9.0,9007.0,Middlesex County,90075420003.0
12280,sg:bafc2061cf874cda823389366fdb0ec9,Procare Physical Therapy and Sports Medicine,CT,2019-03-01T00:00:00-05:00,2019-04-01T00:00:00-04:00,6320,100,71.5,"{""<5"":1,""5-20"":28,""21-60"":19,""61-240"":23,"">240"":29}",11543.5,41.348907000000004,-72.10235300000001,621340.0,CT,9.0,9011.0,New London County,90116907001.0
12356,sg:c199998396d04416b5f2246cc827a7cd,CITGO,CT,2019-03-01T00:00:00-05:00,2019-04-01T00:00:00-04:00,6410,342,6.0,"{""<5"":50,""5-20"":261,""21-60"":11,""61-240"":14,"">240"":6}",7380.0,41.514509000000004,-72.89882,447110.0,CT,9.0,9009.0,New Haven County,90093431021.0
12391,sg:c55142db68244aeca382572c12e99cbd,Quaker Hill Baptist Church,CT,2019-03-01T00:00:00-05:00,2019-04-01T00:00:00-04:00,6375,35,39.0,"{""<5"":0,""5-20"":13,""21-60"":8,""61-240"":12,"">240"":2}",2772.5,41.405662,-72.111034,813110.0,CT,9.0,9011.0,New London County,90116936001.0
12725,sg:e853000ed1eb445780704ddf6dc7c1ef,GNC (General Nutrition Centers),CT,2019-03-01T00:00:00-05:00,2019-04-01T00:00:00-04:00,6095,1,6.0,"{""<5"":0,""5-20"":1,""21-60"":0,""61-240"":0,"">240"":0}",12.5,41.891507,-72.650362,446191.0,CT,9.0,9003.0,Hartford County,90034735023.0
12726,sg:e8656222da6445efa83c44a3e20e640e,Stop & Shop,CT,2019-03-01T00:00:00-05:00,2019-04-01T00:00:00-04:00,6831,666,16.0,"{""<5"":18,""5-20"":403,""21-60"":194,""61-240"":19,"">240"":32}",23479.0,41.039582,-73.667172,445110.0,CT,9.0,9001.0,Fairfield County,90010101012.0
12830,sg:f19a127c16c54dd5bbc3bf06f35293aa,Sacred Heart Parish,CT,2019-03-01T00:00:00-05:00,2019-04-01T00:00:00-04:00,6830,1,127.0,"{""<5"":0,""5-20"":0,""21-60"":0,""61-240"":1,"">240"":0}",150.5,41.006674,-73.65393900000001,813110.0,CT,9.0,9001.0,Fairfield County,90010113003.0
12851,sg:f3408958e09242b0b8331246199e35ae,West Service Center,CT,2019-03-01T00:00:00-05:00,2019-04-01T00:00:00-04:00,6279,14,10.5,"{""<5"":0,""5-20"":11,""21-60"":2,""61-240"":0,"">240"":1}",458.5,41.877142,-72.272593,811111.0,CT,9.0,9013.0,Tolland County,90138401004.0
12862,sg:f4d124b3a4844053b9b5c0042ed1c611,Northwestern Mutual,CT,2019-03-01T00:00:00-05:00,2019-04-01T00:00:00-04:00,6880,28,486.0,"{""<5"":0,""5-20"":0,""21-60"":0,""61-240"":5,"">240"":23}",6272.5,41.130926,-73.368955,524210.0,CT,9.0,9001.0,Fairfield County,90010504001.0
12869,sg:f5cfb21da9f841a69e2427e02229c464,Jefferson Radiology Glastonbury,CT,2019-03-01T00:00:00-05:00,2019-04-01T00:00:00-04:00,6033,104,49.5,"{""<5"":3,""5-20"":24,""21-60"":31,""61-240"":21,"">240"":25}",10723.5,41.714836,-72.586399,621111.0,CT,9.0,9003.0,Hartford County,90035203011.0
12986,sg:01ad85d88eaf4ef28a48e7d26e5b3a09,AT&T,CT,2019-03-01T00:00:00-05:00,2019-04-01T00:00:00-04:00,6854,2,122.5,"{""<5"":0,""5-20"":1,""21-60"":0,""61-240"":1,"">240"":0}",163.0,41.092538,-73.451707,517312.0,CT,9.0,9001.0,Fairfield County,90010431003.0
12989,sg:01eb201cf5f54a9e8735e73ec2551c5d,Fas Mart,CT,2019-03-01T00:00:00-05:00,2019-04-01T00:00:00-04:00,6492,25,6.0,"{""<5"":2,""5-20"":22,""21-60"":0,""61-240"":0,"">240"":1}",520.0,41.472926,-72.814475,447110.0,,,,,
13217,sg:179f40b33f4b4686b6a85310ef48cc59,Longshore Pavilion,CT,2019-03-01T00:00:00-05:00,2019-04-01T00:00:00-04:00,6855,63,31.0,"{""<5"":0,""5-20"":22,""21-60"":18,""61-240"":17,"">240"":6}",5002.5,41.084459,-73.398707,712190.0,CT,9.0,9001.0,Fairfield County,90010443004.0
13644,sg:4167383fa4b74aa98fcc1a0399aecd92,Sing's Kitchen,CT,2019-03-01T00:00:00-05:00,2019-04-01T00:00:00-04:00,6516,33,14.0,"{""<5"":2,""5-20"":16,""21-60"":1,""61-240"":6,"">240"":8}",3068.5,41.260062,-72.964283,722511.0,CT,9.0,9009.0,New Haven County,90091548001.0
13678,sg:454160f54aa844e49aea4fc0b2d91c72,Sing Hee Restaurant,CT,2019-03-01T00:00:00-05:00,2019-04-01T00:00:00-04:00,6473,111,10.0,"{""<5"":5,""5-20"":69,""21-60"":17,""61-240"":12,"">240"":8}",5289.5,41.34042,-72.862515,722511.0,CT,9.0,9009.0,New Haven County,90091673003.0
13804,sg:5204de28cf6d40a99c9350856e31fcf5,Windham Technical High School,CT,2019-03-01T00:00:00-05:00,2019-04-01T00:00:00-04:00,6226,19,157.0,"{""<5"":0,""5-20"":6,""21-60"":2,""61-240"":3,"">240"":8}",2527.5,41.720328,-72.220711,611110.0,CT,9.0,9015.0,Windham County,90158003003.0
13856,sg:57686fdea21b42c7b7717d8e35a0bcce,Church of Christ,CT,2019-03-01T00:00:00-05:00,2019-04-01T00:00:00-04:00,6492,16,43.5,"{""<5"":0,""5-20"":5,""21-60"":6,""61-240"":5,"">240"":0}",1058.0,41.450424,-72.822891,813110.0,CT,9.0,9009.0,New Haven County,90091752001.0
13883,sg:5a7ae1117e4d442fbb5943ba11629545,Old Saybrook Historical Marker,CT,2019-03-01T00:00:00-05:00,2019-04-01T00:00:00-04:00,6475,34,65.5,"{""<5"":3,""5-20"":5,""21-60"":8,""61-240"":8,"">240"":10}",3998.0,41.287057,-72.375851,712120.0,CT,9.0,9007.0,Middlesex County,90076702004.0
13996,sg:64db5064aa67410a8d5a647704d35d05,Back To Basics True Value,CT,2019-03-01T00:00:00-05:00,2019-04-01T00:00:00-04:00,6786,1,14.0,"{""<5"":0,""5-20"":1,""21-60"":0,""61-240"":0,"">240"":0}",12.5,41.676846000000005,-73.01149000000001,444130.0,CT,9.0,9005.0,Litchfield County,90054255001.0
14172,sg:7466126e555842899d00bf78c1595084,Pocono Point Marina,CT,2019-03-01T00:00:00-05:00,2019-04-01T00:00:00-04:00,6811,16,51.0,"{""<5"":0,""5-20"":5,""21-60"":3,""61-240"":8,"">240"":0}",1388.0,41.448719,-73.42953299999999,441222.0,CT,9.0,9001.0,Fairfield County,90012114002.0
14222,sg:79a8f921c101484bb186ea498a21fa96,NOVO Medical Aesthetics,CT,2019-03-01T00:00:00-05:00,2019-04-01T00:00:00-04:00,6492,17,60.0,"{""<5"":0,""5-20"":1,""21-60"":8,""61-240"":7,"">240"":1}",1630.0,41.464052,-72.834618,812199.0,CT,9.0,9009.0,New Haven County,90091755003.0
14479,sg:9183b72f0e0b40a58132f3c73ecab809,Primera Iglesia Bautista Chrch,CT,2019-03-01T00:00:00-05:00,2019-04-01T00:00:00-04:00,6106,167,146.0,"{""<5"":2,""5-20"":20,""21-60"":23,""61-240"":64,"">240"":58}",24738.5,41.755951,-72.68228,813110.0,CT,9.0,9003.0,Hartford County,90035003001.0
14487,sg:922d6e0a1bc94c33b4cb15e59afc92a3,Ranch Cycle Motor Service,CT,2019-03-01T00:00:00-05:00,2019-04-01T00:00:00-04:00,6035,1,240.0,"{""<5"":0,""5-20"":0,""21-60"":0,""61-240"":1,"">240"":0}",150.5,41.9347,-72.791948,441228.0,CT,9.0,9003.0,Hartford County,90034681023.0
14511,sg:9433c113be4743d795ec0c6d94f5dc98,Our Lady of Fatima Church,CT,2019-03-01T00:00:00-05:00,2019-04-01T00:00:00-04:00,6706,126,42.5,"{""<5"":2,""5-20"":34,""21-60"":35,""61-240"":41,"">240"":14}",11378.0,41.524528000000004,-73.037973,813110.0,CT,9.0,9009.0,New Haven County,90093515004.0
14548,sg:9902fa92c5234a9a9b2e346acad778b5,Niantic Bay Bicycles,CT,2019-03-01T00:00:00-05:00,2019-04-01T00:00:00-04:00,6357,82,81.5,"{""<5"":3,""5-20"":18,""21-60"":14,""61-240"":27,"">240"":20}",9663.0,41.32342,-72.195461,451110.0,CT,9.0,9011.0,New London County,90118707042.0
14610,sg:9e2f0f12d55e4633826e1909afc708a7,Dann Hearing Aid Center,CT,2019-03-01T00:00:00-05:00,2019-04-01T00:00:00-04:00,6850,2,26.0,"{""<5"":0,""5-20"":1,""21-60"":1,""61-240"":0,"">240"":0}",53.0,41.114367,-73.416057,621111.0,CT,9.0,9001.0,Fairfield County,90010437001.0
14784,sg:b133c50481a546a2a27964c030eccd3b,Country Roads Wine & Spirits,CT,2019-03-01T00:00:00-05:00,2019-04-01T00:00:00-04:00,6447,201,11.0,"{""<5"":7,""5-20"":112,""21-60"":30,""61-240"":23,"">240"":29}",13054.0,41.632175,-72.458866,445310.0,CT,9.0,9003.0,Hartford County,90035241005.0
14855,sg:b934c9af962442d6a16afc4846af7cad,Edward Driving School,CT,2019-03-01T00:00:00-05:00,2019-04-01T00:00:00-04:00,6002,28,13.0,"{""<5"":0,""5-20"":21,""21-60"":4,""61-240"":1,"">240"":2}",1055.0,41.818276000000004,-72.702968,453310.0,CT,9.0,9003.0,Hartford County,90034712001.0
14875,sg:bbd6e98f46c14774a79544408fcd190a,Sunshine Preschool,CT,2019-03-01T00:00:00-05:00,2019-04-01T00:00:00-04:00,6517,41,61.0,"{""<5"":0,""5-20"":16,""21-60"":4,""61-240"":8,"">240"":13}",4686.0,41.343739,-72.913123,624410.0,,,,,
14938,sg:c1faecd7dd6f4fc484a979c27658a207,Aspetuck Valley Apple Barn,CT,2019-03-01T00:00:00-05:00,2019-04-01T00:00:00-04:00,6612,13,15.0,"{""<5"":1,""5-20"":8,""21-60"":4,""61-240"":0,"">240"":0}",264.5,41.255686,-73.323419,445110.0,CT,9.0,9001.0,Fairfield County,90011052001.0
14944,sg:c33d6cf3a36244b795977128f7cc980e,Capt'n John's Clambakes,CT,2019-03-01T00:00:00-05:00,2019-04-01T00:00:00-04:00,6850,12,25.5,"{""<5"":1,""5-20"":4,""21-60"":5,""61-240"":1,"">240"":1}",645.5,41.114668,-73.410312,445220.0,CT,9.0,9001.0,Fairfield County,90010437002.0
15289,sg:e49a1c22b11941b2a7b3f4055a67011c,Stamford Health Medical Group Greenwich,CT,2019-03-01T00:00:00-05:00,2019-04-01T00:00:00-04:00,6830,1,92.0,"{""<5"":0,""5-20"":0,""21-60"":0,""61-240"":1,"">240"":0}",150.5,41.015941999999995,-73.64746,621111.0,CT,9.0,9001.0,Fairfield County,90010105006.0
15373,sg:ee26daecc9894df89d319f9c53a0533f,Martha Link Walsh Gallery,CT,2019-03-01T00:00:00-05:00,2019-04-01T00:00:00-04:00,6405,5,10.0,"{""<5"":0,""5-20"":5,""21-60"":0,""61-240"":0,"">240"":0}",62.5,41.289657,-72.81124399999999,453920.0,CT,9.0,9009.0,New Haven County,90091841005.0
15605,sg:061241368e164713a2f1f8a401a95021,Colon and Rectal Surgeons of Greater Hartford,CT,2019-03-01T00:00:00-05:00,2019-04-01T00:00:00-04:00,6074,7,27.0,"{""<5"":0,""5-20"":3,""21-60"":4,""61-240"":0,"">240"":0}",199.5,41.819189,-72.555079,621111.0,CT,9.0,9003.0,Hartford County,90034875002.0
15623,sg:075f1d31dea44c03aa491803db412b2d,Cronin Park,CT,2019-03-01T00:00:00-05:00,2019-04-01T00:00:00-04:00,6112,1118,36.0,"{""<5"":31,""5-20"":422,""21-60"":202,""61-240"":248,"">240"":215}",102457.5,41.803588,-72.70636400000001,712190.0,CT,9.0,9003.0,Hartford County,90035039004.0
15745,sg:12b7d1471a9746c3afc3fb08a5ef4e3e,Edward McMahon Insurance,CT,2019-03-01T00:00:00-05:00,2019-04-01T00:00:00-04:00,6062,91,87.0,"{""<5"":2,""5-20"":19,""21-60"":20,""61-240"":19,"">240"":31}",11352.0,41.666869,-72.874875,524210.0,CT,9.0,9003.0,Hartford County,90034205002.0
15777,sg:156f60ac3eb24fc48068d7a8ea0c1791,Harding High School,CT,2019-03-01T00:00:00-05:00,2019-04-01T00:00:00-04:00,6610,317,71.0,"{""<5"":3,""5-20"":87,""21-60"":63,""61-240"":63,"">240"":101}",37368.0,41.191052,-73.167011,611110.0,CT,9.0,9001.0,Fairfield County,90010737004.0
15826,sg:19e5784ddd1247a2afd4db4608e44d0c,Greater New Haven OB GYN Group,CT,2019-03-01T00:00:00-05:00,2019-04-01T00:00:00-04:00,6519,4,189.0,"{""<5"":0,""5-20"":1,""21-60"":0,""61-240"":1,"">240"":2}",643.0,41.300979,-72.930146,621111.0,CT,9.0,9009.0,New Haven County,90091403002.0
16023,sg:2b3b732568e04b749815083e0a73783b,Storage Pros,CT,2019-03-01T00:00:00-05:00,2019-04-01T00:00:00-04:00,6355,4,41.0,"{""<5"":1,""5-20"":1,""21-60"":0,""61-240"":2,"">240"":0}",316.0,41.374419,-72.005815,531130.0,CT,9.0,9011.0,New London County,90117021002.0
16106,sg:337ac83dd3014344ae85f275d3b48d4c,Rays Auto Mall,CT,2019-03-01T00:00:00-05:00,2019-04-01T00:00:00-04:00,6120,34,15.5,"{""<5"":1,""5-20"":20,""21-60"":6,""61-240"":6,"">240"":1}",1638.5,41.797903000000005,-72.66239300000001,441120.0,CT,9.0,9003.0,Hartford County,90035244001.0
16155,sg:377e0ab0c78842a1b86c9ee5577a1146,St Anthony's Book & Gift Shop,CT,2019-03-01T00:00:00-05:00,2019-04-01T00:00:00-04:00,6477,61,10.0,"{""<5"":3,""5-20"":39,""21-60"":11,""61-240"":8,"">240"":0}",2144.5,41.302364000000004,-73.026037,451211.0,CT,9.0,9009.0,New Haven County,90091574001.0
16327,sg:4858e6c15ea44e28b02859703a9d224f,Colonial Spirit Shoppe,CT,2019-03-01T00:00:00-05:00,2019-04-01T00:00:00-04:00,6489,115,105.0,"{""<5"":3,""5-20"":31,""21-60"":15,""61-240"":25,"">240"":41}",14605.0,41.597265,-72.869741,445310.0,CT,9.0,9003.0,Hartford County,90034302032.0
16441,sg:530aa82f20064442a84de207532f2d6f,Beauty Plus,CT,2019-03-01T00:00:00-05:00,2019-04-01T00:00:00-04:00,6510,1,698.0,"{""<5"":0,""5-20"":0,""21-60"":0,""61-240"":0,"">240"":1}",240.0,41.305828000000005,-72.924643,,CT,9.0,9009.0,New Haven County,90091401001.0
16496,sg:58b368d5dd354449ad58cb89f8d4697a,CorpCare Occupational Health,CT,2019-03-01T00:00:00-05:00,2019-04-01T00:00:00-04:00,6074,113,44.0,"{""<5"":4,""5-20"":30,""21-60"":39,""61-240"":25,"">240"":15}",9327.0,41.820496,-72.55376,621111.0,CT,9.0,9003.0,Hartford County,90034875002.0
16568,sg:5e4c330c724b45a8a930125d11c449ad,Kitchen Advantage,CT,2019-03-01T00:00:00-05:00,2019-04-01T00:00:00-04:00,6475,323,42.0,"{""<5"":4,""5-20"":78,""21-60"":135,""61-240"":88,"">240"":18}",24016.5,41.28573,-72.41755400000001,442299.0,CT,9.0,9007.0,Middlesex County,90076701001.0
16658,sg:67519c38f975416d9bd728ad5dd88329,Connecticut Orthopedic Specialists,CT,2019-03-01T00:00:00-05:00,2019-04-01T00:00:00-04:00,6518,111,64.0,"{""<5"":1,""5-20"":13,""21-60"":35,""61-240"":39,"">240"":23}",12972.0,41.384963,-72.901752,621111.0,CT,9.0,9009.0,New Haven County,90091660014.0
16684,sg:69c5cbade5514be8be3073094dbb5b72,Century 21 Real Estate,CT,2019-03-01T00:00:00-05:00,2019-04-01T00:00:00-04:00,6606,2,53.0,"{""<5"":0,""5-20"":1,""21-60"":0,""61-240"":1,"">240"":0}",163.0,41.213367,-73.211004,531210.0,CT,9.0,9001.0,Fairfield County,90010727002.0
16730,sg:6d91e556798e468baee4b66d0ecc02f6,The Next Street,CT,2019-03-01T00:00:00-05:00,2019-04-01T00:00:00-04:00,6106,1,10.0,"{""<5"":0,""5-20"":1,""21-60"":0,""61-240"":0,"">240"":0}",12.5,41.759233,-72.698611,611692.0,CT,9.0,9003.0,Hartford County,90035029002.0
16773,sg:716f21f803714cc794e12b1aece26722,Killingly Public Library,CT,2019-03-01T00:00:00-05:00,2019-04-01T00:00:00-04:00,6239,171,60.0,"{""<5"":4,""5-20"":43,""21-60"":39,""61-240"":67,"">240"":18}",16530.5,41.808865000000004,-71.877899,519120.0,CT,9.0,9015.0,Windham County,90159045003.0
16861,sg:7af44292327b441ea8d3887d54dfbf5c,Amazing Animalz,CT,2019-03-01T00:00:00-05:00,2019-04-01T00:00:00-04:00,6239,48,27.0,"{""<5"":0,""5-20"":14,""21-60"":20,""61-240"":9,"">240"":5}",3539.5,41.804137,-71.884638,453910.0,CT,9.0,9015.0,Windham County,90159045003.0
16969,sg:86539dca700a47fb8d91ea6da6d343d0,Los Cubanitos Bakery,CT,2019-03-01T00:00:00-05:00,2019-04-01T00:00:00-04:00,6106,573,48.0,"{""<5"":11,""5-20"":199,""21-60"":97,""61-240"":118,"">240"":148}",59722.5,41.758,-72.691774,311811.0,CT,9.0,9003.0,Hartford County,90035028002.0
16984,sg:87ee936d4a334622aa853d441b951817,Alzheimer's Resource Center of Connecticut,CT,2019-03-01T00:00:00-05:00,2019-04-01T00:00:00-04:00,6479,283,163.0,"{""<5"":6,""5-20"":42,""21-60"":52,""61-240"":71,"">240"":112}",40211.5,41.57328,-72.894307,621610.0,CT,9.0,9003.0,Hartford County,90034304002.0
17035,sg:8c0dbab7d4d846af908cab2146e154da,Antonio's Restaurant,CT,2019-03-01T00:00:00-05:00,2019-04-01T00:00:00-04:00,6902,414,14.0,"{""<5"":16,""5-20"":217,""21-60"":64,""61-240"":59,"">240"":58}",28144.0,41.048306,-73.55453,722511.0,CT,9.0,9001.0,Fairfield County,90010214002.0
17159,sg:97188d7e21084f22a930c1f3e927caef,Kibberia,CT,2019-03-01T00:00:00-05:00,2019-04-01T00:00:00-04:00,6811,7,469.0,"{""<5"":0,""5-20"":1,""21-60"":0,""61-240"":0,"">240"":6}",1452.5,41.394903,-73.51168299999999,722511.0,CT,9.0,9001.0,Fairfield County,90012108001.0
17265,sg:a2c2fbb4bd2c45ca8e83a868fb14ffea,The Lakeville Journal,CT,2019-03-01T00:00:00-05:00,2019-04-01T00:00:00-04:00,6031,8,258.0,"{""<5"":0,""5-20"":0,""21-60"":2,""61-240"":2,"">240"":4}",1342.0,41.95608,-73.34956899999999,451211.0,CT,9.0,9005.0,Litchfield County,90054256001.0
17323,sg:a9026b77778040d08f030b6206be2bc0,Aspen Dental,CT,2019-03-01T00:00:00-05:00,2019-04-01T00:00:00-04:00,6810,22,49.0,"{""<5"":0,""5-20"":3,""21-60"":10,""61-240"":5,"">240"":4}",2155.0,41.408452000000004,-73.416278,621210.0,CT,9.0,9001.0,Fairfield County,90012104003.0
17367,sg:adc7149f6e8642129b5a82dbc203ac0f,Driving Image Imports,CT,2019-03-01T00:00:00-05:00,2019-04-01T00:00:00-04:00,6032,28,8.0,"{""<5"":3,""5-20"":18,""21-60"":7,""61-240"":0,"">240"":0}",516.0,41.715821000000005,-72.86261999999999,,CT,9.0,9003.0,Hartford County,90034602042.0
17617,sg:c715aeef0e714b369aadbfeeacec0b40,Westside Chiropractic,CT,2019-03-01T00:00:00-05:00,2019-04-01T00:00:00-04:00,6105,13,81.0,"{""<5"":0,""5-20"":2,""21-60"":3,""61-240"":7,"">240"":1}",1440.0,41.763954,-72.716314,621310.0,CT,9.0,9003.0,Hartford County,90034969001.0
17676,sg:ce1727a12c734997895bc61774a846ad,Sunglass Hut,CT,2019-03-01T00:00:00-05:00,2019-04-01T00:00:00-04:00,6830,1,194.0,"{""<5"":0,""5-20"":0,""21-60"":0,""61-240"":1,"">240"":0}",150.5,41.026213,-73.626285,446130.0,CT,9.0,9001.0,Fairfield County,90010106002.0
17851,sg:dffc7c46611c43c9be43ac6ed64ef3d8,Interdistrict Discovery Magnet School,CT,2019-03-01T00:00:00-05:00,2019-04-01T00:00:00-04:00,6825,126,149.0,"{""<5"":0,""5-20"":17,""21-60"":14,""61-240"":58,"">240"":37}",18388.5,41.200982,-73.240531,611110.0,CT,9.0,9001.0,Fairfield County,90010602002.0
17868,sg:e15a68d03e884038a302f5b9877a51d5,Munson's Chocolates,CT,2019-03-01T00:00:00-05:00,2019-04-01T00:00:00-04:00,6074,151,14.0,"{""<5"":3,""5-20"":96,""21-60"":30,""61-240"":13,"">240"":9}",6539.0,41.810235,-72.557064,445292.0,CT,9.0,9003.0,Hartford County,90034875002.0
17909,sg:e5b294eccf41498db87bee799c8da6fc,Commons Park,CT,2019-03-01T00:00:00-05:00,2019-04-01T00:00:00-04:00,6902,750,63.0,"{""<5"":20,""5-20"":210,""21-60"":133,""61-240"":212,"">240"":175}",81967.5,41.041545,-73.54066999999999,712190.0,CT,9.0,9001.0,Fairfield County,90010222002.0
18038,sg:f43f4983bb7d4848a82ad6ca29aefc24,Facilitated Healing Center,CT,2019-03-01T00:00:00-05:00,2019-04-01T00:00:00-04:00,6416,298,44.5,"{""<5"":3,""5-20"":79,""21-60"":86,""61-240"":108,"">240"":22}",26012.0,41.628219,-72.677886,713940.0,CT,9.0,9007.0,Middlesex County,90075701001.0
18087,sg:fa38e3afbef840aab0eae32a8b93ba31,For Your Paws Only,CT,2019-03-01T00:00:00-05:00,2019-04-01T00:00:00-04:00,6450,283,89.0,"{""<5"":12,""5-20"":69,""21-60"":37,""61-240"":89,"">240"":76}",34025.5,41.535178,-72.795581,453910.0,CT,9.0,9009.0,New Haven County,90091701002.0
18104,sg:fbd272982b314327b0e9f26fb2209465,G & G Beverage Distributor,CT,2019-03-01T00:00:00-05:00,2019-04-01T00:00:00-04:00,6492,161,34.0,"{""<5"":1,""5-20"":52,""21-60"":40,""61-240"":33,"">240"":35}",15639.0,41.488925,-72.816599,445310.0,CT,9.0,9009.0,New Haven County,90091754001.0
18140,sg:ff378591e19847a5b1518789d3741c56,IGA,CT,2019-03-01T00:00:00-05:00,2019-04-01T00:00:00-04:00,6062,185,20.0,"{""<5"":4,""5-20"":92,""21-60"":57,""61-240"":10,"">240"":22}",10253.5,41.66916,-72.861956,445110.0,CT,9.0,9003.0,Hartford County,90034205004.0
18150,sg:002fef86ef8f4cbbb6e95b23619aa7f9,Holy Trinity Polish National Catholic Church,CT,2019-03-01T00:00:00-05:00,2019-04-01T00:00:00-04:00,6479,25,9.0,"{""<5"":1,""5-20"":13,""21-60"":6,""61-240"":3,"">240"":2}",1339.5,41.594361,-72.888706,813110.0,CT,9.0,9003.0,Hartford County,90034305001.0
18247,sg:08f152354bae44bebcb9102ef5bffec9,Rock Ridge Country Club,CT,2019-03-01T00:00:00-05:00,2019-04-01T00:00:00-04:00,6470,211,82.0,"{""<5"":3,""5-20"":54,""21-60"":37,""61-240"":60,"">240"":57}",24891.0,41.379179,-73.346133,713910.0,CT,9.0,9001.0,Fairfield County,90012303002.0
18333,sg:128a037388054bb1b8aa102436561842,Kirby and Company,CT,2019-03-01T00:00:00-05:00,2019-04-01T00:00:00-04:00,6820,255,23.0,"{""<5"":9,""5-20"":105,""21-60"":64,""61-240"":39,"">240"":38}",18916.5,41.075540000000004,-73.472102,453220.0,CT,9.0,9001.0,Fairfield County,90010304001.0
18368,sg:15b00bf400c24ea9a5861619c9b4c099,Legacy Technology Services,CT,2019-03-01T00:00:00-05:00,2019-04-01T00:00:00-04:00,6029,59,256.0,"{""<5"":0,""5-20"":5,""21-60"":9,""61-240"":13,"">240"":32}",10063.5,41.891396,-72.463728,443142.0,CT,9.0,9013.0,Tolland County,90135351004.0
18478,sg:1f497115d9ac49a2a16df860949dce47,Webster Bank,CT,2019-03-01T00:00:00-05:00,2019-04-01T00:00:00-04:00,6850,206,413.0,"{""<5"":1,""5-20"":11,""21-60"":8,""61-240"":40,"">240"":146}",41524.0,41.14496,-73.428719,522110.0,CT,9.0,9001.0,Fairfield County,90010427001.0
18689,sg:33bb14f7f00d47618c8a6539ddff58c3,Shell Oil,CT,2019-03-01T00:00:00-05:00,2019-04-01T00:00:00-04:00,6117,304,8.0,"{""<5"":31,""5-20"":197,""21-60"":55,""61-240"":17,"">240"":4}",8286.0,41.786092,-72.746873,447110.0,CT,9.0,9003.0,Hartford County,90034975001.0
18806,sg:3e811ab3167a4f518b3743250cd567b3,Rapid Car Wash,CT,2019-03-01T00:00:00-05:00,2019-04-01T00:00:00-04:00,6320,63,29.0,"{""<5"":0,""5-20"":22,""21-60"":24,""61-240"":17,"">240"":0}",3805.5,41.361581,-72.116548,811192.0,CT,9.0,9011.0,New London County,90116903004.0
19029,sg:52e655c285e6414c8ecb63cd28b51e60,Prospect Cafe of East Hartford,CT,2019-03-01T00:00:00-05:00,2019-04-01T00:00:00-04:00,6108,128,51.0,"{""<5"":2,""5-20"":38,""21-60"":28,""61-240"":42,"">240"":18}",12255.0,41.779468,-72.636791,722511.0,CT,9.0,9003.0,Hartford County,90035101001.0
19126,sg:5b58f47b2067427995bc6686b028102a,Petrillos Used Auto Parts,CT,2019-03-01T00:00:00-05:00,2019-04-01T00:00:00-04:00,6513,51,11.0,"{""<5"":0,""5-20"":38,""21-60"":6,""61-240"":7,"">240"":0}",1771.5,41.323456,-72.88701999999999,441310.0,CT,9.0,9009.0,New Haven County,90091426014.0
19205,sg:62c6839382654868a14c9a45091eabef,Peking Tokyo,CT,2019-03-01T00:00:00-05:00,2019-04-01T00:00:00-04:00,6468,108,79.0,"{""<5"":4,""5-20"":31,""21-60"":15,""61-240"":22,"">240"":36}",12956.0,41.318636,-73.216588,722511.0,CT,9.0,9001.0,Fairfield County,90011002004.0
19227,sg:65bbeec07ba847e2a55575b8b0bde6aa,Shoreline Center For Wholistic Health,CT,2019-03-01T00:00:00-05:00,2019-04-01T00:00:00-04:00,6437,92,40.5,"{""<5"":0,""5-20"":26,""21-60"":33,""61-240"":25,"">240"":8}",7344.0,41.281203999999995,-72.680324,713940.0,CT,9.0,9009.0,New Haven County,90091901002.0
19472,sg:7c7e151432fc40c0888de5cc53bc5d52,Monica's Beauty Salon,CT,2019-03-01T00:00:00-05:00,2019-04-01T00:00:00-04:00,6457,34,103.0,"{""<5"":2,""5-20"":5,""21-60"":2,""61-240"":12,"">240"":13}",5074.5,41.553169,-72.67546800000001,812112.0,CT,9.0,9007.0,Middlesex County,90075414021.0
19511,sg:80e7bb57749f45cd9296fbc948a5b46e,Oliver's Dairy Bar & Grill,CT,2019-03-01T00:00:00-05:00,2019-04-01T00:00:00-04:00,6256,7,13.0,"{""<5"":0,""5-20"":5,""21-60"":2,""61-240"":0,"">240"":0}",143.5,41.745309000000006,-72.167946,722511.0,CT,9.0,9015.0,Windham County,90158005001.0
19640,sg:8dcc7e1a1486409cb877d6f1d146bb5b,First Church of Christ Congregational,CT,2019-03-01T00:00:00-05:00,2019-04-01T00:00:00-04:00,6052,26,68.5,"{""<5"":0,""5-20"":6,""21-60"":3,""61-240"":14,"">240"":3}",3023.5,41.658729,-72.801388,813110.0,CT,9.0,9003.0,Hartford County,90034164002.0
19660,sg:8f13336b0607482ca8aaa77efa590d33,Sonic,CT,2019-03-01T00:00:00-05:00,2019-04-01T00:00:00-04:00,6460,498,11.0,"{""<5"":17,""5-20"":343,""21-60"":118,""61-240"":13,"">240"":7}",12745.5,41.239174,-73.034284,722513.0,CT,9.0,9009.0,New Haven County,90091508001.0
19698,sg:93f95992e4e94e78b9f23e77be7546be,The Neighborhood Cafe',CT,2019-03-01T00:00:00-05:00,2019-04-01T00:00:00-04:00,6511,122,26.5,"{""<5"":6,""5-20"":39,""21-60"":37,""61-240"":24,"">240"":16}",9453.0,41.314788,-72.910749,722515.0,CT,9.0,9009.0,New Haven County,90091421001.0
19890,sg:a5512232f0bf440a8520aa7b6d2d820e,Kindred Spirits & Wine,CT,2019-03-01T00:00:00-05:00,2019-04-01T00:00:00-04:00,6468,92,9.5,"{""<5"":7,""5-20"":55,""21-60"":4,""61-240"":23,"">240"":3}",5048.5,41.323096,-73.265344,445310.0,CT,9.0,9001.0,Fairfield County,90011001002.0
19922,sg:a83ac01e1abb44eaac6c9af4b8063a16,Cricket Wireless,CT,2019-03-01T00:00:00-05:00,2019-04-01T00:00:00-04:00,6514,8,57.0,"{""<5"":0,""5-20"":2,""21-60"":2,""61-240"":4,"">240"":0}",708.0,41.338427,-72.934818,517312.0,CT,9.0,9009.0,New Haven County,90091655001.0
19939,sg:a9ead90279ae4c879840ef408d4c9a47,Wendy's,CT,2019-03-01T00:00:00-05:00,2019-04-01T00:00:00-04:00,6416,515,8.0,"{""<5"":29,""5-20"":361,""21-60"":50,""61-240"":41,"">240"":34}",20940.5,41.602202,-72.680138,722513.0,CT,9.0,9007.0,Middlesex County,90075701003.0
20067,sg:b85a792f28ad42df94aa7d25cb9fd6f7,Taste by Spellbound,CT,2019-03-01T00:00:00-05:00,2019-04-01T00:00:00-04:00,6110,11,39.0,"{""<5"":0,""5-20"":2,""21-60"":6,""61-240"":3,"">240"":0}",719.5,41.733044,-72.735057,311811.0,CT,9.0,9003.0,Hartford County,90034963001.0
20163,sg:c32ac3299dfb4c6cb699e3892ba576b3,Cortina Gardens,CT,2019-03-01T00:00:00-05:00,2019-04-01T00:00:00-04:00,6776,9,15.0,"{""<5"":0,""5-20"":5,""21-60"":0,""61-240"":2,"">240"":2}",843.5,41.563256,-73.392044,811411.0,CT,9.0,9005.0,Litchfield County,90052532003.0
20246,sg:cd01fd3f3f164388adb95c9f0df3c44f,CP Farmhouse,CT,2019-03-01T00:00:00-05:00,2019-04-01T00:00:00-04:00,6759,47,27.0,"{""<5"":0,""5-20"":16,""21-60"":19,""61-240"":10,"">240"":2}",2954.5,41.746461,-73.19147,453220.0,CT,9.0,9005.0,Litchfield County,90053005002.0
20318,sg:d4696eef9c974d839f19224b8eafbc1e,HaHa Monday,CT,2019-03-01T00:00:00-05:00,2019-04-01T00:00:00-04:00,6851,7,58.0,"{""<5"":0,""5-20"":2,""21-60"":2,""61-240"":2,"">240"":1}",647.0,41.157036,-73.392223,453110.0,CT,9.0,9001.0,Fairfield County,90010425002.0
20395,sg:dd582b8e900946368313227946773684,Dance Kraze Dance Studio,CT,2019-03-01T00:00:00-05:00,2019-04-01T00:00:00-04:00,6082,313,21.0,"{""<5"":13,""5-20"":135,""21-60"":76,""61-240"":44,"">240"":45}",22220.0,41.986249,-72.512197,713940.0,CT,9.0,9003.0,Hartford County,90034809001.0
20437,sg:e23bddf852d440459ceb10cb93b3369b,LensCrafters,CT,2019-03-01T00:00:00-05:00,2019-04-01T00:00:00-04:00,6475,10,29.0,"{""<5"":0,""5-20"":4,""21-60"":4,""61-240"":0,"">240"":2}",692.0,41.293401,-72.382336,446130.0,CT,9.0,9007.0,Middlesex County,90076702004.0
20486,sg:e658c784267b44afa3a417cfa5a71ccb,Bear Pond Family Medicine and Pediatrics,CT,2019-03-01T00:00:00-05:00,2019-04-01T00:00:00-04:00,6082,1,286.0,"{""<5"":0,""5-20"":0,""21-60"":0,""61-240"":0,"">240"":1}",240.0,41.990142,-72.5748,621111.0,CT,9.0,9003.0,Hartford County,90034808004.0
20507,sg:e80dcb9d2b1e4d99b3697b28602db7d6,East Side Greenhouses,CT,2019-03-01T00:00:00-05:00,2019-04-01T00:00:00-04:00,6401,24,47.0,"{""<5"":0,""5-20"":9,""21-60"":4,""61-240"":3,"">240"":8}",2646.0,41.358001,-73.07079,453110.0,CT,9.0,9009.0,New Haven County,90091254001.0
20548,sg:eca63a365e43469db5b65f5975244c09,Dimitri's Pizza,CT,2019-03-01T00:00:00-05:00,2019-04-01T00:00:00-04:00,6795,132,14.0,"{""<5"":11,""5-20"":65,""21-60"":22,""61-240"":32,"">240"":2}",7027.0,41.602303000000006,-73.115933,722511.0,CT,9.0,9005.0,Litchfield County,90053601003.0
20585,sg:f0b1d7f4c8f14287a22c4fd3a82c2d6c,J's Crab Shack,CT,2019-03-01T00:00:00-05:00,2019-04-01T00:00:00-04:00,6106,85,18.0,"{""<5"":6,""5-20"":43,""21-60"":19,""61-240"":10,"">240"":7}",4507.0,41.758351,-72.701739,722511.0,,,,,
20637,sg:f70e65d24bce4ff09dae3f4c897f029c,Proactive Safety,CT,2019-03-01T00:00:00-05:00,2019-04-01T00:00:00-04:00,6074,16,8.0,"{""<5"":1,""5-20"":13,""21-60"":2,""61-240"":0,"">240"":0}",246.0,41.846899,-72.563289,451110.0,CT,9.0,9003.0,Hartford County,90034871004.0
20685,sg:fbf014041d02409784bbb8e0c231110e,Tim's Barber Shop,CT,2019-03-01T00:00:00-05:00,2019-04-01T00:00:00-04:00,6340,22,16.0,"{""<5"":1,""5-20"":14,""21-60"":6,""61-240"":0,"">240"":1}",660.5,41.360603000000005,-72.077001,812112.0,CT,9.0,9011.0,New London County,90117024001.0
20701,sg:fd3ac8cbf9be4a08b37050d5ed2c93d5,Garden's Dream,CT,2019-03-01T00:00:00-05:00,2019-04-01T00:00:00-04:00,6416,6,9.0,"{""<5"":1,""5-20"":4,""21-60"":0,""61-240"":1,"">240"":0}",203.0,41.625149,-72.652271,811411.0,CT,9.0,9007.0,Middlesex County,90075703004.0
20707,sg:fe39dac94da24d1f828e3665d2568a7c,Hartford HealthCare Medical Group,CT,2019-03-01T00:00:00-05:00,2019-04-01T00:00:00-04:00,6074,37,31.0,"{""<5"":1,""5-20"":13,""21-60"":18,""61-240"":3,"">240"":2}",1825.5,41.808525,-72.555911,621111.0,,,,,
20719,sg:ffd942cd761a403990f824b9ca1a296e,Austin Voice Lessons,CT,2019-03-01T00:00:00-05:00,2019-04-01T00:00:00-04:00,6511,12,112.0,"{""<5"":0,""5-20"":0,""21-60"":4,""61-240"":5,"">240"":3}",1634.5,41.309404,-72.92439,611691.0,CT,9.0,9009.0,New Haven County,90093614022.0
20800,sg:076342a88edf462dbc495bf4db21f804,Last Stop Sandwich Shop,CT,2019-03-01T00:00:00-05:00,2019-04-01T00:00:00-04:00,6460,71,20.0,"{""<5"":5,""5-20"":31,""21-60"":22,""61-240"":12,"">240"":1}",3337.0,41.223221,-73.056876,722511.0,CT,9.0,9009.0,New Haven County,90091501001.0
20879,sg:0eb8ce6138e34b96ba88b5ed58e7a5a8,Selinga Sharon L DMD,CT,2019-03-01T00:00:00-05:00,2019-04-01T00:00:00-04:00,6518,13,552.0,"{""<5"":0,""5-20"":0,""21-60"":1,""61-240"":0,"">240"":12}",2920.5,41.393599,-72.896599,621210.0,CT,9.0,9009.0,New Haven County,90091660022.0
21113,sg:230bba4da3f541f9b4c12ff60e0b1d12,Expressions Shoes ,CT,2019-03-01T00:00:00-05:00,2019-04-01T00:00:00-04:00,6513,296,19.0,"{""<5"":6,""5-20"":148,""21-60"":36,""61-240"":40,"">240"":66}",25183.0,41.309385999999996,-72.89627,448210.0,CT,9.0,9009.0,New Haven County,90091424003.0
21119,sg:239d7a5334674b6c918151abdc618eee,Larry Suecof DPM,CT,2019-03-01T00:00:00-05:00,2019-04-01T00:00:00-04:00,6082,44,27.5,"{""<5"":0,""5-20"":17,""21-60"":20,""61-240"":6,"">240"":1}",2165.5,41.9871,-72.557406,621111.0,CT,9.0,9003.0,Hartford County,90034808004.0
21232,sg:2f972bf084a64ffb85c0176d59848be3,German School of Ct,CT,2019-03-01T00:00:00-05:00,2019-04-01T00:00:00-04:00,6811,14,127.5,"{""<5"":1,""5-20"":1,""21-60"":1,""61-240"":8,"">240"":3}",1979.5,41.417873,-73.516892,611630.0,CT,9.0,9001.0,Fairfield County,90012108003.0
21282,sg:33ef6ec3a74d4bc8a0c4325f292eeec3,Byram Archibald Neighborhood Ctr Banc Asp,CT,2019-03-01T00:00:00-05:00,2019-04-01T00:00:00-04:00,6830,49,61.0,"{""<5"":1,""5-20"":14,""21-60"":9,""61-240"":19,"">240"":6}",4841.5,41.003008,-73.6547,624410.0,CT,9.0,9001.0,Fairfield County,90010113002.0
21304,sg:359b902ea2e843fabe92635ead611b29,Coventry Farmers' Market,CT,2019-03-01T00:00:00-05:00,2019-04-01T00:00:00-04:00,6238,9,8.0,"{""<5"":1,""5-20"":7,""21-60"":1,""61-240"":0,"">240"":0}",130.5,41.764196999999996,-72.34608,445230.0,CT,9.0,9013.0,Tolland County,90138502004.0
21413,sg:40d67a38fbf04121aa0e24c3d8a27a98,Burger King,CT,2019-03-01T00:00:00-05:00,2019-04-01T00:00:00-04:00,6610,710,10.0,"{""<5"":46,""5-20"":456,""21-60"":151,""61-240"":42,"">240"":15}",21851.5,41.201842,-73.18581400000001,722513.0,CT,9.0,9001.0,Fairfield County,90010734003.0
21463,sg:4459421484314b5abcaa71251b6517fe,Naugatuck Day Care Inc,CT,2019-03-01T00:00:00-05:00,2019-04-01T00:00:00-04:00,6770,78,239.5,"{""<5"":1,""5-20"":15,""21-60"":7,""61-240"":16,"">240"":39}",12241.5,41.489055,-73.05000600000001,624410.0,CT,9.0,9009.0,New Haven County,90093452012.0
21836,sg:6614adf518744d4faab9a049aee3df45,Frisbie School,CT,2019-03-01T00:00:00-05:00,2019-04-01T00:00:00-04:00,6716,170,76.5,"{""<5"":8,""5-20"":31,""21-60"":28,""61-240"":62,"">240"":41}",20712.5,41.577952,-72.979639,611110.0,CT,9.0,9009.0,New Haven County,90093611004.0
21852,sg:680f9e1f1323404b87d1384a368f1c32,Perjoni Family Jewelers,CT,2019-03-01T00:00:00-05:00,2019-04-01T00:00:00-04:00,6489,39,15.0,"{""<5"":3,""5-20"":20,""21-60"":9,""61-240"":6,"">240"":1}",1765.0,41.585598,-72.891871,448310.0,CT,9.0,9003.0,Hartford County,90034304001.0
21878,sg:6ac3837411dc495eb8f4575e0e0d159b,Mammoth Security,CT,2019-03-01T00:00:00-05:00,2019-04-01T00:00:00-04:00,6475,26,43.0,"{""<5"":1,""5-20"":7,""21-60"":6,""61-240"":9,"">240"":3}",2407.5,41.282468,-72.392054,519120.0,CT,9.0,9007.0,Middlesex County,90076702002.0
21904,sg:6c680f8010014085a36939be3ba8069b,Micropigmentation Academy,CT,2019-03-01T00:00:00-05:00,2019-04-01T00:00:00-04:00,6513,12,70.0,"{""<5"":0,""5-20"":4,""21-60"":1,""61-240"":5,"">240"":2}",1323.0,41.321870000000004,-72.855785,611310.0,CT,9.0,9009.0,New Haven County,90091805001.0
22182,sg:88c016c32c604a49be6db18baa867a7b,Tokeneke Club,CT,2019-03-01T00:00:00-05:00,2019-04-01T00:00:00-04:00,6820,49,248.0,"{""<5"":1,""5-20"":7,""21-60"":3,""61-240"":13,"">240"":25}",8168.0,41.058729,-73.45210300000001,452319.0,CT,9.0,9001.0,Fairfield County,90010303001.0
22354,sg:9a6b4f831d1d4f3b81652129539f5ea9,Starbucks,CT,2019-03-01T00:00:00-05:00,2019-04-01T00:00:00-04:00,6851,267,13.0,"{""<5"":11,""5-20"":146,""21-60"":45,""61-240"":29,"">240"":36}",16679.5,41.1216,-73.404319,722515.0,CT,9.0,9001.0,Fairfield County,90010436003.0
22469,sg:a5ed5b030f0e443fad81d105a08eaae2,Stop &amp Shop,CT,2019-03-01T00:00:00-05:00,2019-04-01T00:00:00-04:00,6010,384,17.5,"{""<5"":21,""5-20"":191,""21-60"":113,""61-240"":35,"">240"":24}",18044.0,41.669697,-72.89523299999999,445110.0,,,,,
22481,sg:a74db233e91c425db6be908e122a1976,Gan Yeladim Preschool,CT,2019-03-01T00:00:00-05:00,2019-04-01T00:00:00-04:00,6905,78,30.5,"{""<5"":0,""5-20"":32,""21-60"":11,""61-240"":21,"">240"":14}",7366.0,41.096703000000005,-73.54809300000001,624410.0,CT,9.0,9001.0,Fairfield County,90010206001.0
22564,sg:afeb1c493af04790b5d78ab77ce977da,Levine Auto & Truck Parts,CT,2019-03-01T00:00:00-05:00,2019-04-01T00:00:00-04:00,6810,2,66.5,"{""<5"":0,""5-20"":0,""21-60"":1,""61-240"":1,"">240"":0}",191.0,41.387283000000004,-73.441612,811118.0,CT,9.0,9001.0,Fairfield County,90012105001.0
22735,sg:c2c3c7b5342244c1a380dcbbb6345bd5,Ayla's Bagel & Deli,CT,2019-03-01T00:00:00-05:00,2019-04-01T00:00:00-04:00,6798,27,56.0,"{""<5"":0,""5-20"":4,""21-60"":12,""61-240"":10,"">240"":1}",2281.0,41.527136,-73.20145500000001,722511.0,CT,9.0,9005.0,Litchfield County,90053621011.0
22794,sg:c8aa59c7585447818499642f660acf5e,Michael Anthony's Barber Shop,CT,2019-03-01T00:00:00-05:00,2019-04-01T00:00:00-04:00,6512,7,18.0,"{""<5"":0,""5-20"":4,""21-60"":3,""61-240"":0,"">240"":0}",171.5,41.280266999999995,-72.866376,812112.0,CT,9.0,9009.0,New Haven County,90091803001.0
23043,sg:e11c090408eb4f0aa27cbee8c6c9da50,Lowe's,CT,2019-03-01T00:00:00-05:00,2019-04-01T00:00:00-04:00,6002,858,21.0,"{""<5"":24,""5-20"":399,""21-60"":278,""61-240"":88,"">240"":69}",46110.5,41.814076,-72.71526899999999,444130.0,CT,9.0,9003.0,Hartford County,90034712002.0
23175,sg:f0139b387f3b494caa93ba8c2e92af94,Cancer Information,CT,2019-03-01T00:00:00-05:00,2019-04-01T00:00:00-04:00,6510,793,131.0,"{""<5"":11,""5-20"":151,""21-60"":137,""61-240"":204,"">240"":290}",107765.5,41.303731,-72.932148,621610.0,CT,9.0,9009.0,New Haven County,90091403002.0
23388,sg:067d99211daa40e08f93adb151745a0c,Sweet Molly's,CT,2019-03-01T00:00:00-05:00,2019-04-01T00:00:00-04:00,6705,34,21.0,"{""<5"":3,""5-20"":11,""21-60"":18,""61-240"":2,"">240"":0}",1175.0,41.542689,-72.96679300000001,722515.0,CT,9.0,9009.0,New Haven County,90093527012.0
23399,sg:080038fcb8af444293da92b85eabb32b,Select Medical,CT,2019-03-01T00:00:00-05:00,2019-04-01T00:00:00-04:00,6002,27,35.0,"{""<5"":0,""5-20"":9,""21-60"":5,""61-240"":3,"">240"":10}",3166.5,41.818984,-72.726097,621111.0,CT,9.0,9003.0,Hartford County,90034713002.0
23461,sg:0e1541916f70443b9c76ed0a35aa8fab,Planet Fitness,CT,2019-03-01T00:00:00-05:00,2019-04-01T00:00:00-04:00,6108,498,42.0,"{""<5"":5,""5-20"":88,""21-60"":233,""61-240"":160,"">240"":12}",37509.0,41.795017,-72.619812,713940.0,CT,9.0,9003.0,Hartford County,90035103001.0
23871,sg:3095ae7328574acab07011d84f29dd4b,Shoreline Endodontics,CT,2019-03-01T00:00:00-05:00,2019-04-01T00:00:00-04:00,6340,6,37.0,"{""<5"":0,""5-20"":1,""21-60"":4,""61-240"":0,"">240"":1}",414.5,41.372315,-72.052557,621210.0,CT,9.0,9011.0,New London County,90118702002.0
23962,sg:3a4a13eda44e448db386edeb87fc268f,Green Market,CT,2019-03-01T00:00:00-05:00,2019-04-01T00:00:00-04:00,6351,40,66.5,"{""<5"":1,""5-20"":12,""21-60"":5,""61-240"":9,"">240"":13}",4829.5,41.599695000000004,-71.989798,446191.0,CT,9.0,9011.0,New London County,90117101001.0
23979,sg:3c3913f7b40642fbbf2e1cfbc32332e8,Hebron Car Wash,CT,2019-03-01T00:00:00-05:00,2019-04-01T00:00:00-04:00,6248,105,8.0,"{""<5"":1,""5-20"":93,""21-60"":10,""61-240"":1,"">240"":0}",1720.5,41.662636,-72.359877,811192.0,CT,9.0,9013.0,Tolland County,90135261023.0
24044,sg:42875b35fdef41669f18d776d76fcaa3,Easton Community Center B A School Program,CT,2019-03-01T00:00:00-05:00,2019-04-01T00:00:00-04:00,6825,95,32.0,"{""<5"":6,""5-20"":29,""21-60"":23,""61-240"":16,"">240"":21}",8757.0,41.206866,-73.249723,624410.0,CT,9.0,9001.0,Fairfield County,90010602001.0
24094,sg:47eb22c86b9f434594260cc7bdd91b27,Mary Jo Kenny DMD,CT,2019-03-01T00:00:00-05:00,2019-04-01T00:00:00-04:00,6810,1,507.0,"{""<5"":0,""5-20"":0,""21-60"":0,""61-240"":0,"">240"":1}",240.0,41.411668,-73.436727,621210.0,CT,9.0,9001.0,Fairfield County,90012103001.0
24159,sg:4d3db0b1547348a183a43473a32ddb44,Midas,CT,2019-03-01T00:00:00-05:00,2019-04-01T00:00:00-04:00,6032,41,183.0,"{""<5"":2,""5-20"":10,""21-60"":4,""61-240"":6,"">240"":19}",5755.0,41.742203,-72.85799200000001,811111.0,CT,9.0,9003.0,Hartford County,90034602032.0
24222,sg:530d4b1e8d6c47f798681918c8565d69,West Hill Beach Club,CT,2019-03-01T00:00:00-05:00,2019-04-01T00:00:00-04:00,6057,53,241.0,"{""<5"":0,""5-20"":2,""21-60"":5,""61-240"":19,"">240"":27}",9567.0,41.876177,-73.046296,721110.0,CT,9.0,9005.0,Litchfield County,90053061004.0
24302,sg:5aa55ccbdbd6446eb1d72462fe55ebc8,R & N Tire,CT,2019-03-01T00:00:00-05:00,2019-04-01T00:00:00-04:00,6026,128,72.5,"{""<5"":5,""5-20"":36,""21-60"":21,""61-240"":17,"">240"":49}",15631.5,41.935082,-72.76971999999999,441310.0,CT,9.0,9003.0,Hartford County,90034701002.0
24373,sg:6142ed22cf6e46bb9d34104f16300b38,Guilford Internal Medicine Group,CT,2019-03-01T00:00:00-05:00,2019-04-01T00:00:00-04:00,6437,198,61.0,"{""<5"":6,""5-20"":56,""21-60"":34,""61-240"":67,"">240"":35}",20575.5,41.296690000000005,-72.686756,621111.0,CT,9.0,9009.0,New Haven County,90091903012.0
24511,sg:6d07e8cd53fe4fcf96755ba5835f7bff,Shari's Place,CT,2019-03-01T00:00:00-05:00,2019-04-01T00:00:00-04:00,6830,1,18.0,"{""<5"":0,""5-20"":1,""21-60"":0,""61-240"":0,"">240"":0}",12.5,41.029058,-73.626174,448120.0,CT,9.0,9001.0,Fairfield County,90010106003.0
24546,sg:706c23a866164fd7b84f354b1e12ae48,Orangetheory Fitness,CT,2019-03-01T00:00:00-05:00,2019-04-01T00:00:00-04:00,6880,228,54.0,"{""<5"":0,""5-20"":22,""21-60"":119,""61-240"":79,"">240"":8}",18904.0,41.138767,-73.342975,713940.0,CT,9.0,9001.0,Fairfield County,90010502001.0
24611,sg:7679278c61c94ebe920b4e7c4e65799c,Back To Health of Branford,CT,2019-03-01T00:00:00-05:00,2019-04-01T00:00:00-04:00,6405,26,23.0,"{""<5"":0,""5-20"":11,""21-60"":12,""61-240"":2,"">240"":1}",1164.5,41.280162,-72.84869,621310.0,CT,9.0,9009.0,New Haven County,90091842001.0
24641,sg:7911e6721be6411e92470e3745430d45,Metta Massage,CT,2019-03-01T00:00:00-05:00,2019-04-01T00:00:00-04:00,6457,1,217.0,"{""<5"":0,""5-20"":0,""21-60"":0,""61-240"":1,"">240"":0}",150.5,41.532185,-72.65915,812199.0,CT,9.0,9007.0,Middlesex County,90075421003.0
24681,sg:7d268ae832804f1ea2cee3923bd68e83,Public Storage,CT,2019-03-01T00:00:00-05:00,2019-04-01T00:00:00-04:00,6037,8,7.5,"{""<5"":1,""5-20"":5,""21-60"":2,""61-240"":0,"">240"":0}",146.0,41.646147,-72.73210999999999,531130.0,CT,9.0,9003.0,Hartford County,90034001003.0
24946,sg:9938b5107f9546e7b388e7ab96fcf502,Pizza By Romano's,CT,2019-03-01T00:00:00-05:00,2019-04-01T00:00:00-04:00,6513,292,31.5,"{""<5"":13,""5-20"":114,""21-60"":48,""61-240"":59,"">240"":58}",26201.0,41.30393,-72.89465899999999,722511.0,CT,9.0,9009.0,New Haven County,90091423002.0
25007,sg:9fe940f4f2c647479bb8c49f2a67008c,Medical Center East,CT,2019-03-01T00:00:00-05:00,2019-04-01T00:00:00-04:00,6810,105,210.0,"{""<5"":1,""5-20"":14,""21-60"":12,""61-240"":30,"">240"":48}",16698.5,41.393366,-73.463071,621111.0,CT,9.0,9001.0,Fairfield County,90012107011.0
25155,sg:aeafee3be9124253a48c26a59df91470,Johnson House Steps 3 6,CT,2019-03-01T00:00:00-05:00,2019-04-01T00:00:00-04:00,6615,467,35.0,"{""<5"":16,""5-20"":169,""21-60"":82,""61-240"":102,"">240"":98}",44344.5,41.179234,-73.13943,611110.0,CT,9.0,9001.0,Fairfield County,90010804002.0
25404,sg:ca77f7c12c134010bf711740d8cc7866,Giftly Omnicard,CT,2019-03-01T00:00:00-05:00,2019-04-01T00:00:00-04:00,6840,124,121.5,"{""<5"":0,""5-20"":19,""21-60"":23,""61-240"":51,"">240"":31}",16284.5,41.146978000000004,-73.490342,453220.0,CT,9.0,9001.0,Fairfield County,90010351002.0
25596,sg:e058ed4ba4454efeb08c9f0fef4a3433,Distefano Hair Restoration Center,CT,2019-03-01T00:00:00-05:00,2019-04-01T00:00:00-04:00,6067,73,242.0,"{""<5"":0,""5-20"":3,""21-60"":3,""61-240"":30,"">240"":37}",13554.0,41.652374,-72.674515,812199.0,CT,9.0,9003.0,Hartford County,90035242005.0
25851,sg:faf030ba4ba4473db64b01bec87a95c4,Revolution Records,CT,2019-03-01T00:00:00-05:00,2019-04-01T00:00:00-04:00,6790,149,102.0,"{""<5"":3,""5-20"":38,""21-60"":23,""61-240"":37,"">240"":48}",18502.5,41.800884,-73.116174,451211.0,CT,9.0,9005.0,Litchfield County,90053103001.0
25925,sg:02dce5e6ccb842239061d8f997248a5e,The Spa At Norwich Inn,CT,2019-03-01T00:00:00-05:00,2019-04-01T00:00:00-04:00,6360,686,182.0,"{""<5"":9,""5-20"":69,""21-60"":98,""61-240"":233,"">240"":277}",106400.5,41.50114,-72.096814,423910.0,CT,9.0,9011.0,New London County,90116967003.0
25945,sg:044d3a79d30046778c698e8f6fa5247a,Renee's Working Girl Catering,CT,2019-03-01T00:00:00-05:00,2019-04-01T00:00:00-04:00,6260,201,83.0,"{""<5"":5,""5-20"":43,""21-60"":36,""61-240"":71,"">240"":46}",23733.5,41.917389,-71.905687,722511.0,CT,9.0,9015.0,Windham County,90159031004.0
25964,sg:06310a3f49e949139ff1496cd5eebdfd,Polk After School Child Care Program,CT,2019-03-01T00:00:00-05:00,2019-04-01T00:00:00-04:00,6779,126,13.0,"{""<5"":1,""5-20"":81,""21-60"":20,""61-240"":13,"">240"":11}",6421.5,41.598991,-73.086609,624410.0,CT,9.0,9005.0,Litchfield County,90053604001.0
26019,sg:0be8c6921ca046e786eeb538b158751e,NAPA Auto Parts,CT,2019-03-01T00:00:00-05:00,2019-04-01T00:00:00-04:00,6340,144,34.0,"{""<5"":5,""5-20"":59,""21-60"":23,""61-240"":31,"">240"":26}",12587.0,41.388847999999996,-72.078857,441310.0,CT,9.0,9011.0,New London County,90118702001.0
26106,sg:1526052862bf48e4bd685b28135f1e9b,H R S Hair Replacement Systems,CT,2019-03-01T00:00:00-05:00,2019-04-01T00:00:00-04:00,6010,1,24.0,"{""<5"":0,""5-20"":0,""21-60"":1,""61-240"":0,"">240"":0}",40.5,41.670359999999995,-72.948678,812199.0,CT,9.0,9003.0,Hartford County,90034061002.0
26200,sg:1d50cd841844446dab71c9b3bb872108,MINCHIN BUICK GMC INC,CT,2019-03-01T00:00:00-05:00,2019-04-01T00:00:00-04:00,6902,301,64.0,"{""<5"":3,""5-20"":94,""21-60"":52,""61-240"":65,"">240"":87}",33951.0,41.049162,-73.529033,441110.0,CT,9.0,9001.0,Fairfield County,90010221002.0
26365,sg:2ce1b681f125428e8201f192240af924,Taco Bell,CT,2019-03-01T00:00:00-05:00,2019-04-01T00:00:00-04:00,6062,200,14.5,"{""<5"":11,""5-20"":108,""21-60"":59,""61-240"":19,"">240"":3}",7346.5,41.678049,-72.845698,722513.0,CT,9.0,9003.0,Hartford County,90034207003.0
26374,sg:2d8dd584ffe14ac2b70fe100a3a92fc2,Select Medical,CT,2019-03-01T00:00:00-05:00,2019-04-01T00:00:00-04:00,6484,18,36.0,"{""<5"":1,""5-20"":4,""21-60"":8,""61-240"":4,"">240"":1}",1218.5,41.294213,-73.090497,621111.0,CT,9.0,9001.0,Fairfield County,90011102021.0
26390,sg:2f4d6be05dfd4112a58fab40a330eb60,The Bike Shop,CT,2019-03-01T00:00:00-05:00,2019-04-01T00:00:00-04:00,6074,28,8.0,"{""<5"":0,""5-20"":25,""21-60"":2,""61-240"":1,"">240"":0}",544.0,41.842639,-72.60333299999999,451110.0,CT,9.0,9003.0,Hartford County,90034873001.0
26453,sg:34ad93c9bd254366bc8720615e5e0ab8,Tony's Westside,CT,2019-03-01T00:00:00-05:00,2019-04-01T00:00:00-04:00,6790,78,27.0,"{""<5"":5,""5-20"":23,""21-60"":32,""61-240"":11,"">240"":7}",4931.5,41.814477000000004,-73.136338,722511.0,CT,9.0,9005.0,Litchfield County,90053107002.0
26494,sg:37bcb8205eee44539916b8b4ee45bb1d,Plainville Dental Group,CT,2019-03-01T00:00:00-05:00,2019-04-01T00:00:00-04:00,6062,18,15.0,"{""<5"":0,""5-20"":10,""21-60"":4,""61-240"":1,"">240"":3}",1157.5,41.668203999999996,-72.861139,621210.0,CT,9.0,9003.0,Hartford County,90034206005.0
26593,sg:407c7dfd40644efd88eb919bed4ed2db,Hartford HealthCare Medical Group,CT,2019-03-01T00:00:00-05:00,2019-04-01T00:00:00-04:00,6042,2,474.5,"{""<5"":0,""5-20"":0,""21-60"":0,""61-240"":0,"">240"":2}",480.0,41.794428,-72.52637299999999,621111.0,CT,9.0,9003.0,Hartford County,90035142002.0
26606,sg:412871cce6ad4bbc9148d38e336bef8e,GNC (General Nutrition Centers),CT,2019-03-01T00:00:00-05:00,2019-04-01T00:00:00-04:00,6460,191,18.0,"{""<5"":8,""5-20"":102,""21-60"":59,""61-240"":21,"">240"":1}",7085.0,41.234982,-73.036614,446191.0,CT,9.0,9009.0,New Haven County,90091508001.0
26632,sg:43abb45b81ef4c429758dcf05937be49,Goodwill Store & Donation Center,CT,2019-03-01T00:00:00-05:00,2019-04-01T00:00:00-04:00,6515,57,30.0,"{""<5"":2,""5-20"":23,""21-60"":12,""61-240"":11,"">240"":9}",4594.0,41.336087,-72.977416,453310.0,CT,9.0,9009.0,New Haven County,90091412002.0
26896,sg:5b38f00119c3458b8be2b0e5434b5743,Le Blanc's Auto,CT,2019-03-01T00:00:00-05:00,2019-04-01T00:00:00-04:00,6335,14,245.0,"{""<5"":0,""5-20"":3,""21-60"":0,""61-240"":2,"">240"":9}",2498.5,41.42009,-72.07698,811121.0,CT,9.0,9011.0,New London County,90117012004.0
27074,sg:6d9c34ccdd1445a1870a5aefbc3c77b7,J C Recycling,CT,2019-03-01T00:00:00-05:00,2019-04-01T00:00:00-04:00,6450,120,29.5,"{""<5"":4,""5-20"":45,""21-60"":32,""61-240"":33,"">240"":6}",8275.0,41.521871999999995,-72.809881,441310.0,CT,9.0,9009.0,New Haven County,90091708002.0
27095,sg:6f5f9c91618d49788bba4594ac9df6d9,Layla's Falafel,CT,2019-03-01T00:00:00-05:00,2019-04-01T00:00:00-04:00,6905,42,12.0,"{""<5"":2,""5-20"":24,""21-60"":13,""61-240"":3,"">240"":0}",1283.0,41.103390000000005,-73.54854499999999,722511.0,CT,9.0,9001.0,Fairfield County,90010206001.0
27245,sg:7f24b2c5e0a345ddb58ef3a5a92348c4,Town House Hair Stylists,CT,2019-03-01T00:00:00-05:00,2019-04-01T00:00:00-04:00,6611,139,18.0,"{""<5"":11,""5-20"":61,""21-60"":25,""61-240"":29,"">240"":13}",9287.0,41.26567,-73.224744,812112.0,CT,9.0,9001.0,Fairfield County,90010902003.0
27277,sg:82e7d12697a14859aa284bf5162cc4f9,Roy Jewelers LLC,CT,2019-03-01T00:00:00-05:00,2019-04-01T00:00:00-04:00,6250,25,87.0,"{""<5"":1,""5-20"":4,""21-60"":7,""61-240"":3,"">240"":10}",3187.5,41.736368,-72.199517,448310.0,CT,9.0,9013.0,Tolland County,90138815004.0
27322,sg:8728926ecb2f4de99d8fdb412d801f49,Wheeler Group,CT,2019-03-01T00:00:00-05:00,2019-04-01T00:00:00-04:00,6057,31,302.0,"{""<5"":0,""5-20"":3,""21-60"":0,""61-240"":6,"">240"":22}",6220.5,41.883914000000004,-72.967919,453210.0,CT,9.0,9005.0,Litchfield County,90053061001.0
27327,sg:87d0133ead174f4d91dca41b08b2effa,Killam Truck Caps,CT,2019-03-01T00:00:00-05:00,2019-04-01T00:00:00-04:00,6088,68,37.0,"{""<5"":2,""5-20"":9,""21-60"":36,""61-240"":14,"">240"":7}",5362.5,41.931484000000005,-72.600889,441120.0,CT,9.0,9003.0,Hartford County,90034841002.0
27436,sg:93e667de74b14134b4954915278203d9,Andes International Gourmet Deli,CT,2019-03-01T00:00:00-05:00,2019-04-01T00:00:00-04:00,6515,134,12.0,"{""<5"":7,""5-20"":87,""21-60"":24,""61-240"":13,"">240"":3}",4753.5,41.337559000000006,-72.982168,722511.0,CT,9.0,9009.0,New Haven County,90091412004.0
27610,sg:a74ae0f2b69944f5b0e24184999d03a5,Brosseau Barbara Beauty Salons,CT,2019-03-01T00:00:00-05:00,2019-04-01T00:00:00-04:00,6492,7,24.0,"{""<5"":0,""5-20"":3,""21-60"":3,""61-240"":1,"">240"":0}",309.5,41.453493,-72.796699,812112.0,CT,9.0,9009.0,New Haven County,90091759003.0
27852,sg:bc4a20a5a8d5495fa449f85564a662e7,Young Horizons Day Care,CT,2019-03-01T00:00:00-05:00,2019-04-01T00:00:00-04:00,6441,2,11.5,"{""<5"":0,""5-20"":2,""21-60"":0,""61-240"":0,"">240"":0}",25.0,41.503352,-72.57295,624410.0,CT,9.0,9007.0,Middlesex County,90075901001.0
27863,sg:bda310890b23439d9310e561330f0be0,Main Street Pint & Plate,CT,2019-03-01T00:00:00-05:00,2019-04-01T00:00:00-04:00,6010,432,43.0,"{""<5"":7,""5-20"":133,""21-60"":121,""61-240"":150,"">240"":21}",34195.5,41.671796,-72.94264,722511.0,CT,9.0,9003.0,Hartford County,90034061003.0
27909,sg:c268561e9d3e4bf48ac9172113ae6a0a,Charlotte Hungerford Hospital Radiation Onclgy Dpt,CT,2019-03-01T00:00:00-05:00,2019-04-01T00:00:00-04:00,6790,45,123.0,"{""<5"":1,""5-20"":4,""21-60"":14,""61-240"":14,"">240"":12}",5606.5,41.827199,-73.10439000000001,621111.0,CT,9.0,9005.0,Litchfield County,90053101001.0
28135,sg:da81f92591f6436686eda7662f289216,C A Marvin Septic And Excavation,CT,2019-03-01T00:00:00-05:00,2019-04-01T00:00:00-04:00,6812,18,169.5,"{""<5"":0,""5-20"":5,""21-60"":0,""61-240"":7,"">240"":6}",2556.0,41.460235,-73.496212,444130.0,CT,9.0,9001.0,Fairfield County,90012202004.0
28144,sg:daf877ce7c2a42a5a482121fe94e0474,Park Avenue Esthetics,CT,2019-03-01T00:00:00-05:00,2019-04-01T00:00:00-04:00,6492,72,27.0,"{""<5"":3,""5-20"":29,""21-60"":18,""61-240"":17,"">240"":5}",4857.5,41.486045000000004,-72.806366,621111.0,CT,9.0,9009.0,New Haven County,90091754001.0
28219,sg:e3017a0ab49843698c105b9cd5abf2b4,Poppy's Restaurant,CT,2019-03-01T00:00:00-05:00,2019-04-01T00:00:00-04:00,6471,68,22.0,"{""<5"":2,""5-20"":28,""21-60"":19,""61-240"":13,"">240"":6}",4521.0,41.324791999999995,-72.771062,722511.0,CT,9.0,9009.0,New Haven County,90091861006.0
28224,sg:e3b888ba23674186a8301325e37a122d,A Aaable Auto Insurance,CT,2019-03-01T00:00:00-05:00,2019-04-01T00:00:00-04:00,6518,7,59.0,"{""<5"":0,""5-20"":1,""21-60"":3,""61-240"":1,"">240"":2}",764.5,41.382637,-72.902412,524210.0,CT,9.0,9009.0,New Haven County,90091660013.0
28238,sg:e4ff23ee8f1c430db35a8afb2bac8715,Thomas Park DDS,CT,2019-03-01T00:00:00-05:00,2019-04-01T00:00:00-04:00,6483,4,5.5,"{""<5"":0,""5-20"":3,""21-60"":0,""61-240"":0,"">240"":1}",277.5,41.396326,-73.048446,621210.0,CT,9.0,9009.0,New Haven County,90091301012.0
28350,sg:f234618b893548ce8d06f3fc58387723,Lynch Mitsubishi,CT,2019-03-01T00:00:00-05:00,2019-04-01T00:00:00-04:00,6042,44,12.5,"{""<5"":3,""5-20"":26,""21-60"":11,""61-240"":2,"">240"":2}",1559.0,41.812746000000004,-72.51378100000001,441120.0,CT,9.0,9003.0,Hartford County,90035141021.0
28391,sg:f6bc869f0a4a40b9aa41b4253834b2bf,Academy of Martial Arts,CT,2019-03-01T00:00:00-05:00,2019-04-01T00:00:00-04:00,6042,111,42.0,"{""<5"":3,""5-20"":33,""21-60"":35,""61-240"":35,"">240"":5}",8305.0,41.808775,-72.519092,713940.0,CT,9.0,9003.0,Hartford County,90035142001.0
28408,sg:f8fcaafe4ae442799f987840b065e024,Iron Bond Fitness,CT,2019-03-01T00:00:00-05:00,2019-04-01T00:00:00-04:00,6517,37,41.0,"{""<5"":1,""5-20"":9,""21-60"":12,""61-240"":12,"">240"":3}",3127.0,41.340213,-72.896316,713940.0,CT,9.0,9009.0,New Haven County,90091651003.0
28488,sg:0299c5c6bcfe40538dbc99ced85c1999,Center Hardware,CT,2019-03-01T00:00:00-05:00,2019-04-01T00:00:00-04:00,6037,20,8.5,"{""<5"":0,""5-20"":16,""21-60"":1,""61-240"":2,"">240"":1}",781.5,41.62661,-72.754427,444130.0,CT,9.0,9003.0,Hartford County,90034001001.0
28663,sg:10e0dc0e648c418da9572c1beb5591c7,Padre's Place,CT,2019-03-01T00:00:00-05:00,2019-04-01T00:00:00-04:00,6098,235,77.0,"{""<5"":0,""5-20"":29,""21-60"":61,""61-240"":123,"">240"":22}",26624.5,41.921239,-73.069817,722511.0,CT,9.0,9005.0,Litchfield County,90053201004.0
28978,sg:2d0281b1bac94d1eb9162f9cd781c3e4,Dollar General,CT,2019-03-01T00:00:00-05:00,2019-04-01T00:00:00-04:00,6415,235,12.0,"{""<5"":14,""5-20"":153,""21-60"":47,""61-240"":7,"">240"":14}",8264.5,41.579633,-72.346358,452319.0,CT,9.0,9011.0,New London County,90117141011.0
29034,sg:3123c6ddf2a24820a90eb908190990aa,Otto'S Garage,CT,2019-03-01T00:00:00-05:00,2019-04-01T00:00:00-04:00,6516,23,20.0,"{""<5"":3,""5-20"":9,""21-60"":2,""61-240"":8,"">240"":1}",1645.0,41.263165,-72.946415,811121.0,CT,9.0,9009.0,New Haven County,90091550003.0
29179,sg:411677b1fa584994a1d506a9c71cc5df,JB's Pawn Shop,CT,2019-03-01T00:00:00-05:00,2019-04-01T00:00:00-04:00,6451,138,22.5,"{""<5"":2,""5-20"":65,""21-60"":29,""61-240"":24,"">240"":18}",9924.0,41.539346,-72.813474,453310.0,CT,9.0,9009.0,New Haven County,90091707001.0
29361,sg:50467fde2047448c97228a3aff0fdace,Banana Brasil Grille,CT,2019-03-01T00:00:00-05:00,2019-04-01T00:00:00-04:00,6706,178,21.0,"{""<5"":4,""5-20"":84,""21-60"":72,""61-240"":15,"">240"":3}",6953.5,41.528735,-73.040019,722511.0,CT,9.0,9009.0,New Haven County,90093519002.0
29400,sg:539198d0a6fb4dbdb0654380975078d7,Mobil,CT,2019-03-01T00:00:00-05:00,2019-04-01T00:00:00-04:00,6475,430,9.0,"{""<5"":38,""5-20"":265,""21-60"":73,""61-240"":42,"">240"":12}",15565.0,41.294789,-72.380379,447110.0,CT,9.0,9007.0,Middlesex County,90076702004.0
29649,sg:6c830cfd76074e7c9b6d58deca43a79c,Farmer's Palette,CT,2019-03-01T00:00:00-05:00,2019-04-01T00:00:00-04:00,6902,69,18.0,"{""<5"":6,""5-20"":31,""21-60"":15,""61-240"":9,"">240"":8}",4284.5,41.043988,-73.547081,445230.0,CT,9.0,9001.0,Fairfield County,90010223001.0
29709,sg:72c5fdf8edc1438d809fd64ede5376df,Posa,CT,2019-03-01T00:00:00-05:00,2019-04-01T00:00:00-04:00,6877,86,40.5,"{""<5"":4,""5-20"":30,""21-60"":18,""61-240"":18,"">240"":16}",7663.0,41.291249,-73.493032,722511.0,CT,9.0,9001.0,Fairfield County,90012453003.0
29776,sg:7bcd9c8de8bc4872869c2ee45bb66b48,Prospect Barber Shop,CT,2019-03-01T00:00:00-05:00,2019-04-01T00:00:00-04:00,6712,3,406.0,"{""<5"":0,""5-20"":0,""21-60"":0,""61-240"":0,"">240"":3}",720.0,41.505188000000004,-72.982481,812112.0,CT,9.0,9009.0,New Haven County,90093472001.0
29780,sg:7c482dd5d27b4d618685ff5709a129e3,CT Auto Restylers,CT,2019-03-01T00:00:00-05:00,2019-04-01T00:00:00-04:00,6040,587,42.0,"{""<5"":15,""5-20"":212,""21-60"":103,""61-240"":132,"">240"":125}",56725.0,41.766209,-72.542594,443142.0,CT,9.0,9003.0,Hartford County,90035146004.0
29987,sg:91355e76d58048478fbb782f05e54b23,Yu Martial Arts,CT,2019-03-01T00:00:00-05:00,2019-04-01T00:00:00-04:00,6019,12,18.0,"{""<5"":0,""5-20"":7,""21-60"":4,""61-240"":1,"">240"":0}",400.0,41.832165,-72.91226400000001,713940.0,CT,9.0,9003.0,Hartford County,90034641013.0
30000,sg:92ae591f4a1b42bc86460828bb1c5e72,Cheshire Shopping Center,CT,2019-03-01T00:00:00-05:00,2019-04-01T00:00:00-04:00,6410,1372,20.0,"{""<5"":45,""5-20"":664,""21-60"":418,""61-240"":168,"">240"":77}",69105.5,41.47983,-72.90669799999999,531120.0,CT,9.0,9009.0,New Haven County,90093434001.0
30143,sg:a0a12ffe40204446a4e11d7546679698,Boost Mobile,CT,2019-03-01T00:00:00-05:00,2019-04-01T00:00:00-04:00,6106,17,305.0,"{""<5"":0,""5-20"":2,""21-60"":0,""61-240"":4,"">240"":11}",3267.0,41.732122,-72.713277,517312.0,CT,9.0,9003.0,Hartford County,90035247003.0
30174,sg:a3e6781f70354b40b9074ac68b96e3d6,Advanced Back Center,CT,2019-03-01T00:00:00-05:00,2019-04-01T00:00:00-04:00,6489,4,15.5,"{""<5"":1,""5-20"":1,""21-60"":1,""61-240"":0,"">240"":1}",295.5,41.622033,-72.873747,621310.0,CT,9.0,9003.0,Hartford County,90034306011.0
30203,sg:a6f5f525b1f94f8493b708816ea970f2,Gorra's Atelier,CT,2019-03-01T00:00:00-05:00,2019-04-01T00:00:00-04:00,6320,134,81.0,"{""<5"":2,""5-20"":31,""21-60"":22,""61-240"":32,"">240"":47}",17379.5,41.361171999999996,-72.105612,448120.0,CT,9.0,9011.0,New London County,90116903002.0
30268,sg:adcbea1f9e9242c8835a1c4e44348670,The Inspired Kitchen,CT,2019-03-01T00:00:00-05:00,2019-04-01T00:00:00-04:00,6043,28,12.5,"{""<5"":4,""5-20"":15,""21-60"":6,""61-240"":2,"">240"":1}",981.5,41.784739,-72.458718,442299.0,CT,9.0,9013.0,Tolland County,90135291001.0
30295,sg:b17feba2b6624dd0818063ba55e8ea76,Hamlin Cycles,CT,2019-03-01T00:00:00-05:00,2019-04-01T00:00:00-04:00,6801,1,37.0,"{""<5"":0,""5-20"":0,""21-60"":1,""61-240"":0,"">240"":0}",40.5,41.375585,-73.424192,441228.0,CT,9.0,9001.0,Fairfield County,90012001001.0
30442,sg:beeaf8f62ab1415896315c680836bd14,Emmanuel Borbon Karate Do,CT,2019-03-01T00:00:00-05:00,2019-04-01T00:00:00-04:00,6340,116,26.0,"{""<5"":5,""5-20"":41,""21-60"":33,""61-240"":31,"">240"":6}",7967.0,41.347061,-72.045836,713940.0,CT,9.0,9011.0,New London County,90117027001.0
30458,sg:c0637db4bf024226bcdb2dae4d81c2fd,Jennings Cleaning &amp Landscape,CT,2019-03-01T00:00:00-05:00,2019-04-01T00:00:00-04:00,6608,239,72.0,"{""<5"":2,""5-20"":57,""21-60"":46,""61-240"":51,"">240"":83}",30176.0,41.192631,-73.184606,561740.0,CT,9.0,9001.0,Fairfield County,90010735002.0
30629,sg:cff1e5d044014cce8a3958c33c117acb,Big Boys Toys,CT,2019-03-01T00:00:00-05:00,2019-04-01T00:00:00-04:00,6259,39,12.0,"{""<5"":4,""5-20"":24,""21-60"":6,""61-240"":3,"">240"":2}",1484.5,41.834284000000004,-71.958337,451120.0,CT,9.0,9015.0,Windham County,90159025002.0
30732,sg:d8e899c7222f4977914a50e079bcdf2e,Daniels Frederick Dr Dntst,CT,2019-03-01T00:00:00-05:00,2019-04-01T00:00:00-04:00,6084,5,29.0,"{""<5"":0,""5-20"":1,""21-60"":3,""61-240"":0,"">240"":1}",374.0,41.849037,-72.34839000000001,621210.0,CT,9.0,9013.0,Tolland County,90135331022.0
30832,sg:e374dd64acac43889de0a1e138275d40,Rise Therapy and Wellness,CT,2019-03-01T00:00:00-05:00,2019-04-01T00:00:00-04:00,6443,58,29.5,"{""<5"":1,""5-20"":18,""21-60"":25,""61-240"":14,"">240"":0}",3347.0,41.279503000000005,-72.594748,713940.0,CT,9.0,9009.0,New Haven County,90091941005.0
30902,sg:eb12e71a0d484aaebbaa9ee3ae7447b2,MagicDance Toddler,CT,2019-03-01T00:00:00-05:00,2019-04-01T00:00:00-04:00,6831,17,54.0,"{""<5"":0,""5-20"":6,""21-60"":3,""61-240"":8,"">240"":0}",1400.5,41.096962,-73.687914,713940.0,CT,9.0,9001.0,Fairfield County,90010101013.0
31274,sg:10805a2111904251a406baa673f47969,Ocean State Job Lot,CT,2019-03-01T00:00:00-05:00,2019-04-01T00:00:00-04:00,6239,369,17.0,"{""<5"":18,""5-20"":196,""21-60"":137,""61-240"":16,"">240"":2}",10931.5,41.800389,-71.902227,452319.0,CT,9.0,9015.0,Windham County,90159051004.0
31317,sg:1424a7cb565e46058777e3a8e52c2216,Clothes Mentor,CT,2019-03-01T00:00:00-05:00,2019-04-01T00:00:00-04:00,6074,342,60.0,"{""<5"":4,""5-20"":81,""21-60"":87,""61-240"":132,"">240"":38}",33532.0,41.811234000000006,-72.55422,453310.0,CT,9.0,9003.0,Hartford County,90034875002.0
31333,sg:15590f78dde045218c4f66f079ce7957,The Wright Company Insurance,CT,2019-03-01T00:00:00-05:00,2019-04-01T00:00:00-04:00,6611,9,205.0,"{""<5"":0,""5-20"":3,""21-60"":0,""61-240"":2,"">240"":4}",1298.5,41.296223,-73.229923,524210.0,CT,9.0,9001.0,Fairfield County,90010901002.0
31341,sg:160e645bc2154b73ba90d78ec6e2de31,Eastern Point Beach,CT,2019-03-01T00:00:00-05:00,2019-04-01T00:00:00-04:00,6340,29,19.0,"{""<5"":1,""5-20"":14,""21-60"":5,""61-240"":8,"">240"":1}",1824.0,41.32043,-72.072443,712190.0,CT,9.0,9011.0,New London County,90117026001.0
31357,sg:174c93f9168f4a1f9e814c6395ff6589,Kovacs Garage,CT,2019-03-01T00:00:00-05:00,2019-04-01T00:00:00-04:00,6607,485,31.0,"{""<5"":8,""5-20"":185,""21-60"":119,""61-240"":130,"">240"":43}",37037.0,41.177361,-73.157953,811111.0,CT,9.0,9001.0,Fairfield County,90010744001.0
31451,sg:1f8df494b7f04f17a31410626648d359,RLS Global Consulting,CT,2019-03-01T00:00:00-05:00,2019-04-01T00:00:00-04:00,6447,1,20.0,"{""<5"":0,""5-20"":1,""21-60"":0,""61-240"":0,"">240"":0}",12.5,41.614255,-72.4207,541213.0,CT,9.0,9003.0,Hartford County,90035241005.0
31480,sg:22443125344540eab18b24c69d6febce,Stop & Shop,CT,2019-03-01T00:00:00-05:00,2019-04-01T00:00:00-04:00,6854,1317,16.0,"{""<5"":53,""5-20"":745,""21-60"":388,""61-240"":72,"">240"":59}",50155.0,41.100654999999996,-73.439565,445110.0,CT,9.0,9001.0,Fairfield County,90010431001.0
31553,sg:29277d2389304f9dbcfb3ee131d7bd2f,Town & Country Nurseries,CT,2019-03-01T00:00:00-05:00,2019-04-01T00:00:00-04:00,6438,7,16.0,"{""<5"":0,""5-20"":4,""21-60"":3,""61-240"":0,"">240"":0}",171.5,41.474803,-72.505054,453110.0,CT,9.0,9007.0,Middlesex County,90075901003.0
31602,sg:2ef16564167a4fe098515f8736459613,L & M Garage,CT,2019-03-01T00:00:00-05:00,2019-04-01T00:00:00-04:00,6451,204,136.5,"{""<5"":1,""5-20"":31,""21-60"":38,""61-240"":64,"">240"":70}",28361.0,41.537539,-72.81161,811121.0,CT,9.0,9009.0,New Haven County,90091707001.0
31870,sg:48459b4ab4b84d6f94e75979bad7ccd8,Covenant Family Services,CT,2019-03-01T00:00:00-05:00,2019-04-01T00:00:00-04:00,6461,32,83.0,"{""<5"":0,""5-20"":7,""21-60"":9,""61-240"":7,"">240"":9}",3665.5,41.202467999999996,-73.102439,621330.0,CT,9.0,9009.0,New Haven County,90091505001.0
31901,sg:4aaea777ecef455ea0ae8033f2be56d3,CrossFit,CT,2019-03-01T00:00:00-05:00,2019-04-01T00:00:00-04:00,6510,254,53.0,"{""<5"":0,""5-20"":16,""21-60"":135,""61-240"":97,"">240"":6}",21706.0,41.305587,-72.928389,713940.0,CT,9.0,9009.0,New Haven County,90091401001.0
31945,sg:4fc677f112fb4edb8fcf8bb9287fea97,DaVita,CT,2019-03-01T00:00:00-05:00,2019-04-01T00:00:00-04:00,6460,10,8.0,"{""<5"":1,""5-20"":7,""21-60"":2,""61-240"":0,"">240"":0}",171.0,41.206623,-73.09219499999999,621492.0,CT,9.0,9009.0,New Haven County,90091503002.0
32043,sg:5c1d5e718dc44c9eb2ad0953d7f828ef,Bank of America,CT,2019-03-01T00:00:00-05:00,2019-04-01T00:00:00-04:00,6105,282,15.0,"{""<5"":10,""5-20"":145,""21-60"":35,""61-240"":64,"">240"":28}",19607.0,41.768314000000004,-72.68845300000001,522110.0,CT,9.0,9003.0,Hartford County,90035246004.0
32103,sg:623b504bfc3b439ca7ba24f2cf1d53cb,Whiz Kids Daycare,CT,2019-03-01T00:00:00-05:00,2019-04-01T00:00:00-04:00,6010,2,25.5,"{""<5"":0,""5-20"":1,""21-60"":1,""61-240"":0,"">240"":0}",53.0,41.669666,-72.892979,624410.0,CT,9.0,9003.0,Hartford County,90034054012.0
32236,sg:6f4906baff284c11b126428e2d0b73b2,Hartford HealthCare Medical Group,CT,2019-03-01T00:00:00-05:00,2019-04-01T00:00:00-04:00,6106,1,734.0,"{""<5"":0,""5-20"":0,""21-60"":0,""61-240"":0,"">240"":1}",240.0,41.754459000000004,-72.68211099999999,621111.0,CT,9.0,9003.0,Hartford County,90035003002.0
32286,sg:7596022e1360449d859bc3167663f503,Carmines Di Vega,CT,2019-03-01T00:00:00-05:00,2019-04-01T00:00:00-04:00,6515,186,20.0,"{""<5"":4,""5-20"":94,""21-60"":44,""61-240"":36,"">240"":8}",10305.0,41.335609999999996,-72.977035,722511.0,CT,9.0,9009.0,New Haven County,90091412002.0
32318,sg:796444fa0f0248f78aac2ca68f70c295,Uptown Consignment,CT,2019-03-01T00:00:00-05:00,2019-04-01T00:00:00-04:00,6074,2,8.0,"{""<5"":0,""5-20"":2,""21-60"":0,""61-240"":0,"">240"":0}",25.0,41.824806,-72.555937,453310.0,CT,9.0,9003.0,Hartford County,90034875002.0
32372,sg:7e85c465096c424ba0cf261ec5d601b1,YMCA,CT,2019-03-01T00:00:00-05:00,2019-04-01T00:00:00-04:00,6492,441,52.0,"{""<5"":9,""5-20"":66,""21-60"":178,""61-240"":177,"">240"":11}",37335.0,41.467806,-72.831665,624190.0,CT,9.0,9009.0,New Haven County,90091755001.0
32434,sg:85cfe120f64a4e9ebd5ce69d85682024,Brandy's Beauty Bar,CT,2019-03-01T00:00:00-05:00,2019-04-01T00:00:00-04:00,6062,213,16.0,"{""<5"":2,""5-20"":121,""21-60"":36,""61-240"":31,"">240"":23}",13161.0,41.676291,-72.851644,812112.0,CT,9.0,9003.0,Hartford County,90034206004.0
32532,sg:90b3cd73048d4478b96fdffc9c72ab6e,Masuk High School,CT,2019-03-01T00:00:00-05:00,2019-04-01T00:00:00-04:00,6468,3446,153.0,"{""<5"":41,""5-20"":613,""21-60"":467,""61-240"":884,"">240"":1441}",505560.5,41.3488,-73.194745,611110.0,CT,9.0,9001.0,Fairfield County,90011003002.0
32651,sg:9c532deb6e04487cb4938305161484ae,Center For Orthopedics,CT,2019-03-01T00:00:00-05:00,2019-04-01T00:00:00-04:00,6518,3,645.0,"{""<5"":0,""5-20"":0,""21-60"":0,""61-240"":0,"">240"":3}",720.0,41.376771999999995,-72.904821,621111.0,CT,9.0,9009.0,New Haven County,90091653001.0
32660,sg:9d7406fd6f2a403ea5e1a028831f721c,Art's TV & Appliance,CT,2019-03-01T00:00:00-05:00,2019-04-01T00:00:00-04:00,6457,130,43.5,"{""<5"":3,""5-20"":32,""21-60"":44,""61-240"":40,"">240"":11}",10849.5,41.576487,-72.721006,443142.0,CT,9.0,9007.0,Middlesex County,90075414011.0
32670,sg:9ec576a7b3f94d3f92217d8d2f6a2caf,CVS,CT,2019-03-01T00:00:00-05:00,2019-04-01T00:00:00-04:00,6114,390,13.0,"{""<5"":11,""5-20"":243,""21-60"":68,""61-240"":33,"">240"":35}",19185.5,41.73435,-72.68672099999999,446110.0,CT,9.0,9003.0,Hartford County,90035023004.0
32695,sg:a1b694f169ed4ef894e752fe3b4cc51e,Ct Neck & Back Physical Therapy,CT,2019-03-01T00:00:00-05:00,2019-04-01T00:00:00-04:00,6810,94,45.5,"{""<5"":2,""5-20"":14,""21-60"":39,""61-240"":23,"">240"":16}",9061.0,41.410371999999995,-73.436116,621340.0,CT,9.0,9001.0,Fairfield County,90012103001.0
32885,sg:b3a2b118afe54b6fa6ca232caf669bff,Boldt Joseph R DMD,CT,2019-03-01T00:00:00-05:00,2019-04-01T00:00:00-04:00,6830,15,8.0,"{""<5"":1,""5-20"":10,""21-60"":1,""61-240"":0,"">240"":3}",888.0,41.046242,-73.609492,621210.0,CT,9.0,9001.0,Fairfield County,90010102012.0
32994,sg:bcf841e2a19f4c42b1390a07fa5310b1,Factory Bedding & Furniture Outlet,CT,2019-03-01T00:00:00-05:00,2019-04-01T00:00:00-04:00,6614,23,15.0,"{""<5"":1,""5-20"":12,""21-60"":8,""61-240"":0,"">240"":2}",956.5,41.198358,-73.12732199999999,442110.0,CT,9.0,9001.0,Fairfield County,90010807001.0
