,safegraph_place_id,location_name,region,date_range_start,date_range_end,postal_code,raw_visit_counts,median_dwell,bucketed_dwell_times,est_total_dwell,latitude,longitude,naics_code,state,stateFIPS,countyFIPS,countyName,CBGFIPS
516,sg:301791ea560946b59b275909515753a8,Topside,RI,2019-02-01T00:00:00-05:00,2019-03-01T00:00:00-05:00,2841,89,52.0,"{""<5"":2,""5-20"":11,""21-60"":38,""61-240"":36,"">240"":2}",7579.5,41.505176,-71.327875,722511.0,RI,44.0,44005.0,Newport County,440050412001.0
1623,sg:9905dd1e47654c76a0103e9b7418dada,Joe's Bar & Grill,RI,2019-02-01T00:00:00-05:00,2019-03-01T00:00:00-05:00,2861,151,87.0,"{""<5"":1,""5-20"":24,""21-60"":32,""61-240"":49,"">240"":45}",19773.0,41.888856,-71.3511,722511.0,RI,44.0,44007.0,Providence County,440070157002.0
1689,sg:a01f25bddbeb44728b2e22f019e2c72a,O'Reilly Auto Parts,RI,2019-02-01T00:00:00-05:00,2019-03-01T00:00:00-05:00,2852,54,60.5,"{""<5"":2,""5-20"":12,""21-60"":13,""61-240"":26,"">240"":1}",4834.5,41.591941999999996,-71.456704,441310.0,RI,44.0,44009.0,Washington County,440090501021.0
1954,sg:bb2bd55c961442dc88214150ad5adfc5,Edible Arrangements,RI,2019-02-01T00:00:00-05:00,2019-03-01T00:00:00-05:00,2886,5,8.0,"{""<5"":0,""5-20"":5,""21-60"":0,""61-240"":0,"">240"":0}",62.5,41.731284,-71.435199,453220.0,RI,44.0,44003.0,Kent County,440039800001.0
2069,sg:c70f5b7a0aed4159a1fcbbadcf2d01d8,PriceRite,RI,2019-02-01T00:00:00-05:00,2019-03-01T00:00:00-05:00,2860,27,11.0,"{""<5"":3,""5-20"":18,""21-60"":5,""61-240"":0,"">240"":1}",675.0,41.881412,-71.399938,445110.0,RI,44.0,44007.0,Providence County,440070151001.0
2400,sg:e6c9933862a349b4b08716492ee8da0f,The Nook Coffee House,RI,2019-02-01T00:00:00-05:00,2019-03-01T00:00:00-05:00,2818,28,60.0,"{""<5"":1,""5-20"":3,""21-60"":11,""61-240"":5,"">240"":8}",3158.0,41.659643,-71.45026,722515.0,RI,44.0,44003.0,Kent County,440030209011.0
2494,sg:f186b0ccdba8459e9a115b155c0fc3b3,Concentra Medical Center,RI,2019-02-01T00:00:00-05:00,2019-03-01T00:00:00-05:00,2920,11,246.0,"{""<5"":0,""5-20"":2,""21-60"":0,""61-240"":3,"">240"":6}",1916.5,41.740241,-71.455617,621111.0,RI,44.0,44007.0,Providence County,440070142002.0
2987,sg:1f5f3a72f7364d42bd4b26c7708ec88b,Mens Club Barber Salon,RI,2019-02-01T00:00:00-05:00,2019-03-01T00:00:00-05:00,2816,2,201.0,"{""<5"":0,""5-20"":0,""21-60"":0,""61-240"":1,"">240"":1}",390.5,41.681255,-71.56521500000001,812112.0,RI,44.0,44003.0,Kent County,440030206032.0
3137,sg:2f96f1e1fdce4cfeb0c472702fbb232e,The Empowerment Factory,RI,2019-02-01T00:00:00-05:00,2019-03-01T00:00:00-05:00,2860,38,33.0,"{""<5"":0,""5-20"":11,""21-60"":15,""61-240"":8,"">240"":4}",2909.0,41.863257,-71.399585,451140.0,RI,44.0,44007.0,Providence County,440070164003.0
3216,sg:35ed25fd83db4763a82c52f4974f30e5,Knightsville Pub,RI,2019-02-01T00:00:00-05:00,2019-03-01T00:00:00-05:00,2920,215,41.0,"{""<5"":7,""5-20"":58,""21-60"":67,""61-240"":54,"">240"":29}",18543.0,41.784659000000005,-71.464559,722511.0,RI,44.0,44007.0,Providence County,440070147005.0
3435,sg:49aa826b89ff40b69597d00fe5bb583b,Governor Henry Lippitt House Museum,RI,2019-02-01T00:00:00-05:00,2019-03-01T00:00:00-05:00,2906,433,56.0,"{""<5"":15,""5-20"":111,""21-60"":101,""61-240"":135,"">240"":71}",42873.0,41.828268,-71.397008,712110.0,RI,44.0,44007.0,Providence County,440070036012.0
3476,sg:4d44afa49fa74c979b97982e7dbfc404,Expressions Shoes ,RI,2019-02-01T00:00:00-05:00,2019-03-01T00:00:00-05:00,2907,56,19.5,"{""<5"":1,""5-20"":28,""21-60"":16,""61-240"":9,"">240"":2}",2835.0,41.80959,-71.421338,448210.0,RI,44.0,44007.0,Providence County,440070003001.0
3640,sg:5ce3a91e664440ae8c2b402a1c9737cb,Bed Bath & Beyond,RI,2019-02-01T00:00:00-05:00,2019-03-01T00:00:00-05:00,2842,8,5.0,"{""<5"":3,""5-20"":5,""21-60"":0,""61-240"":0,"">240"":0}",70.0,41.52048,-71.29256099999999,442299.0,RI,44.0,44005.0,Newport County,440050403042.0
4240,sg:9d86c4579e134a71b8f8a0c4e936ab14,Westervelt Holly,RI,2019-02-01T00:00:00-05:00,2019-03-01T00:00:00-05:00,2903,6,10.0,"{""<5"":0,""5-20"":5,""21-60"":1,""61-240"":0,"">240"":0}",103.0,41.81252,-71.407616,621330.0,RI,44.0,44007.0,Providence County,440070006001.0
4874,sg:d9a8afb09a564c13b3bc802d6b801251,Clipper Properties,RI,2019-02-01T00:00:00-05:00,2019-03-01T00:00:00-05:00,2864,15,39.0,"{""<5"":1,""5-20"":4,""21-60"":4,""61-240"":5,"">240"":1}",1207.0,41.977576,-71.455347,522110.0,RI,44.0,44007.0,Providence County,440070114022.0
5004,sg:e79b318e6696489ba1599f30fe27f7f4,Freebody Park,RI,2019-02-01T00:00:00-05:00,2019-03-01T00:00:00-05:00,2840,205,91.0,"{""<5"":2,""5-20"":25,""21-60"":50,""61-240"":67,"">240"":61}",27066.0,41.481982,-71.305033,712190.0,RI,44.0,44005.0,Newport County,440050408001.0
5300,sg:020a721b19ad4987a8ac802ad452ea7c,Rhodes auto sales and service,RI,2019-02-01T00:00:00-05:00,2019-03-01T00:00:00-05:00,2817,1,31.0,"{""<5"":0,""5-20"":0,""21-60"":1,""61-240"":0,"">240"":0}",40.5,41.655309,-71.605406,441120.0,RI,44.0,44003.0,Kent County,440030208001.0
5341,sg:05f33413845c4877889beb0bb343fc12,Helger's Ice Cream Shoppe,RI,2019-02-01T00:00:00-05:00,2019-03-01T00:00:00-05:00,2878,7,9.0,"{""<5"":0,""5-20"":7,""21-60"":0,""61-240"":0,"">240"":0}",87.5,41.613026,-71.196163,722515.0,RI,44.0,44005.0,Newport County,440050417023.0
5354,sg:06f9b2f5a3ef491fb30c5eecbb8caa9d,Salon Elite,RI,2019-02-01T00:00:00-05:00,2019-03-01T00:00:00-05:00,2806,74,95.0,"{""<5"":1,""5-20"":17,""21-60"":8,""61-240"":25,"">240"":23}",9821.5,41.73724,-71.289967,812113.0,RI,44.0,44001.0,Bristol County,440010303001.0
5870,sg:38f6a4bfc7aa443b8bf5ecd59812618e,Harmony Women's Care Center,RI,2019-02-01T00:00:00-05:00,2019-03-01T00:00:00-05:00,2907,115,30.0,"{""<5"":0,""5-20"":45,""21-60"":25,""61-240"":13,"">240"":32}",11211.5,41.802459999999996,-71.427052,621511.0,RI,44.0,44007.0,Providence County,440070003005.0
5963,sg:42c819933d9548008db7d7bf2645f44d,Nick's On Westminster,RI,2019-02-01T00:00:00-05:00,2019-03-01T00:00:00-05:00,2903,1636,16.0,"{""<5"":62,""5-20"":883,""21-60"":240,""61-240"":204,"">240"":247}",110894.5,41.824873,-71.41058100000001,722511.0,RI,44.0,44007.0,Providence County,440070008003.0
6144,sg:525e2d9a294441929928b37b1a569b0a,Cox Store,RI,2019-02-01T00:00:00-05:00,2019-03-01T00:00:00-05:00,2865,53,158.0,"{""<5"":0,""5-20"":14,""21-60"":7,""61-240"":16,"">240"":16}",6706.5,41.934576,-71.481321,517312.0,RI,44.0,44007.0,Providence County,440070116004.0
6207,sg:5886b84ce50c4172b999101acdd58c5e,HURD AUTO MALL,RI,2019-02-01T00:00:00-05:00,2019-03-01T00:00:00-05:00,2919,187,37.0,"{""<5"":1,""5-20"":58,""21-60"":58,""61-240"":52,"">240"":18}",15222.5,41.828518,-71.51212199999999,441110.0,RI,44.0,44007.0,Providence County,440070122004.0
6236,sg:5b5d108af95c45749991cb20f966ef46,Neurosurgery Associates,RI,2019-02-01T00:00:00-05:00,2019-03-01T00:00:00-05:00,2903,812,153.0,"{""<5"":4,""5-20"":102,""21-60"":105,""61-240"":351,"">240"":250}",118363.0,41.817516999999995,-71.406564,621111.0,RI,44.0,44007.0,Providence County,440070006001.0
6612,sg:7f24c506248d41f1bbebb021cf17df4b,The Salon JPS,RI,2019-02-01T00:00:00-05:00,2019-03-01T00:00:00-05:00,2861,26,93.0,"{""<5"":0,""5-20"":3,""21-60"":5,""61-240"":14,"">240"":4}",3307.0,41.892119,-71.354887,812112.0,RI,44.0,44007.0,Providence County,440070156001.0
7047,sg:a9d07065d1e940f5b859ffeb36453d63,Burger King,RI,2019-02-01T00:00:00-05:00,2019-03-01T00:00:00-05:00,2864,225,10.0,"{""<5"":14,""5-20"":135,""21-60"":45,""61-240"":17,"">240"":14}",9463.5,41.942535,-71.434283,722513.0,RI,44.0,44007.0,Providence County,440070114015.0
7241,sg:bea3f4cb3183471f89377e78b8ba60d3,Riverside Automotive,RI,2019-02-01T00:00:00-05:00,2019-03-01T00:00:00-05:00,2915,22,54.5,"{""<5"":0,""5-20"":7,""21-60"":5,""61-240"":9,"">240"":1}",1884.5,41.764765000000004,-71.360651,811111.0,RI,44.0,44007.0,Providence County,440070106006.0
7548,sg:de4f4c86f1c34c5e8c3595c595bcb45b,Rite Aid,RI,2019-02-01T00:00:00-05:00,2019-03-01T00:00:00-05:00,2915,1,19.0,"{""<5"":0,""5-20"":1,""21-60"":0,""61-240"":0,"">240"":0}",12.5,41.759452,-71.342497,446110.0,RI,44.0,44007.0,Providence County,440070107023.0
7636,sg:e7b4fbcc5ae24676bfb28b0bbc5338e4,Spring Green Memorial Church,RI,2019-02-01T00:00:00-05:00,2019-03-01T00:00:00-05:00,2888,15,63.0,"{""<5"":0,""5-20"":6,""21-60"":1,""61-240"":6,"">240"":2}",1498.5,41.739385,-71.407729,813110.0,RI,44.0,44003.0,Kent County,440030213004.0
7878,sg:feac936aed8445199436baae85734ddb,Studio Dunn,RI,2019-02-01T00:00:00-05:00,2019-03-01T00:00:00-05:00,2916,10,17.0,"{""<5"":0,""5-20"":7,""21-60"":3,""61-240"":0,"">240"":0}",209.0,41.842488,-71.368261,442110.0,RI,44.0,44007.0,Providence County,440070101014.0
8374,sg:2c3656f5178640ee8d41c9b86b2d2016,Robert L Bailey Iv,RI,2019-02-01T00:00:00-05:00,2019-03-01T00:00:00-05:00,2905,405,62.0,"{""<5"":5,""5-20"":127,""21-60"":68,""61-240"":91,"">240"":114}",45409.5,41.803133,-71.415775,611110.0,RI,44.0,44007.0,Providence County,440070004004.0
8571,sg:3e0aa21722464344866ef0a5d53e151b,El Tapatio,RI,2019-02-01T00:00:00-05:00,2019-03-01T00:00:00-05:00,2852,78,41.0,"{""<5"":1,""5-20"":14,""21-60"":44,""61-240"":16,"">240"":3}",5087.5,41.574798,-71.46099699999999,722511.0,RI,44.0,44009.0,Washington County,440090503023.0
8657,sg:46bda472a9cc45b2b05b85502a4eebc0,Krazy Fusion Cafe URI,RI,2019-02-01T00:00:00-05:00,2019-03-01T00:00:00-05:00,2881,54,15.0,"{""<5"":3,""5-20"":31,""21-60"":7,""61-240"":3,"">240"":10}",3530.0,41.485623,-71.52370400000001,722511.0,RI,44.0,44009.0,Washington County,440090514001.0
8933,sg:61524a3be93b478ab9514e2ab7fb0062,Poke Works,RI,2019-02-01T00:00:00-05:00,2019-03-01T00:00:00-05:00,2906,2579,78.0,"{""<5"":18,""5-20"":457,""21-60"":606,""61-240"":1188,"">240"":310}",283494.5,41.827464,-71.40031,722513.0,RI,44.0,44007.0,Providence County,440070036011.0
9312,sg:847e96f6477a4d8e82952f630d85b44f,Sunshine Auto Detailing and Cleaning,RI,2019-02-01T00:00:00-05:00,2019-03-01T00:00:00-05:00,2910,35,31.0,"{""<5"":1,""5-20"":11,""21-60"":10,""61-240"":11,"">240"":2}",2680.5,41.768169,-71.42381999999999,444120.0,RI,44.0,44007.0,Providence County,440070136003.0
9659,sg:a6f6c47322454e94ac98da4293ddfdbf,Ashton Alphabest,RI,2019-02-01T00:00:00-05:00,2019-03-01T00:00:00-05:00,2864,80,30.5,"{""<5"":2,""5-20"":35,""21-60"":5,""61-240"":5,"">240"":33}",9317.5,41.947487,-71.427904,624410.0,RI,44.0,44007.0,Providence County,440070114015.0
10545,sg:fd9fbaa3424e4f35add46d995dba5085,Becky's BBQ,RI,2019-02-01T00:00:00-05:00,2019-03-01T00:00:00-05:00,2842,36,11.0,"{""<5"":1,""5-20"":20,""21-60"":9,""61-240"":5,"">240"":1}",1609.5,41.517726,-71.298224,722511.0,RI,44.0,44005.0,Newport County,440050403042.0
10759,sg:10c3f57a043a4f3ab10929d9b08925eb,Jamestown Windmill,RI,2019-02-01T00:00:00-05:00,2019-03-01T00:00:00-05:00,2835,3,6.0,"{""<5"":0,""5-20"":2,""21-60"":0,""61-240"":0,"">240"":1}",265.0,41.515581,-71.374125,712120.0,RI,44.0,44005.0,Newport County,440050413003.0
10981,sg:25414c949aa945bf9512c099b538f4f1,Kreiger Steven M & Associates,RI,2019-02-01T00:00:00-05:00,2019-03-01T00:00:00-05:00,2879,33,361.0,"{""<5"":1,""5-20"":2,""21-60"":1,""61-240"":6,"">240"":23}",6491.0,41.440707,-71.49351,446130.0,RI,44.0,44009.0,Washington County,440090512021.0
11253,sg:3fd6943beaf44fb8aaec0ba1910221a8,Area Restaurant &amp Lounge,RI,2019-02-01T00:00:00-05:00,2019-03-01T00:00:00-05:00,2909,42,702.5,"{""<5"":1,""5-20"":2,""21-60"":0,""61-240"":0,"">240"":39}",9387.5,41.806049,-71.457701,722511.0,RI,44.0,44007.0,Providence County,440070017002.0
11823,sg:72b1d79fd905498cac424cdb97ad0967,Uno Chicago Grill,RI,2019-02-01T00:00:00-05:00,2019-03-01T00:00:00-05:00,2917,461,41.0,"{""<5"":11,""5-20"":112,""21-60"":213,""61-240"":122,"">240"":3}",29135.0,41.871061,-71.52135899999999,722511.0,RI,44.0,44007.0,Providence County,440070126012.0
11920,sg:7c800e38dfb94e5a990fc3c01bed8b1e,Twin Willows,RI,2019-02-01T00:00:00-05:00,2019-03-01T00:00:00-05:00,2882,233,65.0,"{""<5"":2,""5-20"":39,""21-60"":67,""61-240"":102,"">240"":23}",24077.0,41.473276,-71.433706,722511.0,RI,44.0,44009.0,Washington County,440090515022.0
12113,sg:9136e2e6ff2740e0a18b1b4e5c6e47aa,Tio Pepe's Cantina,RI,2019-02-01T00:00:00-05:00,2019-03-01T00:00:00-05:00,2863,127,28.0,"{""<5"":4,""5-20"":51,""21-60"":34,""61-240"":22,"">240"":16}",9175.5,41.884599,-71.39484200000001,722511.0,RI,44.0,44007.0,Providence County,440070111002.0
12185,sg:97a7f935c53848a4b0e7feede319fe6b,Rolling Greens Golf Course,RI,2019-02-01T00:00:00-05:00,2019-03-01T00:00:00-05:00,2852,25,77.0,"{""<5"":0,""5-20"":3,""21-60"":6,""61-240"":16,"">240"":0}",2688.5,41.580484999999996,-71.512606,713910.0,RI,44.0,44009.0,Washington County,440090503011.0
12323,sg:a55542933b774b44ad02d0b79d9c2692,Courtyard by Marriott,RI,2019-02-01T00:00:00-05:00,2019-03-01T00:00:00-05:00,2888,446,218.0,"{""<5"":5,""5-20"":63,""21-60"":59,""61-240"":113,"">240"":206}",69636.0,41.754213,-71.43431,721110.0,RI,44.0,44003.0,Kent County,440030211002.0
12588,sg:bf63d4f7ac8342beb5f904cddd4a5ce8,Papa Pasquales Pizzeria,RI,2019-02-01T00:00:00-05:00,2019-03-01T00:00:00-05:00,2915,144,79.0,"{""<5"":2,""5-20"":41,""21-60"":24,""61-240"":35,"">240"":42}",16837.0,41.764403,-71.361287,722511.0,RI,44.0,44007.0,Providence County,440070106005.0
13301,sg:0a1587416f4b4b59a78d3e4fb356e0e5,Arties auto parts,RI,2019-02-01T00:00:00-05:00,2019-03-01T00:00:00-05:00,2885,9,8.0,"{""<5"":1,""5-20"":6,""21-60"":2,""61-240"":0,"">240"":0}",158.5,41.739212,-71.273552,441310.0,RI,44.0,44001.0,Bristol County,440010306011.0
13302,sg:0a2405fcc1f64deea38b2484cda19821,North Kingstown Fire Department Station 1,RI,2019-02-01T00:00:00-05:00,2019-03-01T00:00:00-05:00,2852,165,62.0,"{""<5"":1,""5-20"":49,""21-60"":32,""61-240"":46,"">240"":37}",17714.0,41.57632,-71.460421,922160.0,RI,44.0,44009.0,Washington County,440090503023.0
13711,sg:2f78349bf9e242b3bbeb7e4a52707bea,Fox Point Spray Water Park At Cabral Park,RI,2019-02-01T00:00:00-05:00,2019-03-01T00:00:00-05:00,2903,278,45.0,"{""<5"":10,""5-20"":90,""21-60"":59,""61-240"":55,"">240"":64}",27177.0,41.819738,-71.392313,713110.0,RI,44.0,44007.0,Providence County,440070037002.0
13733,sg:31e1932cda484383832fcab4242930ee,Soucy Insurance Agency,RI,2019-02-01T00:00:00-05:00,2019-03-01T00:00:00-05:00,2895,80,24.5,"{""<5"":2,""5-20"":33,""21-60"":17,""61-240"":18,"">240"":10}",6215.0,42.013852,-71.50307,524210.0,RI,44.0,44007.0,Providence County,440070181001.0
13991,sg:49039968ad3f43eaa514e582e1c61bf1,Trend Insurance,RI,2019-02-01T00:00:00-05:00,2019-03-01T00:00:00-05:00,2871,16,28.5,"{""<5"":0,""5-20"":6,""21-60"":6,""61-240"":3,"">240"":1}",1009.5,41.603124,-71.247311,524210.0,RI,44.0,44005.0,Newport County,440050401023.0
14540,sg:7f6eaadfe1934083999325b0fdcfb393,VCA Animal Hospitals,RI,2019-02-01T00:00:00-05:00,2019-03-01T00:00:00-05:00,2891,1,886.0,"{""<5"":0,""5-20"":0,""21-60"":0,""61-240"":0,"">240"":1}",240.0,41.391490000000005,-71.82247,541940.0,RI,44.0,44009.0,Washington County,440090509013.0
14602,sg:865ad0b4b80f4bddb0d8b33f8d394d11,FroyoWorld,RI,2019-02-01T00:00:00-05:00,2019-03-01T00:00:00-05:00,2906,64,27.0,"{""<5"":1,""5-20"":26,""21-60"":21,""61-240"":11,"">240"":5}",4033.5,41.827599,-71.400327,722513.0,RI,44.0,44007.0,Providence County,440070036011.0
14736,sg:933086d5bbb840ecbf8e031c8f381d99,Pascoag Cafe,RI,2019-02-01T00:00:00-05:00,2019-03-01T00:00:00-05:00,2859,115,66.0,"{""<5"":1,""5-20"":24,""21-60"":29,""61-240"":44,"">240"":17}",12179.0,41.958240999999994,-71.70163000000001,722511.0,RI,44.0,44007.0,Providence County,440070129004.0
14753,sg:94c6437e4ac046d396ea564be5dbb55c,Globe Park,RI,2019-02-01T00:00:00-05:00,2019-03-01T00:00:00-05:00,2903,246,27.0,"{""<5"":5,""5-20"":97,""21-60"":49,""61-240"":52,"">240"":43}",21355.5,41.988694,-71.527553,712190.0,RI,44.0,44007.0,Providence County,440070175002.0
15903,sg:069648532a37406fa4d5a427792fcf71,Courtesy Cleaners,RI,2019-02-01T00:00:00-05:00,2019-03-01T00:00:00-05:00,2852,37,87.0,"{""<5"":1,""5-20"":10,""21-60"":6,""61-240"":12,"">240"":8}",4096.5,41.572419000000004,-71.45768199999999,812320.0,RI,44.0,44009.0,Washington County,440090503023.0
15916,sg:07cc4dae6be8461e9d64c83200b89ed0,Frank & John From Italy,RI,2019-02-01T00:00:00-05:00,2019-03-01T00:00:00-05:00,2818,88,22.5,"{""<5"":4,""5-20"":35,""21-60"":25,""61-240"":12,"">240"":12}",6146.0,41.661331,-71.44967700000001,722511.0,RI,44.0,44003.0,Kent County,440030209011.0
16134,sg:1c588a3c3e9e4166b9e5021a8cc13f23,It Starts Here Fitness,RI,2019-02-01T00:00:00-05:00,2019-03-01T00:00:00-05:00,2886,300,14.0,"{""<5"":7,""5-20"":174,""21-60"":53,""61-240"":34,"">240"":32}",17136.0,41.736619,-71.439785,713940.0,RI,44.0,44003.0,Kent County,440030211004.0
16341,sg:3001b12fb4e64336988996cc5ce7f52d,Faith Baptist Church,RI,2019-02-01T00:00:00-05:00,2019-03-01T00:00:00-05:00,2886,22,81.0,"{""<5"":0,""5-20"":4,""21-60"":5,""61-240"":10,"">240"":3}",2477.5,41.698485,-71.479709,813110.0,RI,44.0,44003.0,Kent County,440030222021.0
16462,sg:3b946c96d07e4545926b72b4a6a0eaa4,The Beauty Loft,RI,2019-02-01T00:00:00-05:00,2019-03-01T00:00:00-05:00,2809,31,121.0,"{""<5"":0,""5-20"":5,""21-60"":5,""61-240"":16,"">240"":5}",3873.0,41.675606,-71.272575,812112.0,RI,44.0,44001.0,Bristol County,440010307001.0
16753,sg:592c82eb8d6d44c48eb7eee9a9f0acce,Stop & Shop,RI,2019-02-01T00:00:00-05:00,2019-03-01T00:00:00-05:00,2840,163,13.0,"{""<5"":8,""5-20"":109,""21-60"":34,""61-240"":3,"">240"":9}",5371.0,41.481234,-71.30689,445110.0,RI,44.0,44005.0,Newport County,440050408001.0
16907,sg:698983df809d48daa6afc33ecebea289,Jamestown Community Playground,RI,2019-02-01T00:00:00-05:00,2019-03-01T00:00:00-05:00,2835,43,17.0,"{""<5"":1,""5-20"":21,""21-60"":10,""61-240"":11,"">240"":0}",2325.5,41.495754,-71.367737,712190.0,RI,44.0,44005.0,Newport County,440050413005.0
17161,sg:81560b0b34bf41b99a012e1e2841b56f,Courtyard by Marriott,RI,2019-02-01T00:00:00-05:00,2019-03-01T00:00:00-05:00,2903,840,67.0,"{""<5"":28,""5-20"":242,""21-60"":135,""61-240"":167,"">240"":268}",98016.0,41.825701,-71.414562,721110.0,RI,44.0,44007.0,Providence County,440070008001.0
17853,sg:c7b6ec89dc5a4048aa7590965530909c,CubeSmart,RI,2019-02-01T00:00:00-05:00,2019-03-01T00:00:00-05:00,2864,54,97.0,"{""<5"":2,""5-20"":15,""21-60"":7,""61-240"":10,"">240"":20}",6781.0,41.952884000000005,-71.392837,531130.0,RI,44.0,44007.0,Providence County,440070114014.0
18041,sg:da7f77782e7846d4b9347e11a1912061,Miller's Roast Beef,RI,2019-02-01T00:00:00-05:00,2019-03-01T00:00:00-05:00,2914,222,10.0,"{""<5"":8,""5-20"":161,""21-60"":49,""61-240"":3,"">240"":1}",4708.5,41.81149,-71.35904000000001,722511.0,RI,44.0,44007.0,Providence County,440070105012.0
18153,sg:e4e32748425849c1bce9f881cd6e0bf3,Ceremony,RI,2019-02-01T00:00:00-05:00,2019-03-01T00:00:00-05:00,2906,17,18.0,"{""<5"":0,""5-20"":11,""21-60"":6,""61-240"":0,"">240"":0}",380.5,41.827988,-71.400485,445310.0,,,,,
18471,sg:0436d86312ce4d64aace08f947ff07d7,Weight Watchers,RI,2019-02-01T00:00:00-05:00,2019-03-01T00:00:00-05:00,2898,3,19.0,"{""<5"":1,""5-20"":1,""21-60"":0,""61-240"":1,"">240"":0}",165.5,41.514388000000004,-71.698143,812191.0,RI,44.0,44009.0,Washington County,440090506001.0
19207,sg:4947be11813f4622bb8bade534020821,Christ United Methodist Church,RI,2019-02-01T00:00:00-05:00,2019-03-01T00:00:00-05:00,2881,27,48.0,"{""<5"":1,""5-20"":8,""21-60"":8,""61-240"":9,"">240"":1}",2021.0,41.475489,-71.517516,813110.0,RI,44.0,44009.0,Washington County,440090513051.0
19614,sg:6e8fb9f8fdf14683bf9b8feece98df01,Wes' Rib House,RI,2019-02-01T00:00:00-05:00,2019-03-01T00:00:00-05:00,2909,97,45.0,"{""<5"":1,""5-20"":22,""21-60"":39,""61-240"":30,"">240"":5}",7572.0,41.815156,-71.441195,722511.0,RI,44.0,44007.0,Providence County,440070016002.0
19794,sg:80b571ab8cb54c22906087a1fb7dc68d,Sunoco,RI,2019-02-01T00:00:00-05:00,2019-03-01T00:00:00-05:00,2886,96,12.0,"{""<5"":10,""5-20"":44,""21-60"":10,""61-240"":23,"">240"":9}",6601.5,41.720935,-71.48379200000001,447110.0,RI,44.0,44003.0,Kent County,440030223002.0
20058,sg:98e51859be7e4dffa9b03c9cf897a256,Shell Oil,RI,2019-02-01T00:00:00-05:00,2019-03-01T00:00:00-05:00,2813,52,21.5,"{""<5"":3,""5-20"":20,""21-60"":15,""61-240"":12,"">240"":2}",3151.0,41.355707,-71.707251,447110.0,RI,44.0,44009.0,Washington County,440090511012.0
20280,sg:afe8cdedc36c4d20ac265e5a03ff0fdd,Ocean State Auto Repair,RI,2019-02-01T00:00:00-05:00,2019-03-01T00:00:00-05:00,2919,7,319.0,"{""<5"":0,""5-20"":0,""21-60"":3,""61-240"":0,"">240"":4}",1081.5,41.829824,-71.47330500000001,811111.0,RI,44.0,44007.0,Providence County,440070124013.0
20775,sg:e07c48a89b914c31a1589daa4443ecd2,St Mary's Parish,RI,2019-02-01T00:00:00-05:00,2019-03-01T00:00:00-05:00,2813,1,115.0,"{""<5"":0,""5-20"":0,""21-60"":0,""61-240"":1,"">240"":0}",150.5,41.454234,-71.660514,813110.0,RI,44.0,44009.0,Washington County,440090511014.0
20791,sg:e17a138588694c638c3df8a724edafbe,Little Rhody Brand Franks & Weiners,RI,2019-02-01T00:00:00-05:00,2019-03-01T00:00:00-05:00,2919,36,75.0,"{""<5"":1,""5-20"":9,""21-60"":5,""61-240"":10,"">240"":11}",4462.5,41.83067,-71.472751,445110.0,RI,44.0,44007.0,Providence County,440070124011.0
21341,sg:14a01b827f6a47b99c8336a5391e750e,Lnm Industries,RI,2019-02-01T00:00:00-05:00,2019-03-01T00:00:00-05:00,2909,208,51.0,"{""<5"":2,""5-20"":73,""21-60"":37,""61-240"":49,"">240"":47}",21070.5,41.805833,-71.46381600000001,448310.0,RI,44.0,44007.0,Providence County,440070017002.0
21460,sg:1e3c11b7a1a046188920a453544c4acc,Al's Waterfront,RI,2019-02-01T00:00:00-05:00,2019-03-01T00:00:00-05:00,2914,41,33.0,"{""<5"":1,""5-20"":15,""21-60"":10,""61-240"":7,"">240"":8}",3568.5,41.817997,-71.38482900000001,722511.0,RI,44.0,44007.0,Providence County,440070104003.0
21814,sg:3d65a11faa6a41a59e3bf9a65e1656d7,Ritrovo Pub & Grille,RI,2019-02-01T00:00:00-05:00,2019-03-01T00:00:00-05:00,2818,174,60.5,"{""<5"":4,""5-20"":42,""21-60"":41,""61-240"":71,"">240"":16}",16721.0,41.649114000000004,-71.457654,722511.0,RI,44.0,44003.0,Kent County,440030224002.0
22213,sg:613c8f2c156845a59a067b034d126a14,Dunkin',RI,2019-02-01T00:00:00-05:00,2019-03-01T00:00:00-05:00,2893,219,13.0,"{""<5"":23,""5-20"":99,""21-60"":16,""61-240"":38,"">240"":43}",17982.0,41.712801,-71.50699300000001,722515.0,RI,44.0,44003.0,Kent County,440030202001.0
22342,sg:70c6f13f7df94529a440355e20005ca5,Roger Williams Day Care Center,RI,2019-02-01T00:00:00-05:00,2019-03-01T00:00:00-05:00,2905,1,8.0,"{""<5"":0,""5-20"":1,""21-60"":0,""61-240"":0,"">240"":0}",12.5,41.798227000000004,-71.409033,624410.0,RI,44.0,44007.0,Providence County,440070005003.0
22480,sg:7eb6c5da6ad9413e89b76f95f243a35e,First National Title,RI,2019-02-01T00:00:00-05:00,2019-03-01T00:00:00-05:00,2886,21,24.0,"{""<5"":1,""5-20"":7,""21-60"":10,""61-240"":0,"">240"":3}",1215.0,41.697878,-71.479384,531210.0,RI,44.0,44003.0,Kent County,440030222021.0
22498,sg:8034c978a9f64e508414a61d75edc9f0,Rainbow Shops,RI,2019-02-01T00:00:00-05:00,2019-03-01T00:00:00-05:00,2895,63,21.0,"{""<5"":2,""5-20"":29,""21-60"":25,""61-240"":6,"">240"":1}",2523.0,42.016977000000004,-71.471738,448140.0,RI,44.0,44007.0,Providence County,440070184003.0
22652,sg:8e61c3afc71d4064a5ae68338a7c2495,Pleasure Marina,RI,2019-02-01T00:00:00-05:00,2019-03-01T00:00:00-05:00,2889,25,197.0,"{""<5"":0,""5-20"":4,""21-60"":4,""61-240"":7,"">240"":10}",3665.5,41.689499,-71.394813,441222.0,RI,44.0,44003.0,Kent County,440030217002.0
22785,sg:9c5915ed7e364eacadbc4a2cdae91bae,Church of the Redeemer,RI,2019-02-01T00:00:00-05:00,2019-03-01T00:00:00-05:00,2906,11,107.0,"{""<5"":0,""5-20"":0,""21-60"":3,""61-240"":7,"">240"":1}",1415.0,41.844255,-71.396854,813110.0,RI,44.0,44007.0,Providence County,440070032003.0
22901,sg:a70f294734f447389ce869555ae7fcd1,Machupicchu ll,RI,2019-02-01T00:00:00-05:00,2019-03-01T00:00:00-05:00,2909,141,56.0,"{""<5"":3,""5-20"":35,""21-60"":38,""61-240"":33,"">240"":32}",14630.5,41.832144,-71.45422099999999,722511.0,RI,44.0,44007.0,Providence County,440070021021.0
23124,sg:bfbaada14dfb4495bd3d57e3c41bfa00,Circuit Bmx,RI,2019-02-01T00:00:00-05:00,2019-03-01T00:00:00-05:00,2860,71,29.0,"{""<5"":3,""5-20"":28,""21-60"":12,""61-240"":21,"">240"":7}",5684.0,41.879775,-71.38541500000001,451110.0,RI,44.0,44007.0,Providence County,440070152002.0
23364,sg:d7211623d115409ca0cfe7c354cc8de4,The Collective,RI,2019-02-01T00:00:00-05:00,2019-03-01T00:00:00-05:00,2879,120,30.5,"{""<5"":3,""5-20"":38,""21-60"":41,""61-240"":31,"">240"":7}",8488.5,41.450889000000004,-71.499801,451211.0,RI,44.0,44009.0,Washington County,440090512022.0
23961,sg:117ba346073840d1ae88fb47b6b317c6,Freedom Park,RI,2019-02-01T00:00:00-05:00,2019-03-01T00:00:00-05:00,2909,51,14.0,"{""<5"":4,""5-20"":25,""21-60"":12,""61-240"":5,"">240"":5}",2761.0,41.83294,-71.360028,712190.0,RI,44.0,44007.0,Providence County,440070103001.0
24259,sg:2ca41c8c133b418e9096c2d3c4bdfeaa,Bochner's Realistic Self Defense Training and Fitness Center,RI,2019-02-01T00:00:00-05:00,2019-03-01T00:00:00-05:00,2920,117,64.0,"{""<5"":2,""5-20"":13,""21-60"":36,""61-240"":38,"">240"":28}",14064.5,41.787690999999995,-71.456505,713940.0,RI,44.0,44007.0,Providence County,440070147004.0
24343,sg:33fe4fe53e924211b7915667971d9e43,Devine James E III,RI,2019-02-01T00:00:00-05:00,2019-03-01T00:00:00-05:00,2916,4,80.5,"{""<5"":0,""5-20"":2,""21-60"":0,""61-240"":1,"">240"":1}",415.5,41.857345,-71.355598,621210.0,RI,44.0,44007.0,Providence County,440070101011.0
24421,sg:3c01974ba90f47c4b3bf53a73f490b68,Dolores,RI,2019-02-01T00:00:00-05:00,2019-03-01T00:00:00-05:00,2906,136,87.5,"{""<5"":0,""5-20"":38,""21-60"":25,""61-240"":23,"">240"":50}",16949.0,41.822019,-71.396795,722511.0,,,,,
24456,sg:3ea6d0375c894587af81f59c06f4718b,Cigar Box,RI,2019-02-01T00:00:00-05:00,2019-03-01T00:00:00-05:00,2882,19,21.0,"{""<5"":2,""5-20"":7,""21-60"":8,""61-240"":2,"">240"":0}",717.5,41.425985,-71.480829,453991.0,RI,44.0,44009.0,Washington County,440090515033.0
24656,sg:50a049628f4247b2938dd6c1991d99a0,Airflow,RI,2019-02-01T00:00:00-05:00,2019-03-01T00:00:00-05:00,2816,55,65.0,"{""<5"":0,""5-20"":18,""21-60"":7,""61-240"":17,"">240"":13}",6187.0,41.706643,-71.557149,238220.0,RI,44.0,44003.0,Kent County,440030206041.0
25084,sg:7c825b74d7dd499991450ba91d17291b,Providence Fire Department Engine Company 9 Ladder Company 8,RI,2019-02-01T00:00:00-05:00,2019-03-01T00:00:00-05:00,2906,124,84.0,"{""<5"":4,""5-20"":33,""21-60"":17,""61-240"":28,"">240"":42}",15405.0,41.822792,-71.398362,922160.0,RI,44.0,44007.0,Providence County,440070036011.0
25485,sg:a529093aa6cf4e1a997002751a634787,Peace Dale Shooting Preserve,RI,2019-02-01T00:00:00-05:00,2019-03-01T00:00:00-05:00,2879,42,23.5,"{""<5"":1,""5-20"":18,""21-60"":16,""61-240"":6,"">240"":1}",2018.5,41.474553,-71.49154300000001,452319.0,RI,44.0,44009.0,Washington County,440090513051.0
25619,sg:b39982b0753e491aaa4a21b7b2fd2c48,Roques's Cafeteria,RI,2019-02-01T00:00:00-05:00,2019-03-01T00:00:00-05:00,2907,96,48.0,"{""<5"":6,""5-20"":32,""21-60"":15,""61-240"":21,"">240"":22}",9463.0,41.812645,-71.429213,722511.0,RI,44.0,44007.0,Providence County,440070012002.0
25857,sg:cacdbf1e4f694be2a7f573309fd23fa7,TD Bank,RI,2019-02-01T00:00:00-05:00,2019-03-01T00:00:00-05:00,2861,16,6.5,"{""<5"":0,""5-20"":14,""21-60"":2,""61-240"":0,"">240"":0}",256.0,41.885736,-71.366043,522110.0,RI,44.0,44007.0,Providence County,440070156003.0
25927,sg:d420e18b388142d6866b909970f0c2b1,Furry Friends,RI,2019-02-01T00:00:00-05:00,2019-03-01T00:00:00-05:00,2859,44,48.5,"{""<5"":1,""5-20"":11,""21-60"":20,""61-240"":10,"">240"":2}",2935.0,41.960793,-71.701625,812910.0,RI,44.0,44007.0,Providence County,440070129004.0
26107,sg:e80c49b410a04e5f8598f92920f55545,Pitter Patter Playhouse,RI,2019-02-01T00:00:00-05:00,2019-03-01T00:00:00-05:00,2871,47,42.0,"{""<5"":1,""5-20"":9,""21-60"":23,""61-240"":12,"">240"":2}",3332.5,41.59742,-71.250686,445310.0,RI,44.0,44005.0,Newport County,440050401023.0
26625,sg:171ec9aca789407f8cf906d24f6f2647,Miss Lee,RI,2019-02-01T00:00:00-05:00,2019-03-01T00:00:00-05:00,2920,66,70.5,"{""<5"":3,""5-20"":17,""21-60"":12,""61-240"":14,"">240"":20}",7613.0,41.77062,-71.46960200000001,611110.0,RI,44.0,44007.0,Providence County,440070143004.0
26664,sg:1aa226949891447aab18d675e9b5fd02,The Providence Rink,RI,2019-02-01T00:00:00-05:00,2019-03-01T00:00:00-05:00,2903,792,40.0,"{""<5"":11,""5-20"":242,""21-60"":266,""61-240"":216,"">240"":57}",60013.5,41.82478,-71.41260600000001,713940.0,RI,44.0,44007.0,Providence County,440070008001.0
26815,sg:29420799a2004e2ea9a7fb07ba8757d8,Park Ave Auto Service,RI,2019-02-01T00:00:00-05:00,2019-03-01T00:00:00-05:00,2910,771,49.0,"{""<5"":15,""5-20"":234,""21-60"":170,""61-240"":229,"">240"":123}",73832.0,41.779361,-71.437825,441310.0,RI,44.0,44007.0,Providence County,440070137021.0
26963,sg:37a21069b6f644918209bd747eacd305,Boost Mobile,RI,2019-02-01T00:00:00-05:00,2019-03-01T00:00:00-05:00,2904,3,109.0,"{""<5"":0,""5-20"":0,""21-60"":0,""61-240"":3,"">240"":0}",451.5,41.867377000000005,-71.439113,517312.0,RI,44.0,44007.0,Providence County,440070118005.0
27146,sg:47ef00c9d59144ddaf661f9ee4f7057b,Marylou's Coffee,RI,2019-02-01T00:00:00-05:00,2019-03-01T00:00:00-05:00,2919,49,5.0,"{""<5"":9,""5-20"":35,""21-60"":1,""61-240"":1,"">240"":3}",1371.0,41.824857,-71.471036,722515.0,RI,44.0,44007.0,Providence County,440070124011.0
27415,sg:618c5e4268724dcbad06bd460e0dd075,Coffee Depot,RI,2019-02-01T00:00:00-05:00,2019-03-01T00:00:00-05:00,2885,63,43.0,"{""<5"":1,""5-20"":15,""21-60"":22,""61-240"":18,"">240"":7}",5470.0,41.729151,-71.282443,722515.0,RI,44.0,44001.0,Bristol County,440010305003.0
27904,sg:91d2cb29db424438824809a806baaaf0,First Korean Church,RI,2019-02-01T00:00:00-05:00,2019-03-01T00:00:00-05:00,2920,1,62.0,"{""<5"":0,""5-20"":0,""21-60"":0,""61-240"":1,"">240"":0}",150.5,41.767990999999995,-71.45786700000001,813110.0,RI,44.0,44007.0,Providence County,440070143001.0
28464,sg:ca3113d5fbc84a67adc37404051ca856,Moriarty's Liquor Locker,RI,2019-02-01T00:00:00-05:00,2019-03-01T00:00:00-05:00,2871,67,92.0,"{""<5"":0,""5-20"":16,""21-60"":11,""61-240"":24,"">240"":16}",8097.5,41.623971000000004,-71.223523,445310.0,RI,44.0,44005.0,Newport County,440050401011.0
28844,sg:f0072ad9824545bf96e94b49bd09d7d5,Pawtucket & Central Falls Metro Bd YMCA,RI,2019-02-01T00:00:00-05:00,2019-03-01T00:00:00-05:00,2860,78,128.0,"{""<5"":0,""5-20"":22,""21-60"":12,""61-240"":17,"">240"":27}",9799.5,41.889527,-71.382315,713940.0,RI,44.0,44007.0,Providence County,440070160001.0
29623,sg:384e756477f341d4a86016f797d6d79a,Flo's Clam Shack,RI,2019-02-01T00:00:00-05:00,2019-03-01T00:00:00-05:00,2842,99,79.0,"{""<5"":2,""5-20"":16,""21-60"":24,""61-240"":27,"">240"":30}",12440.5,41.490068,-71.284922,722511.0,RI,44.0,44005.0,Newport County,440050404003.0
29726,sg:4261fc55b9494eb1a821dcc6bf0793ac,Belmont Shopping Center,RI,2019-02-01T00:00:00-05:00,2019-03-01T00:00:00-05:00,2879,2134,15.0,"{""<5"":65,""5-20"":1275,""21-60"":566,""61-240"":142,"">240"":86}",81034.0,41.440814,-71.488873,531120.0,RI,44.0,44009.0,Washington County,440090512021.0
29791,sg:48ce964e9ae043bc9cd571a757743597,Bristol County Dodge Chrysler Plymouth,RI,2019-02-01T00:00:00-05:00,2019-03-01T00:00:00-05:00,2885,19,19.0,"{""<5"":0,""5-20"":10,""21-60"":4,""61-240"":3,"">240"":2}",1218.5,41.729403999999995,-71.275581,441120.0,RI,44.0,44001.0,Bristol County,440010305002.0
29861,sg:4e1e5288afb24508b7fc8f30a90227ea,Jocks Horse Farm,RI,2019-02-01T00:00:00-05:00,2019-03-01T00:00:00-05:00,2921,32,28.0,"{""<5"":1,""5-20"":12,""21-60"":8,""61-240"":11,"">240"":0}",2132.0,41.751071,-71.538054,812910.0,RI,44.0,44007.0,Providence County,440070146002.0
29893,sg:5101ac0da25f40c6868534b965abe282,Zangari Eyecare And Eyewear,RI,2019-02-01T00:00:00-05:00,2019-03-01T00:00:00-05:00,2885,40,61.5,"{""<5"":1,""5-20"":10,""21-60"":9,""61-240"":8,"">240"":12}",4576.0,41.749858,-71.271914,621111.0,RI,44.0,44001.0,Bristol County,440010306011.0
29917,sg:53ccdc818d9b4e989e4ef0ab4c1c6e97,Ballard's,RI,2019-02-01T00:00:00-05:00,2019-03-01T00:00:00-05:00,2807,2,24.5,"{""<5"":0,""5-20"":1,""21-60"":1,""61-240"":0,"">240"":0}",53.0,41.172613,-71.555084,721110.0,RI,44.0,44009.0,Washington County,440090415001.0
29971,sg:583f55b3d2aa491cb5bccb24e2b08073,Thrift Depot,RI,2019-02-01T00:00:00-05:00,2019-03-01T00:00:00-05:00,2860,134,33.5,"{""<5"":2,""5-20"":51,""21-60"":34,""61-240"":32,"">240"":15}",10435.5,41.878778000000004,-71.393359,442110.0,RI,44.0,44007.0,Providence County,440070151001.0
30325,sg:7954fb679db945c9bf2282102c1cafb4,Sylvester Electronics,RI,2019-02-01T00:00:00-05:00,2019-03-01T00:00:00-05:00,2864,59,111.0,"{""<5"":3,""5-20"":16,""21-60"":9,""61-240"":15,"">240"":16}",6669.5,41.912216,-71.395485,443142.0,RI,44.0,44007.0,Providence County,440070112005.0
30891,sg:b1538e654bd4458f96ef5935adb2e4a0,Baba's Original New York System,RI,2019-02-01T00:00:00-05:00,2019-03-01T00:00:00-05:00,2908,113,29.0,"{""<5"":4,""5-20"":37,""21-60"":41,""61-240"":26,"">240"":5}",7246.0,41.834989,-71.425514,722513.0,RI,44.0,44007.0,Providence County,440070025001.0
31276,sg:d9b46dda489245ef8b5d8c94471c1198,Park Square Wine & Spirits,RI,2019-02-01T00:00:00-05:00,2019-03-01T00:00:00-05:00,2896,61,6.0,"{""<5"":7,""5-20"":47,""21-60"":3,""61-240"":3,"">240"":1}",1418.0,41.981778999999996,-71.513801,445310.0,RI,44.0,44007.0,Providence County,440070128031.0
31686,sg:0488c6b68dfb401a88d10081c1dbc223,Godena Farm,RI,2019-02-01T00:00:00-05:00,2019-03-01T00:00:00-05:00,2835,10,9.0,"{""<5"":0,""5-20"":8,""21-60"":2,""61-240"":0,"">240"":0}",181.0,41.543043,-71.374863,712190.0,RI,44.0,44005.0,Newport County,440050413003.0
32181,sg:348452e81d2c43dca874f905892cb08f,Edward Jones,RI,2019-02-01T00:00:00-05:00,2019-03-01T00:00:00-05:00,2891,38,27.0,"{""<5"":1,""5-20"":17,""21-60"":2,""61-240"":17,"">240"":1}",3094.5,41.343569,-71.81715,523999.0,RI,44.0,44009.0,Washington County,440090509024.0
33477,sg:b2814ee4eae543548757be98e5cac355,JoJos Cupcakes,RI,2019-02-01T00:00:00-05:00,2019-03-01T00:00:00-05:00,2816,8,72.5,"{""<5"":1,""5-20"":1,""21-60"":2,""61-240"":2,"">240"":2}",877.0,41.671779,-71.609815,311811.0,RI,44.0,44003.0,Kent County,440030207021.0
33835,sg:d6ba3072e8a3467fb25f81368faab9db,Veneton Auto Solutions,RI,2019-02-01T00:00:00-05:00,2019-03-01T00:00:00-05:00,2908,153,23.0,"{""<5"":5,""5-20"":67,""21-60"":26,""61-240"":22,"">240"":33}",13134.0,41.835384000000005,-71.41663199999999,441310.0,RI,44.0,44007.0,Providence County,440070026002.0
34015,sg:e7999b9a48e6482f911a5b8bfda46dfb,Ocean State Laser & Aesthetics,RI,2019-02-01T00:00:00-05:00,2019-03-01T00:00:00-05:00,2818,19,29.0,"{""<5"":0,""5-20"":8,""21-60"":8,""61-240"":3,"">240"":0}",875.5,41.621533,-71.491182,812199.0,RI,44.0,44003.0,Kent County,440030209032.0
34548,sg:1c502e9a49484e51ad2f63da8a88492b,Portsmouth Multi Purpose Senior Center,RI,2019-02-01T00:00:00-05:00,2019-03-01T00:00:00-05:00,2871,45,63.0,"{""<5"":1,""5-20"":6,""21-60"":14,""61-240"":18,"">240"":6}",4793.5,41.618057,-71.25753,623312.0,RI,44.0,44005.0,Newport County,440050401035.0
34690,sg:27854d334ace4c4ca3d34523ddb2ae2c,Pleasant St Baptist Church Study,RI,2019-02-01T00:00:00-05:00,2019-03-01T00:00:00-05:00,2891,133,96.0,"{""<5"":4,""5-20"":18,""21-60"":30,""61-240"":38,"">240"":43}",17489.0,41.38516,-71.828091,813110.0,RI,44.0,44009.0,Washington County,440090508015.0
34974,sg:40976386af3b46bb94b4acfab6b3b572,East Side Escape,RI,2019-02-01T00:00:00-05:00,2019-03-01T00:00:00-05:00,2906,7,300.0,"{""<5"":0,""5-20"":0,""21-60"":0,""61-240"":3,"">240"":4}",1411.5,41.827228999999996,-71.382497,812199.0,RI,44.0,44007.0,Providence County,440070035004.0
35194,sg:53ea59a1cbcd4e29b90293d61848a499,Mckillop Library,RI,2019-02-01T00:00:00-05:00,2019-03-01T00:00:00-05:00,2840,1141,108.0,"{""<5"":17,""5-20"":165,""21-60"":210,""61-240"":393,"">240"":356}",155196.5,41.470831,-71.300195,519120.0,RI,44.0,44005.0,Newport County,440050409004.0
35371,sg:6581ba6a3211482fb80cd4c99ff88713,Airport Golf Simulator,RI,2019-02-01T00:00:00-05:00,2019-03-01T00:00:00-05:00,2886,359,54.0,"{""<5"":2,""5-20"":73,""21-60"":126,""61-240"":155,"">240"":3}",30068.0,41.727269,-71.439688,713940.0,RI,44.0,44003.0,Kent County,440030211004.0
35594,sg:7c05b7182c3944708e3bfdc63e9ec43e,Jerusalem Meat Market,RI,2019-02-01T00:00:00-05:00,2019-03-01T00:00:00-05:00,2910,35,46.0,"{""<5"":0,""5-20"":7,""21-60"":13,""61-240"":6,"">240"":9}",3677.0,41.775715999999996,-71.43665899999999,445110.0,RI,44.0,44007.0,Providence County,440070137014.0
35815,sg:90d0c542667244a6afbe99ad3d26198f,Maple Root Baptist Church,RI,2019-02-01T00:00:00-05:00,2019-03-01T00:00:00-05:00,2816,17,14.0,"{""<5"":1,""5-20"":9,""21-60"":4,""61-240"":3,"">240"":0}",728.5,41.669121999999994,-71.60557800000001,813110.0,RI,44.0,44003.0,Kent County,440030207032.0
35839,sg:9362619f894d4f62b47b9feda561afb7,Leo's Tire Sales,RI,2019-02-01T00:00:00-05:00,2019-03-01T00:00:00-05:00,2888,106,55.0,"{""<5"":1,""5-20"":25,""21-60"":31,""61-240"":21,"">240"":28}",11451.0,41.758433000000004,-71.424747,441310.0,RI,44.0,44003.0,Kent County,440030211001.0
36210,sg:b8cda89cb17842c78f194e7ac0865896,426 Fitness,RI,2019-02-01T00:00:00-05:00,2019-03-01T00:00:00-05:00,2885,24,17.0,"{""<5"":0,""5-20"":15,""21-60"":7,""61-240"":2,"">240"":0}",772.0,41.727052,-71.2694,713940.0,RI,44.0,44001.0,Bristol County,440010306021.0
37053,sg:0dcd6e9be1f54ec7bfcbeaacf12123dd,USA Karate,RI,2019-02-01T00:00:00-05:00,2019-03-01T00:00:00-05:00,2860,329,45.0,"{""<5"":4,""5-20"":81,""21-60"":117,""61-240"":107,"">240"":20}",26664.5,41.881107,-71.38676099999999,713940.0,RI,44.0,44007.0,Providence County,440070152001.0
37313,sg:26d270785ffb44f8b64e4db0d7077db0,McQuade's Marketplace,RI,2019-02-01T00:00:00-05:00,2019-03-01T00:00:00-05:00,2891,549,14.0,"{""<5"":17,""5-20"":336,""21-60"":127,""61-240"":29,"">240"":40}",23350.5,41.374639,-71.830584,445110.0,RI,44.0,44009.0,Washington County,440090508014.0
37507,sg:36be30ffe7bd42259b7d4850901b7c73,Caetano Rose Marie DC,RI,2019-02-01T00:00:00-05:00,2019-03-01T00:00:00-05:00,2860,36,26.5,"{""<5"":0,""5-20"":15,""21-60"":15,""61-240"":3,"">240"":3}",1966.5,41.861340999999996,-71.411855,621310.0,RI,44.0,44007.0,Providence County,440070163001.0
37543,sg:3a591bc14cc04d568cdb11a22f91e7b9,Marriage and Family Counseling,RI,2019-02-01T00:00:00-05:00,2019-03-01T00:00:00-05:00,2852,71,21.0,"{""<5"":2,""5-20"":33,""21-60"":29,""61-240"":7,"">240"":0}",2645.5,41.570928,-71.460982,621330.0,RI,44.0,44009.0,Washington County,440090503023.0
37557,sg:3c54436cdb77492d86fe7f2ba77d5902,WED Coventry 6,RI,2019-02-01T00:00:00-05:00,2019-03-01T00:00:00-05:00,2816,1,92.0,"{""<5"":0,""5-20"":0,""21-60"":0,""61-240"":1,"">240"":0}",150.5,41.669725,-71.708333,221111.0,RI,44.0,44003.0,Kent County,440030207011.0
37821,sg:56a3e9ae260544f786b4504db1d75c24,Tides School,RI,2019-02-01T00:00:00-05:00,2019-03-01T00:00:00-05:00,2893,50,117.0,"{""<5"":0,""5-20"":9,""21-60"":8,""61-240"":17,"">240"":16}",6835.0,41.701243,-71.52826400000001,611110.0,RI,44.0,44003.0,Kent County,440030203004.0
38991,sg:ca131a0df62245e6913a7b79d1f151aa,Three Islands Clothing,RI,2019-02-01T00:00:00-05:00,2019-03-01T00:00:00-05:00,2891,5,11.0,"{""<5"":1,""5-20"":4,""21-60"":0,""61-240"":0,"">240"":0}",52.5,41.309855999999996,-71.858465,448120.0,RI,44.0,44009.0,Washington County,440090510001.0
39028,sg:cdcb54d2996745efae0e941d940c229f,The Wolf School,RI,2019-02-01T00:00:00-05:00,2019-03-01T00:00:00-05:00,2916,84,98.0,"{""<5"":0,""5-20"":17,""21-60"":17,""61-240"":22,"">240"":28}",10932.0,41.848426,-71.347924,611110.0,RI,44.0,44007.0,Providence County,440070101022.0
39392,sg:f01ae8ed46634c9ca03ba4ae9f23cf18,Subway,RI,2019-02-01T00:00:00-05:00,2019-03-01T00:00:00-05:00,2921,11,10.0,"{""<5"":0,""5-20"":8,""21-60"":3,""61-240"":0,"">240"":0}",221.5,41.788456,-71.518435,722513.0,RI,44.0,44007.0,Providence County,440070146002.0
39729,sg:1179c6257ec8419db7139cb8d9f97bce,Dick's Sporting Goods,RI,2019-02-01T00:00:00-05:00,2019-03-01T00:00:00-05:00,2886,2440,28.0,"{""<5"":33,""5-20"":807,""21-60"":1150,""61-240"":408,"">240"":42}",128229.0,41.719082,-71.480616,451110.0,RI,44.0,44003.0,Kent County,440030221003.0
39835,sg:1a665871838943a79534288c06c9b5f7,Kangaroo Cd's & Tapes,RI,2019-02-01T00:00:00-05:00,2019-03-01T00:00:00-05:00,2904,2,4.5,"{""<5"":1,""5-20"":1,""21-60"":0,""61-240"":0,"">240"":0}",15.0,41.862605,-71.456788,448140.0,RI,44.0,44007.0,Providence County,440070119021.0
40095,sg:33ba375f6ea946a29d6889f23669fae0,Gems Gymnastics,RI,2019-02-01T00:00:00-05:00,2019-03-01T00:00:00-05:00,2864,104,19.0,"{""<5"":1,""5-20"":63,""21-60"":37,""61-240"":3,"">240"":0}",2740.0,41.954068,-71.395671,713940.0,RI,44.0,44007.0,Providence County,440070114014.0
40201,sg:3c51bb93d4da49ca9825768cb729db88,Roosevelt Benton Youth Assessment Center,RI,2019-02-01T00:00:00-05:00,2019-03-01T00:00:00-05:00,2920,478,110.5,"{""<5"":4,""5-20"":87,""21-60"":80,""61-240"":197,"">240"":110}",60386.0,41.746970000000005,-71.465506,922140.0,RI,44.0,44007.0,Providence County,440070142002.0
40565,sg:5d1c4f981eba43bb9fe9fcff57ba49c3,Newport National Golf Club,RI,2019-02-01T00:00:00-05:00,2019-03-01T00:00:00-05:00,2842,121,62.0,"{""<5"":4,""5-20"":32,""21-60"":23,""61-240"":40,"">240"":22}",12641.5,41.530349,-71.254013,713910.0,RI,44.0,44005.0,Newport County,440050401022.0
40681,sg:696ccc39c669487d80a5abf991e38418,Sunoco,RI,2019-02-01T00:00:00-05:00,2019-03-01T00:00:00-05:00,2865,214,8.0,"{""<5"":24,""5-20"":139,""21-60"":15,""61-240"":22,"">240"":14}",9076.0,41.935658000000004,-71.472155,447110.0,RI,44.0,44007.0,Providence County,440070116004.0
41007,sg:88b559a7e16f4601acaf71e6c958ff5e,G & L Insurance Assoc,RI,2019-02-01T00:00:00-05:00,2019-03-01T00:00:00-05:00,2904,32,117.5,"{""<5"":1,""5-20"":5,""21-60"":5,""61-240"":15,"">240"":6}",3965.0,41.864020000000004,-71.423362,524210.0,RI,44.0,44007.0,Providence County,440070118002.0
41124,sg:954589b94a954e68848b2995fc6c9473,Grace Umc,RI,2019-02-01T00:00:00-05:00,2019-03-01T00:00:00-05:00,2891,134,64.0,"{""<5"":4,""5-20"":30,""21-60"":27,""61-240"":49,"">240"":24}",14613.0,41.378609000000004,-71.82423299999999,813110.0,RI,44.0,44009.0,Washington County,440090508014.0
41158,sg:980880eca3b04bd1a95c3b0b4deb1bf5,Dairy Mart,RI,2019-02-01T00:00:00-05:00,2019-03-01T00:00:00-05:00,2814,10,29.0,"{""<5"":0,""5-20"":5,""21-60"":1,""61-240"":0,"">240"":4}",1063.0,41.920434,-71.670427,447110.0,RI,44.0,44007.0,Providence County,440070131022.0
41390,sg:af04e0cd6bb549fea43b1b1f0168af85,Ralph's Installations,RI,2019-02-01T00:00:00-05:00,2019-03-01T00:00:00-05:00,2905,250,30.5,"{""<5"":3,""5-20"":95,""21-60"":69,""61-240"":61,"">240"":22}",18450.0,41.78999,-71.405458,443142.0,RI,44.0,44007.0,Providence County,440070001023.0
41986,sg:e50c0a31d86e4322999d8801981d92da,Blossom's Design Bouquet,RI,2019-02-01T00:00:00-05:00,2019-03-01T00:00:00-05:00,2860,12,13.5,"{""<5"":0,""5-20"":10,""21-60"":1,""61-240"":0,"">240"":1}",405.5,41.863415,-71.412247,453110.0,RI,44.0,44007.0,Providence County,440070163001.0
42550,sg:1ae919faac3749e3a426417ecf5f03c9,Public Storage,RI,2019-02-01T00:00:00-05:00,2019-03-01T00:00:00-05:00,2904,5,7.0,"{""<5"":1,""5-20"":4,""21-60"":0,""61-240"":0,"">240"":0}",52.5,41.865525,-71.428914,531130.0,RI,44.0,44007.0,Providence County,440070118003.0
42623,sg:2242cc9d0cc1477c8ef0b32dd3fb9bd2,Universal Cuts,RI,2019-02-01T00:00:00-05:00,2019-03-01T00:00:00-05:00,2895,98,25.0,"{""<5"":0,""5-20"":43,""21-60"":22,""61-240"":19,"">240"":14}",7648.0,42.013098,-71.51407900000001,812112.0,RI,44.0,44007.0,Providence County,440070173002.0
42662,sg:2508c396e2884461b0f113ea9cb460aa,Great Swamp Management Area,RI,2019-02-01T00:00:00-05:00,2019-03-01T00:00:00-05:00,2892,215,11.0,"{""<5"":11,""5-20"":129,""21-60"":54,""61-240"":17,"">240"":4}",7345.5,41.482682000000004,-71.551524,712190.0,RI,44.0,44009.0,Washington County,440090513061.0
43062,sg:4aa0900445a54181b7873733ff40b449,West Shore Collision,RI,2019-02-01T00:00:00-05:00,2019-03-01T00:00:00-05:00,2889,55,23.0,"{""<5"":3,""5-20"":24,""21-60"":9,""61-240"":10,"">240"":9}",4337.0,41.700859,-71.400438,811121.0,RI,44.0,44003.0,Kent County,440030217004.0
43127,sg:513953b11fea432bb96aba1bf3d00db3,Woodbury Union Church Presbyterian,RI,2019-02-01T00:00:00-05:00,2019-03-01T00:00:00-05:00,2886,4,9.5,"{""<5"":0,""5-20"":4,""21-60"":0,""61-240"":0,"">240"":0}",50.0,41.70554,-71.417858,813110.0,RI,44.0,44003.0,Kent County,440030219031.0
43151,sg:53c45d0d35e14157bf2bc14926cd9201,Bright Start Academy,RI,2019-02-01T00:00:00-05:00,2019-03-01T00:00:00-05:00,2828,26,138.5,"{""<5"":0,""5-20"":6,""21-60"":4,""61-240"":4,"">240"":12}",3719.0,41.876553,-71.56899399999999,624410.0,RI,44.0,44007.0,Providence County,440070127022.0
43867,sg:9379d5c9b3f3427ab43b1cd1ede4efce,Ronzio Pizza & Subs,RI,2019-02-01T00:00:00-05:00,2019-03-01T00:00:00-05:00,2920,91,38.0,"{""<5"":2,""5-20"":32,""21-60"":19,""61-240"":33,"">240"":5}",7341.0,41.782721,-71.463687,722511.0,RI,44.0,44007.0,Providence County,440070145023.0
44117,sg:aaeaa996c26141aebb6f49184d3df849,Hoskins Park,RI,2019-02-01T00:00:00-05:00,2019-03-01T00:00:00-05:00,2903,69,10.0,"{""<5"":3,""5-20"":41,""21-60"":12,""61-240"":7,"">240"":6}",3499.5,41.590501,-71.44469000000001,712190.0,RI,44.0,44009.0,Washington County,440090501021.0
44222,sg:b47e0cc957994282a3fb25764fd9a24a,Emerald Auto,RI,2019-02-01T00:00:00-05:00,2019-03-01T00:00:00-05:00,2809,7,58.0,"{""<5"":0,""5-20"":2,""21-60"":2,""61-240"":3,"">240"":0}",557.5,41.691745000000004,-71.265096,811111.0,RI,44.0,44001.0,Bristol County,440010309024.0
45111,sg:0f89b41829c441f394ae8291acd05020,R & S Speed Shop,RI,2019-02-01T00:00:00-05:00,2019-03-01T00:00:00-05:00,2871,4,607.0,"{""<5"":0,""5-20"":1,""21-60"":1,""61-240"":0,"">240"":2}",533.0,41.613479,-71.245778,811111.0,RI,44.0,44005.0,Newport County,440050401023.0
45184,sg:16872c1e729549dcb19703c345a3b554,Miracle-Ear,RI,2019-02-01T00:00:00-05:00,2019-03-01T00:00:00-05:00,2891,119,25.0,"{""<5"":3,""5-20"":44,""21-60"":42,""61-240"":26,"">240"":4}",7131.5,41.373127000000004,-71.820836,446199.0,RI,44.0,44009.0,Washington County,440090508013.0
45417,sg:29e3c97a95c347328bc743cc050a2494,CrossFit,RI,2019-02-01T00:00:00-05:00,2019-03-01T00:00:00-05:00,2860,83,41.0,"{""<5"":1,""5-20"":28,""21-60"":24,""61-240"":25,"">240"":5}",6287.0,41.863176,-71.412429,713940.0,RI,44.0,44007.0,Providence County,440070163001.0
45543,sg:361233e5c29a4c5fa476d62710f1e93e,Rocky Brook Orchard,RI,2019-02-01T00:00:00-05:00,2019-03-01T00:00:00-05:00,2842,11,57.0,"{""<5"":0,""5-20"":3,""21-60"":3,""61-240"":1,"">240"":4}",1269.5,41.524784999999994,-71.247291,445230.0,RI,44.0,44005.0,Newport County,440050401022.0
45896,sg:56c3d930ef77436e8224e092f5de4a0b,Le Foot Reflexology,RI,2019-02-01T00:00:00-05:00,2019-03-01T00:00:00-05:00,2907,26,90.5,"{""<5"":0,""5-20"":0,""21-60"":5,""61-240"":18,"">240"":3}",3631.5,41.814931,-71.421817,812199.0,RI,44.0,44007.0,Providence County,440070012001.0
46030,sg:6423667c149245d78317bae49046f691,Emma G Whiteknact School,RI,2019-02-01T00:00:00-05:00,2019-03-01T00:00:00-05:00,2914,147,115.0,"{""<5"":3,""5-20"":32,""21-60"":25,""61-240"":29,"">240"":58}",19704.5,41.815638,-71.364806,611110.0,RI,44.0,44007.0,Providence County,440070103003.0
46163,sg:71b2879493b44e75ae249d41fc69125f,CVS,RI,2019-02-01T00:00:00-05:00,2019-03-01T00:00:00-05:00,2906,10,15.5,"{""<5"":0,""5-20"":7,""21-60"":3,""61-240"":0,"">240"":0}",209.0,41.829828000000006,-71.38865200000001,446110.0,RI,44.0,44007.0,Providence County,440070035003.0
46193,sg:74647ab99eae44938cebe277d567dc32,Greater Ri Baptist Temple,RI,2019-02-01T00:00:00-05:00,2019-03-01T00:00:00-05:00,2919,140,71.0,"{""<5"":0,""5-20"":26,""21-60"":31,""61-240"":81,"">240"":2}",14251.0,41.852579,-71.512929,813110.0,RI,44.0,44007.0,Providence County,440070123003.0
46294,sg:7cfe609ea8934f56b73475a0ab7ccc44,Rhea's Inn by the Sea,RI,2019-02-01T00:00:00-05:00,2019-03-01T00:00:00-05:00,2842,85,75.0,"{""<5"":2,""5-20"":18,""21-60"":18,""61-240"":38,"">240"":9}",8838.0,41.490753999999995,-71.284154,721110.0,RI,44.0,44005.0,Newport County,440050404003.0
46565,sg:9974479c3a8d4b27a57d4c463d11056a,Pezza Orthodontics,RI,2019-02-01T00:00:00-05:00,2019-03-01T00:00:00-05:00,2920,115,245.0,"{""<5"":1,""5-20"":8,""21-60"":28,""61-240"":19,"">240"":59}",18256.0,41.751159,-71.451205,621210.0,RI,44.0,44007.0,Providence County,440070139003.0
46586,sg:9bf34d0dbfea436ab2ff00abd98d40fe,Alpine Ski and Snowboard,RI,2019-02-01T00:00:00-05:00,2019-03-01T00:00:00-05:00,2888,57,14.0,"{""<5"":0,""5-20"":33,""21-60"":16,""61-240"":6,"">240"":2}",2443.5,41.75241,-71.438211,339920.0,RI,44.0,44003.0,Kent County,440030211002.0
46607,sg:9da8bbb6638b401ca97611a85d29a923,Avenue N,RI,2019-02-01T00:00:00-05:00,2019-03-01T00:00:00-05:00,2916,490,33.5,"{""<5"":9,""5-20"":175,""21-60"":132,""61-240"":123,"">240"":51}",38307.5,41.840126,-71.35435799999999,722511.0,RI,44.0,44007.0,Providence County,440070101024.0
46965,sg:bfceaf987a674f6c98bad2232e1345ee,The Salon&Barber Shop,RI,2019-02-01T00:00:00-05:00,2019-03-01T00:00:00-05:00,2842,136,30.0,"{""<5"":6,""5-20"":44,""21-60"":43,""61-240"":19,"">240"":24}",10926.0,41.544432,-71.292839,812112.0,RI,44.0,44005.0,Newport County,440050403032.0
47494,sg:f4af597efcc04a3b89aef5b710e67b9d,44 Auto Mall,RI,2019-02-01T00:00:00-05:00,2019-03-01T00:00:00-05:00,2917,17,53.0,"{""<5"":0,""5-20"":5,""21-60"":4,""61-240"":6,"">240"":2}",1607.5,41.868491999999996,-71.508834,,RI,44.0,44007.0,Providence County,440070126023.0
48554,sg:5567644fd0a740cabc2f2b1763ec7cd6,Greenwood Inn,RI,2019-02-01T00:00:00-05:00,2019-03-01T00:00:00-05:00,2886,413,56.0,"{""<5"":13,""5-20"":76,""21-60"":137,""61-240"":167,"">240"":20}",36464.5,41.711797999999995,-71.448298,722511.0,RI,44.0,44003.0,Kent County,440030221001.0
49075,sg:878a33e584fd471f8a6d2c3fd44ae5f9,Sakonnet River Outfitters,RI,2019-02-01T00:00:00-05:00,2019-03-01T00:00:00-05:00,2878,106,46.0,"{""<5"":1,""5-20"":31,""21-60"":28,""61-240"":22,"">240"":24}",10595.0,41.653938000000004,-71.197939,451110.0,RI,44.0,44005.0,Newport County,440050416022.0
49144,sg:8f16de60442e42da92df41cf64957996,Time For You Studio,RI,2019-02-01T00:00:00-05:00,2019-03-01T00:00:00-05:00,2889,53,125.0,"{""<5"":0,""5-20"":3,""21-60"":15,""61-240"":19,"">240"":16}",7344.5,41.723893,-71.407143,812199.0,RI,44.0,44003.0,Kent County,440030214012.0
50001,sg:e881a7e6dbe642f68d0ba4c9a857319a,Pizza Hut,RI,2019-02-01T00:00:00-05:00,2019-03-01T00:00:00-05:00,2809,71,18.0,"{""<5"":3,""5-20"":35,""21-60"":17,""61-240"":10,"">240"":6}",4078.5,41.677494,-71.260355,722513.0,RI,44.0,44001.0,Bristol County,440010308001.0
50137,sg:f5e9bf066f8c49e8a027a83bcc6594dc,Envisions Eye Care,RI,2019-02-01T00:00:00-05:00,2019-03-01T00:00:00-05:00,2893,142,46.5,"{""<5"":0,""5-20"":38,""21-60"":54,""61-240"":30,"">240"":20}",11977.0,41.685198,-71.50308299999999,446130.0,RI,44.0,44003.0,Kent County,440030201021.0
50291,sg:03c107c566164317bd8c42d0de54235d,T L C Day Care Center,RI,2019-02-01T00:00:00-05:00,2019-03-01T00:00:00-05:00,2861,1,4.0,"{""<5"":1,""5-20"":0,""21-60"":0,""61-240"":0,"">240"":0}",2.5,41.871759000000004,-71.35464,624410.0,RI,44.0,44007.0,Providence County,440070168002.0
50306,sg:056854c9540b4dff975f826db1298198,Leverage,RI,2019-02-01T00:00:00-05:00,2019-03-01T00:00:00-05:00,2906,13,100.0,"{""<5"":1,""5-20"":5,""21-60"":0,""61-240"":3,"">240"":4}",1476.5,41.832440000000005,-71.40015799999999,812199.0,RI,44.0,44007.0,Providence County,440070036011.0
50784,sg:2fdc236d6f7f42929c8b001b61b5a22c,First Baptist Church of Narr,RI,2019-02-01T00:00:00-05:00,2019-03-01T00:00:00-05:00,2882,5,5.0,"{""<5"":1,""5-20"":3,""21-60"":0,""61-240"":1,"">240"":0}",190.5,41.435165999999995,-71.477355,813110.0,RI,44.0,44009.0,Washington County,440090515031.0
51134,sg:509633c86beb45259e40bb585fa84da4,Catanzaro's Pizzeria Cranston,RI,2019-02-01T00:00:00-05:00,2019-03-01T00:00:00-05:00,2910,189,30.0,"{""<5"":3,""5-20"":67,""21-60"":67,""61-240"":38,"">240"":14}",12637.5,41.784776,-71.455087,722511.0,RI,44.0,44007.0,Providence County,440070147003.0
51244,sg:5b26f22ecc424fdb81368e86816a3789,CJ's Tire & Auto Service,RI,2019-02-01T00:00:00-05:00,2019-03-01T00:00:00-05:00,2840,20,18.5,"{""<5"":0,""5-20"":11,""21-60"":1,""61-240"":6,"">240"":2}",1561.0,41.504675,-71.31797399999999,441310.0,RI,44.0,44005.0,Newport County,440050405002.0
51286,sg:5f2640bbe9a445b4851271a4d8d756c2,Nautilus Goat Island Solar CSG LLC,RI,2019-02-01T00:00:00-05:00,2019-03-01T00:00:00-05:00,2839,33,79.0,"{""<5"":2,""5-20"":8,""21-60"":5,""61-240"":7,"">240"":11}",4001.0,41.945899,-71.65750899999999,221114.0,RI,44.0,44007.0,Providence County,440070130023.0
51709,sg:8858fd9ec8484292bd6f3ab616ec8ed9,Cobblestones Wood Fired Pizza,RI,2019-02-01T00:00:00-05:00,2019-03-01T00:00:00-05:00,2818,62,9.0,"{""<5"":7,""5-20"":32,""21-60"":16,""61-240"":6,"">240"":1}",2208.5,41.642235,-71.46728399999999,722511.0,RI,44.0,44003.0,Kent County,440030209042.0
52267,sg:ba26110f56ae449092542e0ccf491365,Envoy Mortgage Warwick II,RI,2019-02-01T00:00:00-05:00,2019-03-01T00:00:00-05:00,2886,2,146.5,"{""<5"":0,""5-20"":0,""21-60"":0,""61-240"":2,"">240"":0}",301.0,41.69787,-71.479364,522110.0,RI,44.0,44003.0,Kent County,440030222021.0
52313,sg:bd7ba2514e774447bae7124cbd26c373,China Sea,RI,2019-02-01T00:00:00-05:00,2019-03-01T00:00:00-05:00,2888,27,21.0,"{""<5"":0,""5-20"":13,""21-60"":10,""61-240"":4,"">240"":0}",1169.5,41.744844,-71.42779399999999,722511.0,RI,44.0,44003.0,Kent County,440030211003.0
52432,sg:ca535e96fdff4b248446e2941bbc850f,Diego's,RI,2019-02-01T00:00:00-05:00,2019-03-01T00:00:00-05:00,2840,233,69.0,"{""<5"":1,""5-20"":40,""21-60"":59,""61-240"":106,"">240"":27}",25325.0,41.486476,-71.31586800000001,722511.0,RI,44.0,44005.0,Newport County,440050410001.0
52588,sg:d7f93b124d1640699caf117e33d31451,Navigant Credit Union,RI,2019-02-01T00:00:00-05:00,2019-03-01T00:00:00-05:00,2917,294,99.5,"{""<5"":8,""5-20"":103,""21-60"":25,""61-240"":56,"">240"":102}",35228.0,41.918401,-71.520186,522110.0,RI,44.0,44007.0,Providence County,440070126011.0
52997,sg:00d7982c582f47f5ab175951fe7f7873,WED Kingstown Solar I East Array,RI,2019-02-01T00:00:00-05:00,2019-03-01T00:00:00-05:00,2892,50,98.5,"{""<5"":0,""5-20"":4,""21-60"":11,""61-240"":27,"">240"":8}",6479.0,41.498897,-71.586685,221114.0,RI,44.0,44009.0,Washington County,440090513061.0
53043,sg:054052dc202c4375ba906f5cd21dbd03,Heliblock,RI,2019-02-01T00:00:00-05:00,2019-03-01T00:00:00-05:00,2891,56,26.5,"{""<5"":1,""5-20"":21,""21-60"":12,""61-240"":16,"">240"":6}",4599.0,41.346835999999996,-71.80371099999999,512131.0,RI,44.0,44009.0,Washington County,440090509023.0
53112,sg:0ae08af78998440a9d5afd2c5ed8281f,Ouellette Tom,RI,2019-02-01T00:00:00-05:00,2019-03-01T00:00:00-05:00,2878,3,18.0,"{""<5"":0,""5-20"":2,""21-60"":1,""61-240"":0,"">240"":0}",65.5,41.627582000000004,-71.145288,445110.0,RI,44.0,44005.0,Newport County,440050417011.0
53162,sg:0f0cddac3fbc45ec83f4238b0fc1dbdd,Brass Attack,RI,2019-02-01T00:00:00-05:00,2019-03-01T00:00:00-05:00,2909,407,89.0,"{""<5"":12,""5-20"":106,""21-60"":52,""61-240"":101,"">240"":136}",51301.5,41.813417,-71.454822,451140.0,RI,44.0,44007.0,Providence County,440070016007.0
53167,sg:0f4cdb570c1c48de8c0ae1a4f24a98a7,Sean P Durkin Ameriprise Financial Services,RI,2019-02-01T00:00:00-05:00,2019-03-01T00:00:00-05:00,2888,49,44.0,"{""<5"":1,""5-20"":19,""21-60"":6,""61-240"":4,"">240"":19}",5645.0,41.740165000000005,-71.438237,523930.0,RI,44.0,44003.0,Kent County,440030211004.0
53860,sg:5392519643e448d79f85b6813dc30fb9,True Value Hardware,RI,2019-02-01T00:00:00-05:00,2019-03-01T00:00:00-05:00,2835,15,16.0,"{""<5"":0,""5-20"":8,""21-60"":6,""61-240"":0,"">240"":1}",583.0,41.496145,-71.36766800000001,444130.0,RI,44.0,44005.0,Newport County,440050413005.0
54403,sg:850deb5ba44242a3b9f94001e6309139,Sakonnet Golf Club,RI,2019-02-01T00:00:00-05:00,2019-03-01T00:00:00-05:00,2837,17,304.0,"{""<5"":0,""5-20"":2,""21-60"":0,""61-240"":4,"">240"":11}",3267.0,41.470508,-71.18589300000001,713940.0,RI,44.0,44005.0,Newport County,440050414001.0
54695,sg:a007e3f33f8c45f1a31729d0038f3f8e,Soleful Beginnings,RI,2019-02-01T00:00:00-05:00,2019-03-01T00:00:00-05:00,2915,3,81.0,"{""<5"":0,""5-20"":0,""21-60"":0,""61-240"":2,"">240"":1}",541.0,41.795963,-71.354865,812199.0,RI,44.0,44007.0,Providence County,440070105023.0
54782,sg:a7e1c2abdef84415a0740b1d5873ada5,Great Taste,RI,2019-02-01T00:00:00-05:00,2019-03-01T00:00:00-05:00,2861,144,19.5,"{""<5"":8,""5-20"":65,""21-60"":24,""61-240"":15,"">240"":32}",11742.0,41.879227,-71.354513,722511.0,RI,44.0,44007.0,Providence County,440070159002.0
54851,sg:afb2d89e4986449b876f391b22ffe52f,Conservatory At Wheeler,RI,2019-02-01T00:00:00-05:00,2019-03-01T00:00:00-05:00,2906,5,438.0,"{""<5"":0,""5-20"":0,""21-60"":0,""61-240"":0,"">240"":5}",1200.0,41.829007,-71.39831099999999,611310.0,RI,44.0,44007.0,Providence County,440070036011.0
54869,sg:b17ad92a17564caf99585d3dd592b4cb,Washington County Fair,RI,2019-02-01T00:00:00-05:00,2019-03-01T00:00:00-05:00,2812,5,24.0,"{""<5"":0,""5-20"":1,""21-60"":4,""61-240"":0,"">240"":0}",174.5,41.491002,-71.656725,339950.0,RI,44.0,44009.0,Washington County,440090506003.0
54923,sg:b66ee37c921c4babbade7535ca1f359b,Posillipo Ristorante,RI,2019-02-01T00:00:00-05:00,2019-03-01T00:00:00-05:00,2911,143,65.0,"{""<5"":1,""5-20"":29,""21-60"":36,""61-240"":43,"">240"":34}",16454.5,41.862763,-71.487581,722511.0,RI,44.0,44007.0,Providence County,440070121042.0
55753,sg:0af101beab5d431b9cce0f877593f41c,Healthy Babies Happy Moms,RI,2019-02-01T00:00:00-05:00,2019-03-01T00:00:00-05:00,2818,2,533.0,"{""<5"":0,""5-20"":0,""21-60"":0,""61-240"":0,"">240"":2}",480.0,41.667728000000004,-71.448867,621410.0,RI,44.0,44003.0,Kent County,440030220003.0
56003,sg:21346a1b36a54cabbbf247e9f1f91f0b,OpTac International Inc,RI,2019-02-01T00:00:00-05:00,2019-03-01T00:00:00-05:00,2886,49,37.0,"{""<5"":2,""5-20"":18,""21-60"":12,""61-240"":16,"">240"":1}",3364.0,41.713334,-71.450681,452319.0,RI,44.0,44003.0,Kent County,440030221001.0
56833,sg:7061b671a0ab478199ac98f364de7e6e,Wide World of Indoor Sports,RI,2019-02-01T00:00:00-05:00,2019-03-01T00:00:00-05:00,2852,86,69.0,"{""<5"":0,""5-20"":29,""21-60"":13,""61-240"":36,"">240"":8}",8227.0,41.608065,-71.44143299999999,722511.0,RI,44.0,44009.0,Washington County,440090501032.0
56955,sg:7bcafffb0dfa4f58b38e5d80ca1465d2,CITGO,RI,2019-02-01T00:00:00-05:00,2019-03-01T00:00:00-05:00,2828,115,8.0,"{""<5"":7,""5-20"":86,""21-60"":13,""61-240"":4,"">240"":5}",3421.0,41.871757,-71.531512,447110.0,RI,44.0,44007.0,Providence County,440070127023.0
57453,sg:aba4dcd14101437eac67e02122a7127d,Far West,RI,2019-02-01T00:00:00-05:00,2019-03-01T00:00:00-05:00,2907,56,77.5,"{""<5"":0,""5-20"":10,""21-60"":14,""61-240"":21,"">240"":11}",6492.5,41.809064,-71.426459,722511.0,RI,44.0,44007.0,Providence County,440070012003.0
57489,sg:b0966daa84384dbb8edef432d21e403c,Magic Screen Printing,RI,2019-02-01T00:00:00-05:00,2019-03-01T00:00:00-05:00,2860,66,166.0,"{""<5"":1,""5-20"":7,""21-60"":11,""61-240"":35,"">240"":12}",8683.0,41.861945,-71.401618,453220.0,RI,44.0,44007.0,Providence County,440070164003.0
58496,sg:128fb64127474265868e4016f7b9ce62,Seven Stars Bakery,RI,2019-02-01T00:00:00-05:00,2019-03-01T00:00:00-05:00,2909,294,35.0,"{""<5"":7,""5-20"":94,""21-60"":110,""61-240"":61,"">240"":22}",20108.0,41.819689000000004,-71.429061,722515.0,RI,44.0,44007.0,Providence County,440070011003.0
59104,sg:4879415f1f754ec99f3c2cf61feab547,CITGO,RI,2019-02-01T00:00:00-05:00,2019-03-01T00:00:00-05:00,2919,70,7.0,"{""<5"":5,""5-20"":49,""21-60"":4,""61-240"":7,"">240"":5}",3040.5,41.846628,-71.500525,447110.0,RI,44.0,44007.0,Providence County,440070123002.0
59443,sg:692ba42cd3934cf9be44a1611a938701,WeWe Fried Chicken & Subs,RI,2019-02-01T00:00:00-05:00,2019-03-01T00:00:00-05:00,2908,194,62.0,"{""<5"":6,""5-20"":68,""21-60"":21,""61-240"":45,"">240"":54}",21448.0,41.831058,-71.428554,722511.0,RI,44.0,44007.0,Providence County,440070025002.0
59449,sg:69b9e47abf334b9490cfccafc98d7d2f,Tumblesalts Cafe,RI,2019-02-01T00:00:00-05:00,2019-03-01T00:00:00-05:00,2911,144,67.0,"{""<5"":3,""5-20"":32,""21-60"":30,""61-240"":66,"">240"":13}",14675.5,41.858721,-71.482225,722511.0,RI,44.0,44007.0,Providence County,440070121043.0
59590,sg:76df0ea792534721985ea40567620daf,High Point Salon & Spa,RI,2019-02-01T00:00:00-05:00,2019-03-01T00:00:00-05:00,2871,41,209.0,"{""<5"":0,""5-20"":0,""21-60"":0,""61-240"":32,"">240"":9}",6976.0,41.597089000000004,-71.259676,812112.0,RI,44.0,44005.0,Newport County,440050401035.0
59817,sg:8d2a763dae3e45278d239296018774b0,Arlington Auto Body,RI,2019-02-01T00:00:00-05:00,2019-03-01T00:00:00-05:00,2920,188,87.5,"{""<5"":2,""5-20"":37,""21-60"":41,""61-240"":54,"">240"":54}",23215.0,41.79312,-71.451408,811121.0,RI,44.0,44007.0,Providence County,440070147002.0
59976,sg:9ca224baba00455280f698a7e2f66602,Lezaola Thompson Insurance,RI,2019-02-01T00:00:00-05:00,2019-03-01T00:00:00-05:00,2914,1,39.0,"{""<5"":0,""5-20"":0,""21-60"":1,""61-240"":0,"">240"":0}",40.5,41.799508,-71.363166,524210.0,RI,44.0,44007.0,Providence County,440070105022.0
60319,sg:bc0f8fb092dd42db885c89ea538ffdc4,Black Duck Tavern,RI,2019-02-01T00:00:00-05:00,2019-03-01T00:00:00-05:00,2914,152,99.0,"{""<5"":1,""5-20"":14,""21-60"":31,""61-240"":74,"">240"":32}",20250.0,41.817853,-71.383367,722511.0,RI,44.0,44007.0,Providence County,440070104004.0
60511,sg:cfbc7388dbe24d0c8088fdcaae64b23a,Cumberland Farms,RI,2019-02-01T00:00:00-05:00,2019-03-01T00:00:00-05:00,2919,697,7.0,"{""<5"":65,""5-20"":546,""21-60"":29,""61-240"":25,"">240"":32}",19604.5,41.833591999999996,-71.553732,447110.0,RI,44.0,44007.0,Providence County,440070122004.0
61390,sg:22d05e66e25b4e61aa5af0665623baa3,Classic Pizza,RI,2019-02-01T00:00:00-05:00,2019-03-01T00:00:00-05:00,2878,36,9.5,"{""<5"":2,""5-20"":23,""21-60"":9,""61-240"":2,"">240"":0}",958.0,41.659923,-71.190515,722511.0,RI,44.0,44005.0,Newport County,440050416022.0
61496,sg:2dfd000ba3ba48bd85a553b616333f84,Carpenter's Gulf Service Center,RI,2019-02-01T00:00:00-05:00,2019-03-01T00:00:00-05:00,2813,25,24.0,"{""<5"":1,""5-20"":10,""21-60"":6,""61-240"":4,"">240"":4}",1932.5,41.443457,-71.630149,447110.0,RI,44.0,44009.0,Washington County,440090511014.0
61710,sg:40829d62a42b42c98c79e40b497bed22,Splash of Lashes,RI,2019-02-01T00:00:00-05:00,2019-03-01T00:00:00-05:00,2904,3,137.0,"{""<5"":0,""5-20"":0,""21-60"":0,""61-240"":3,"">240"":0}",451.5,41.866945,-71.439095,812112.0,RI,44.0,44007.0,Providence County,440070118004.0
61769,sg:46b74702173c4af8930777dc17485661,T C S Fireworks,RI,2019-02-01T00:00:00-05:00,2019-03-01T00:00:00-05:00,2895,56,45.0,"{""<5"":1,""5-20"":19,""21-60"":12,""61-240"":20,"">240"":4}",4696.0,42.0043,-71.512964,448140.0,RI,44.0,44007.0,Providence County,440070180002.0
62065,sg:61b66246f740449190969de94dc76dd6,Dragon Palace,RI,2019-02-01T00:00:00-05:00,2019-03-01T00:00:00-05:00,2816,40,10.5,"{""<5"":4,""5-20"":21,""21-60"":0,""61-240"":2,"">240"":13}",3693.5,41.684692,-71.55346800000001,722511.0,RI,44.0,44003.0,Kent County,440030206021.0
62490,sg:88c2c3b9296d48e2bc4f5dc0a14e29fa,Gordon Gibson DC Easton Pond Chiropractic,RI,2019-02-01T00:00:00-05:00,2019-03-01T00:00:00-05:00,2842,21,53.0,"{""<5"":0,""5-20"":7,""21-60"":5,""61-240"":7,"">240"":2}",1823.5,41.49447,-71.284897,621310.0,RI,44.0,44005.0,Newport County,440050404002.0
62953,sg:b597d024732441218450f789c7747e2b,Latitude Yacht Brokerage,RI,2019-02-01T00:00:00-05:00,2019-03-01T00:00:00-05:00,2840,50,69.0,"{""<5"":1,""5-20"":16,""21-60"":6,""61-240"":18,"">240"":9}",5314.5,41.49292,-71.32053,441222.0,RI,44.0,44005.0,Newport County,440050411003.0
63163,sg:cd602f4a6a4a491dbedd379dc3a7cd90,The Flatts,RI,2019-02-01T00:00:00-05:00,2019-03-01T00:00:00-05:00,2879,121,41.0,"{""<5"":1,""5-20"":37,""21-60"":39,""61-240"":32,"">240"":12}",9740.5,41.45019,-71.50066600000001,722511.0,RI,44.0,44009.0,Washington County,440090512022.0
63337,sg:de516ac8f0884a21b1f25a2bf5827100,Ivy Tavern,RI,2019-02-01T00:00:00-05:00,2019-03-01T00:00:00-05:00,2906,101,50.0,"{""<5"":2,""5-20"":21,""21-60"":44,""61-240"":33,"">240"":1}",7256.0,41.847657,-71.395895,722511.0,RI,44.0,44007.0,Providence County,440070033003.0
64329,sg:3bc1867b1552409eb74805330bc50e71,Rotary Park,RI,2019-02-01T00:00:00-05:00,2019-03-01T00:00:00-05:00,2891,48,23.5,"{""<5"":1,""5-20"":19,""21-60"":17,""61-240"":7,"">240"":4}",2942.0,41.345616,-71.815198,712190.0,RI,44.0,44009.0,Washington County,440090508022.0
64464,sg:47675b94676941788f0f8504ac41bde0,The Break,RI,2019-02-01T00:00:00-05:00,2019-03-01T00:00:00-05:00,2882,81,103.0,"{""<5"":1,""5-20"":15,""21-60"":14,""61-240"":32,"">240"":19}",10133.0,41.374379,-71.48491700000001,721110.0,RI,44.0,44009.0,Washington County,440090515042.0
64737,sg:601d83b1b8a44d24823e87b3ed6062ae,New England Fashions,RI,2019-02-01T00:00:00-05:00,2019-03-01T00:00:00-05:00,2920,160,68.5,"{""<5"":2,""5-20"":33,""21-60"":29,""61-240"":78,"">240"":18}",17651.0,41.753401000000004,-71.44711099999999,448120.0,RI,44.0,44007.0,Providence County,440070139003.0
64762,sg:62ad66bf7e2248a4aacfc2f54879afca,Riverview Healthcare Community,RI,2019-02-01T00:00:00-05:00,2019-03-01T00:00:00-05:00,2816,343,126.0,"{""<5"":1,""5-20"":83,""21-60"":56,""61-240"":66,"">240"":137}",46121.0,41.727489,-71.53965600000001,623312.0,RI,44.0,44003.0,Kent County,440030206011.0
64814,sg:67eff25a0163489dac3466befa77a874,The Home Depot,RI,2019-02-01T00:00:00-05:00,2019-03-01T00:00:00-05:00,2917,759,19.0,"{""<5"":17,""5-20"":402,""21-60"":236,""61-240"":53,"">240"":51}",34842.0,41.874990999999994,-71.52081,444130.0,RI,44.0,44007.0,Providence County,440070126012.0
65198,sg:8e247645761f463183284bd6c32c11ec,The Juice Box,RI,2019-02-01T00:00:00-05:00,2019-03-01T00:00:00-05:00,2896,224,7.0,"{""<5"":25,""5-20"":179,""21-60"":12,""61-240"":2,"">240"":6}",4527.0,42.005373,-71.584542,444120.0,RI,44.0,44007.0,Providence County,440070128011.0
65710,sg:bea2ceea43d649c496dae937708d1dcd,Nacho Mamis Taco Shop,RI,2019-02-01T00:00:00-05:00,2019-03-01T00:00:00-05:00,2893,166,148.0,"{""<5"":2,""5-20"":35,""21-60"":22,""61-240"":53,"">240"":54}",22270.0,41.700917,-71.528494,722511.0,RI,44.0,44003.0,Kent County,440030203004.0
65872,sg:cfc1bda9e6204dc89c581679b823c88a,Lao Thai Cafe,RI,2019-02-01T00:00:00-05:00,2019-03-01T00:00:00-05:00,2895,13,6.0,"{""<5"":1,""5-20"":11,""21-60"":0,""61-240"":0,"">240"":1}",380.0,42.018253,-71.49805500000001,722511.0,MA,25.0,25021.0,Norfolk County,250214431025.0
65884,sg:d103c91fadd84a88bcd69c75bbe33603,Tilly's Cheesesteaks,RI,2019-02-01T00:00:00-05:00,2019-03-01T00:00:00-05:00,2892,153,21.0,"{""<5"":3,""5-20"":63,""21-60"":83,""61-240"":2,"">240"":2}",4937.5,41.485975,-71.563664,722511.0,RI,44.0,44009.0,Washington County,440090513061.0
66149,sg:ec34a7154ef843dba57d0f35abf5ab48,Cayala Bakery,RI,2019-02-01T00:00:00-05:00,2019-03-01T00:00:00-05:00,2920,147,10.0,"{""<5"":12,""5-20"":76,""21-60"":31,""61-240"":13,"">240"":15}",7792.0,41.803359,-71.457987,311811.0,RI,44.0,44007.0,Providence County,440070147001.0
66215,sg:f44df8df0bff452280e05fe28cb10c0a,Cowesett Pizza,RI,2019-02-01T00:00:00-05:00,2019-03-01T00:00:00-05:00,2893,12,19.5,"{""<5"":0,""5-20"":6,""21-60"":3,""61-240"":2,"">240"":1}",737.5,41.685251,-71.504202,722511.0,RI,44.0,44003.0,Kent County,440030201021.0
66816,sg:288a8d6e4fac4c8ab91ec837e23ed32c,Sprint,RI,2019-02-01T00:00:00-05:00,2019-03-01T00:00:00-05:00,2920,34,62.0,"{""<5"":0,""5-20"":10,""21-60"":7,""61-240"":15,"">240"":2}",3146.0,41.752077,-71.451991,517312.0,RI,44.0,44007.0,Providence County,440070142002.0
66941,sg:33b49f1d861f4a52b219981e8577edf2,Blue Plate Diner,RI,2019-02-01T00:00:00-05:00,2019-03-01T00:00:00-05:00,2842,168,39.0,"{""<5"":2,""5-20"":44,""21-60"":86,""61-240"":35,"">240"":1}",9545.5,41.520773999999996,-71.29889200000001,722511.0,RI,44.0,44005.0,Newport County,440050403042.0
67103,sg:42fb78165217486587f29e0c7793ec3e,Freeway Car Wash on Dexter St,RI,2019-02-01T00:00:00-05:00,2019-03-01T00:00:00-05:00,2860,2,355.5,"{""<5"":0,""5-20"":0,""21-60"":0,""61-240"":1,"">240"":1}",390.5,41.882065000000004,-71.392201,811192.0,RI,44.0,44007.0,Providence County,440070151001.0
67452,sg:62bd551c63a34bacb5523a0471911116,Black Point Fishing Area,RI,2019-02-01T00:00:00-05:00,2019-03-01T00:00:00-05:00,2882,14,11.5,"{""<5"":1,""5-20"":11,""21-60"":2,""61-240"":0,"">240"":0}",221.0,41.399939,-71.464688,441222.0,RI,44.0,44009.0,Washington County,440090515033.0
67653,sg:74c604e3da58475fb0bdcaf4e99c04bf,Snake Den State Park,RI,2019-02-01T00:00:00-05:00,2019-03-01T00:00:00-05:00,2919,58,48.0,"{""<5"":1,""5-20"":17,""21-60"":14,""61-240"":9,"">240"":17}",6216.5,41.830321000000005,-71.537277,712190.0,RI,44.0,44007.0,Providence County,440070122004.0
68768,sg:e3ee2b8eb5764401b015f544d72cf5cd,The Tackle Box,RI,2019-02-01T00:00:00-05:00,2019-03-01T00:00:00-05:00,2889,159,28.0,"{""<5"":4,""5-20"":64,""21-60"":35,""61-240"":46,"">240"":10}",11550.5,41.728357,-71.392442,451110.0,RI,44.0,44003.0,Kent County,440030214022.0
69240,sg:1451878c176e436a9b5e05052199984b,Petco,RI,2019-02-01T00:00:00-05:00,2019-03-01T00:00:00-05:00,2904,548,18.0,"{""<5"":14,""5-20"":299,""21-60"":126,""61-240"":71,"">240"":38}",28681.0,41.837684,-71.40852,453910.0,RI,44.0,44007.0,Providence County,440070031003.0
69305,sg:1b18ed9fd82a4197a5cd11478e2a6b49,West Warwick Cell,RI,2019-02-01T00:00:00-05:00,2019-03-01T00:00:00-05:00,2893,8,23.0,"{""<5"":0,""5-20"":4,""21-60"":2,""61-240"":2,"">240"":0}",432.0,41.707856,-71.53134,517312.0,RI,44.0,44003.0,Kent County,440030203003.0
69470,sg:2a1fa2dba1fc4329b11d2ef23729f4cf,The Men's Wearhouse,RI,2019-02-01T00:00:00-05:00,2019-03-01T00:00:00-05:00,2886,26,17.0,"{""<5"":1,""5-20"":13,""21-60"":8,""61-240"":2,"">240"":2}",1270.0,41.719437,-71.485587,448110.0,RI,44.0,44003.0,Kent County,440030223002.0
70503,sg:8eb6fe940208477485342f24356ae223,Catanzaro Food Products,RI,2019-02-01T00:00:00-05:00,2019-03-01T00:00:00-05:00,2860,78,50.5,"{""<5"":10,""5-20"":19,""21-60"":11,""61-240"":17,"">240"":21}",8306.5,41.867554999999996,-71.403133,445110.0,RI,44.0,44007.0,Providence County,440070163001.0
70641,sg:9c681f2ac24a4ece837f53d8ad2ba7f6,Abbe Lassow Ameriprise Financial Services,RI,2019-02-01T00:00:00-05:00,2019-03-01T00:00:00-05:00,2886,5,18.0,"{""<5"":0,""5-20"":3,""21-60"":1,""61-240"":1,"">240"":0}",228.5,41.725462,-71.45450699999999,523930.0,RI,44.0,44003.0,Kent County,440030221001.0
70930,sg:b999f350679645ee91b698ecfa84953e,White Horse Vapor,RI,2019-02-01T00:00:00-05:00,2019-03-01T00:00:00-05:00,2904,35,22.0,"{""<5"":1,""5-20"":14,""21-60"":6,""61-240"":12,"">240"":2}",2706.5,41.865765,-71.44480899999999,444120.0,RI,44.0,44007.0,Providence County,440070119023.0
71079,sg:c9c8a0a632e54652acf92e31b7469b2e,Acupuncture Integrative Body Therapy,RI,2019-02-01T00:00:00-05:00,2019-03-01T00:00:00-05:00,2852,66,186.5,"{""<5"":0,""5-20"":4,""21-60"":7,""61-240"":28,"">240"":27}",11027.5,41.560796,-71.44718,621111.0,RI,44.0,44009.0,Washington County,440090503021.0
71289,sg:de5da0bf57f34964aec40a65b04196da,Cumberland Hill Alphabest,RI,2019-02-01T00:00:00-05:00,2019-03-01T00:00:00-05:00,2864,153,14.0,"{""<5"":8,""5-20"":85,""21-60"":16,""61-240"":13,"">240"":31}",11127.0,41.975572,-71.459448,624410.0,RI,44.0,44007.0,Providence County,440070114033.0
71661,sg:03c596d51b5e4390acfe8ba121e9339a,Barrington Music,RI,2019-02-01T00:00:00-05:00,2019-03-01T00:00:00-05:00,2806,16,10.5,"{""<5"":0,""5-20"":10,""21-60"":4,""61-240"":2,"">240"":0}",588.0,41.752932,-71.295172,451140.0,RI,44.0,44001.0,Bristol County,440010303002.0
72024,sg:21951e25df004b199bdee851112096ac,Long Wharf General Store,RI,2019-02-01T00:00:00-05:00,2019-03-01T00:00:00-05:00,2840,213,22.0,"{""<5"":7,""5-20"":89,""21-60"":74,""61-240"":34,"">240"":9}",11404.0,41.490035999999996,-71.316335,453220.0,RI,44.0,44005.0,Newport County,440050411003.0
72035,sg:226ad1a6026e4140b5f916cb5b0b1268,Fred's Place,RI,2019-02-01T00:00:00-05:00,2019-03-01T00:00:00-05:00,2920,15,46.0,"{""<5"":0,""5-20"":5,""21-60"":3,""61-240"":3,"">240"":4}",1595.5,41.783569,-71.46491800000001,812112.0,RI,44.0,44007.0,Providence County,440070147005.0
72202,sg:325b33e1ec7949a79247fd1e52878b1e,Ocean State Credit Union,RI,2019-02-01T00:00:00-05:00,2019-03-01T00:00:00-05:00,2816,139,14.0,"{""<5"":10,""5-20"":73,""21-60"":31,""61-240"":10,"">240"":15}",7298.0,41.673959,-71.59350699999999,522110.0,RI,44.0,44003.0,Kent County,440030207032.0
72474,sg:49d51adceb354f26aceb830c81631eea,Allstate Insurance,RI,2019-02-01T00:00:00-05:00,2019-03-01T00:00:00-05:00,2904,16,44.0,"{""<5"":1,""5-20"":6,""21-60"":2,""61-240"":3,"">240"":4}",1570.0,41.869706,-71.42103,524210.0,RI,44.0,44007.0,Providence County,440070118001.0
72888,sg:71e9f4b421f94f7cb895a1c8b432c9a0,Adeline's Speakeasy Kitchen Bar,RI,2019-02-01T00:00:00-05:00,2019-03-01T00:00:00-05:00,2864,16,65.0,"{""<5"":0,""5-20"":0,""21-60"":7,""61-240"":8,"">240"":1}",1727.5,41.957378999999996,-71.443722,722511.0,RI,44.0,44007.0,Providence County,440070114034.0
73194,sg:8d3b8c91da9847b8b51885132e61c881,City Girl Cupcake,RI,2019-02-01T00:00:00-05:00,2019-03-01T00:00:00-05:00,2903,84,41.0,"{""<5"":0,""5-20"":30,""21-60"":19,""61-240"":15,"">240"":20}",8202.0,41.823274,-71.410945,311811.0,RI,44.0,44007.0,Providence County,440070008003.0
73365,sg:9c26a3f9c39f4481a47d9f194d83637e,147 Market And Deli,RI,2019-02-01T00:00:00-05:00,2019-03-01T00:00:00-05:00,2860,178,54.0,"{""<5"":9,""5-20"":49,""21-60"":32,""61-240"":45,"">240"":43}",19023.5,41.870746000000004,-71.378529,722511.0,RI,44.0,44007.0,Providence County,440070167002.0
73570,sg:b218858b97fa479094e08f063dee64de,The Charlestown Rathskeller,RI,2019-02-01T00:00:00-05:00,2019-03-01T00:00:00-05:00,2813,304,71.0,"{""<5"":1,""5-20"":53,""21-60"":70,""61-240"":145,"">240"":35}",33722.5,41.424076,-71.613175,722511.0,RI,44.0,44009.0,Washington County,440090511021.0
74032,sg:e3139e8498a84f13817eeba68a843544,Marcie's Pet Grooming,RI,2019-02-01T00:00:00-05:00,2019-03-01T00:00:00-05:00,2896,68,28.0,"{""<5"":0,""5-20"":31,""21-60"":19,""61-240"":16,"">240"":2}",4045.0,41.997706,-71.561952,812910.0,RI,44.0,44007.0,Providence County,440070128013.0
74152,sg:f02262ca908d4851966951842067c1b4,Village Collision Center,RI,2019-02-01T00:00:00-05:00,2019-03-01T00:00:00-05:00,2893,38,205.0,"{""<5"":3,""5-20"":8,""21-60"":4,""61-240"":12,"">240"":11}",4715.5,41.724552,-71.489756,811121.0,RI,44.0,44003.0,Kent County,440030205001.0
74163,sg:f12cf9a6ada848e79dc664614bec46bb,Supreme Cheese Pizzeria & Ristorante,RI,2019-02-01T00:00:00-05:00,2019-03-01T00:00:00-05:00,2891,171,22.0,"{""<5"":9,""5-20"":75,""21-60"":50,""61-240"":30,"">240"":7}",9180.0,41.368463,-71.819721,722511.0,RI,44.0,44009.0,Washington County,440090508021.0
74258,sg:facb2b40fcc248f18bc812d44137e4d4,The Mediator Fellowship,RI,2019-02-01T00:00:00-05:00,2019-03-01T00:00:00-05:00,2907,114,97.0,"{""<5"":1,""5-20"":30,""21-60"":17,""61-240"":29,"">240"":37}",14310.5,41.787516,-71.425111,813110.0,RI,44.0,44007.0,Providence County,440070015003.0
74506,sg:1079c093b18f4ef7beb7775a915950da,Li'l General,RI,2019-02-01T00:00:00-05:00,2019-03-01T00:00:00-05:00,2895,32,19.5,"{""<5"":1,""5-20"":16,""21-60"":9,""61-240"":5,"">240"":1}",1559.5,41.997388,-71.49068299999999,445110.0,RI,44.0,44007.0,Providence County,440070185003.0
74885,sg:32aa5359ad324be9989b919ea43aa772,Allstate Insurance,RI,2019-02-01T00:00:00-05:00,2019-03-01T00:00:00-05:00,2888,43,42.0,"{""<5"":5,""5-20"":9,""21-60"":13,""61-240"":8,"">240"":8}",3775.5,41.75215,-71.404486,524210.0,RI,44.0,44003.0,Kent County,440030212001.0
75025,sg:3e03aa22c67144e29ede86c5465a914b,Point Jude Boats,RI,2019-02-01T00:00:00-05:00,2019-03-01T00:00:00-05:00,2879,252,52.0,"{""<5"":2,""5-20"":64,""21-60"":71,""61-240"":67,"">240"":48}",25284.0,41.436710999999995,-71.50215,441222.0,RI,44.0,44009.0,Washington County,440090512023.0
75514,sg:6b550083c5794b9eb1f2e517fea1077b,D & H Therapy,RI,2019-02-01T00:00:00-05:00,2019-03-01T00:00:00-05:00,2828,10,14.0,"{""<5"":0,""5-20"":7,""21-60"":3,""61-240"":0,"">240"":0}",209.0,41.869894,-71.536167,621340.0,RI,44.0,44007.0,Providence County,440070127021.0
76492,sg:c5ed279a4b534a979737c0333d09a14f,United States Postal Service (USPS),RI,2019-02-01T00:00:00-05:00,2019-03-01T00:00:00-05:00,2813,16,5.0,"{""<5"":0,""5-20"":15,""21-60"":1,""61-240"":0,"">240"":0}",228.0,41.387387,-71.62360799999999,491110.0,RI,44.0,44009.0,Washington County,440090511021.0
76889,sg:eeb6ed7a40914d63b186fccf7220ebca,Shell Oil,RI,2019-02-01T00:00:00-05:00,2019-03-01T00:00:00-05:00,2914,193,6.0,"{""<5"":20,""5-20"":155,""21-60"":10,""61-240"":7,"">240"":1}",3686.0,41.815849,-71.356786,447110.0,RI,44.0,44007.0,Providence County,440070103003.0
77054,sg:feee1b5a4641419fa508388d4d9dd1b4,Genesis HealthCare,RI,2019-02-01T00:00:00-05:00,2019-03-01T00:00:00-05:00,2842,111,112.0,"{""<5"":2,""5-20"":19,""21-60"":17,""61-240"":37,"">240"":36}",15139.5,41.505476,-71.286197,621498.0,RI,44.0,44005.0,Newport County,440050404002.0
77448,sg:22192dcf4a5d4209b0b6a16d267bfa42,Pakarang Exquisite Thai Cuisine,RI,2019-02-01T00:00:00-05:00,2019-03-01T00:00:00-05:00,2903,124,197.5,"{""<5"":1,""5-20"":13,""21-60"":13,""61-240"":48,"">240"":49}",19675.5,41.821846,-71.40486,722511.0,RI,44.0,44007.0,Providence County,440070037002.0
77636,sg:33bdad952de84dbe839baf172a64590f,Alexanders Uniforms,RI,2019-02-01T00:00:00-05:00,2019-03-01T00:00:00-05:00,2920,82,34.0,"{""<5"":1,""5-20"":31,""21-60"":18,""61-240"":19,"">240"":13}",7098.5,41.756817,-71.447822,453310.0,RI,44.0,44007.0,Providence County,440070139003.0
79236,sg:d08693813dd74507a2970cfe3fc2d03b,WED Shun III LLC,RI,2019-02-01T00:00:00-05:00,2019-03-01T00:00:00-05:00,2919,3,5.0,"{""<5"":0,""5-20"":3,""21-60"":0,""61-240"":0,"">240"":0}",37.5,41.799061,-71.549306,221111.0,RI,44.0,44007.0,Providence County,440070122003.0
79252,sg:d1a85b39345c4b97aae9e404ea066520,Inferno Audio,RI,2019-02-01T00:00:00-05:00,2019-03-01T00:00:00-05:00,2895,143,11.0,"{""<5"":4,""5-20"":90,""21-60"":27,""61-240"":20,"">240"":2}",5718.5,42.005218,-71.51100799999999,443142.0,RI,44.0,44007.0,Providence County,440070180002.0
79470,sg:e5cd1a7ca470447dbda1fd9cf55d6232,J C's of Watch Hill,RI,2019-02-01T00:00:00-05:00,2019-03-01T00:00:00-05:00,2891,2,13.0,"{""<5"":0,""5-20"":1,""21-60"":1,""61-240"":0,"">240"":0}",53.0,41.310518,-71.857351,448140.0,RI,44.0,44009.0,Washington County,440090510001.0
80775,sg:614b6f15ca2f43098ca9e91f8336b528,Kearsarge SKSC2 LLC,RI,2019-02-01T00:00:00-05:00,2019-03-01T00:00:00-05:00,2892,215,37.0,"{""<5"":5,""5-20"":80,""21-60"":39,""61-240"":51,"">240"":40}",19867.5,41.491079,-71.536506,221112.0,RI,44.0,44009.0,Washington County,440090514001.0
81218,sg:8c4dea1c983d4896b9c82cf1fde80418,Taco Bell,RI,2019-02-01T00:00:00-05:00,2019-03-01T00:00:00-05:00,2861,70,14.5,"{""<5"":2,""5-20"":38,""21-60"":10,""61-240"":14,"">240"":6}",4432.0,41.860232,-71.352757,722513.0,,,,,
81739,sg:c16a69bdab344e64857121dbc2d14dab,C & L Agency Inc,RI,2019-02-01T00:00:00-05:00,2019-03-01T00:00:00-05:00,2907,5,285.0,"{""<5"":0,""5-20"":1,""21-60"":1,""61-240"":0,"">240"":3}",773.0,41.790226000000004,-71.428702,524210.0,RI,44.0,44007.0,Providence County,440070015002.0
81757,sg:c2f5f1958a0a43d395ae293cbeb39465,Once Upon A Time Academy Llc,RI,2019-02-01T00:00:00-05:00,2019-03-01T00:00:00-05:00,2911,91,116.0,"{""<5"":0,""5-20"":25,""21-60"":11,""61-240"":22,"">240"":33}",11989.0,41.859173999999996,-71.47565,624410.0,RI,44.0,44007.0,Providence County,440070121041.0
82096,sg:e4ae585fd17f4b4c9dc1668377d8d290,Koi Japanese Cuisine,RI,2019-02-01T00:00:00-05:00,2019-03-01T00:00:00-05:00,2891,89,81.0,"{""<5"":2,""5-20"":13,""21-60"":21,""61-240"":39,"">240"":14}",10247.5,41.379239,-71.82972600000001,722511.0,RI,44.0,44009.0,Washington County,440090508014.0
82258,sg:f56b990f4c0e4ab6a201e8de7e1077db,Seven Stars Bakery,RI,2019-02-01T00:00:00-05:00,2019-03-01T00:00:00-05:00,2906,313,20.0,"{""<5"":10,""5-20"":149,""21-60"":88,""61-240"":52,"">240"":14}",16637.5,41.849638,-71.395093,722515.0,RI,44.0,44007.0,Providence County,440070033002.0
82541,sg:0f385e35f5cb436d82fab1e9447868b6,Oil & Grease On Wheels,RI,2019-02-01T00:00:00-05:00,2019-03-01T00:00:00-05:00,2920,20,157.5,"{""<5"":1,""5-20"":5,""21-60"":1,""61-240"":10,"">240"":3}",2330.5,41.793833,-71.473946,811111.0,RI,44.0,44007.0,Providence County,440070148001.0
82625,sg:169dc0f200c846459177a2b3d0c91eee,Trinity Stained Glass & Windmill Studio,RI,2019-02-01T00:00:00-05:00,2019-03-01T00:00:00-05:00,2888,216,14.0,"{""<5"":10,""5-20"":118,""21-60"":45,""61-240"":26,"">240"":17}",11315.5,41.765173,-71.40476,451130.0,RI,44.0,44003.0,Kent County,440030210022.0
82851,sg:2bad69b8386b4b29a474cd3f5f028880,Aqua Blue Hotel,RI,2019-02-01T00:00:00-05:00,2019-03-01T00:00:00-05:00,2882,65,30.0,"{""<5"":5,""5-20"":25,""21-60"":7,""61-240"":8,"">240"":20}",6612.5,41.431309999999996,-71.458087,721110.0,RI,44.0,44009.0,Washington County,440090515032.0
84112,sg:a477e2cba2ae4dfcb3a1381f901728cf,Ernest Price Photography,RI,2019-02-01T00:00:00-05:00,2019-03-01T00:00:00-05:00,2916,4,42.5,"{""<5"":0,""5-20"":1,""21-60"":2,""61-240"":0,"">240"":1}",333.5,41.842726,-71.366123,541921.0,RI,44.0,44007.0,Providence County,440070101014.0
84203,sg:ade8762e74a941cf91d441843266a0df,LineSider Brewing Company,RI,2019-02-01T00:00:00-05:00,2019-03-01T00:00:00-05:00,2818,5,13.0,"{""<5"":0,""5-20"":3,""21-60"":0,""61-240"":0,"">240"":2}",517.5,41.656208,-71.498538,312120.0,RI,44.0,44003.0,Kent County,440030209031.0
84207,sg:ae77189b29194263b09556fbdcd6b76a,Providence Ctr Therapeutic Daycare,RI,2019-02-01T00:00:00-05:00,2019-03-01T00:00:00-05:00,2906,33,21.0,"{""<5"":0,""5-20"":16,""21-60"":9,""61-240"":5,"">240"":3}",2037.0,41.840794,-71.399529,624410.0,RI,44.0,44007.0,Providence County,440070031001.0
84709,sg:e13b65d57bd04a618fff9f17b6d75e15,Trinity Rep,RI,2019-02-01T00:00:00-05:00,2019-03-01T00:00:00-05:00,2903,117,160.0,"{""<5"":0,""5-20"":7,""21-60"":3,""61-240"":101,"">240"":6}",16849.5,41.82229,-71.41641899999999,512131.0,RI,44.0,44007.0,Providence County,440070008001.0
84856,sg:eea9e087449241a28f1a9c8dc83c8ec6,Narragansett Surf & Skate Shop,RI,2019-02-01T00:00:00-05:00,2019-03-01T00:00:00-05:00,2882,1,5.0,"{""<5"":0,""5-20"":1,""21-60"":0,""61-240"":0,"">240"":0}",12.5,41.433056,-71.462595,448140.0,RI,44.0,44009.0,Washington County,440090515032.0
84967,sg:fa1e79131185407face71c65829809ca,Advance Auto Parts,RI,2019-02-01T00:00:00-05:00,2019-03-01T00:00:00-05:00,2842,144,38.5,"{""<5"":6,""5-20"":45,""21-60"":35,""61-240"":24,"">240"":34}",13767.0,41.528226000000004,-71.295,441310.0,RI,44.0,44005.0,Newport County,440050403042.0
85119,sg:09bc374bfac745099fb6c7aa9ccc9469,Walgreens,RI,2019-02-01T00:00:00-05:00,2019-03-01T00:00:00-05:00,2904,185,13.0,"{""<5"":8,""5-20"":114,""21-60"":38,""61-240"":20,"">240"":5}",7194.0,41.851603999999995,-71.40247600000001,446110.0,RI,44.0,44007.0,Providence County,440070033004.0
85223,sg:133356006e9b4c978f83e21bc046a794,Frankie's Italian Bistro,RI,2019-02-01T00:00:00-05:00,2019-03-01T00:00:00-05:00,2852,106,17.0,"{""<5"":4,""5-20"":59,""21-60"":27,""61-240"":6,"">240"":10}",5144.0,41.583,-71.494853,722511.0,RI,44.0,44009.0,Washington County,440090503011.0
85864,sg:4ee03271c85842a4a9efa39d06a7550c,Hope High School,RI,2019-02-01T00:00:00-05:00,2019-03-01T00:00:00-05:00,2906,661,237.0,"{""<5"":5,""5-20"":74,""21-60"":76,""61-240"":178,"">240"":328}",109524.5,41.834749,-71.402716,611110.0,RI,44.0,44007.0,Providence County,440070036022.0
85934,sg:54b1fc699e0f4dbc8d655cedc17d693d,Domino's Pizza,RI,2019-02-01T00:00:00-05:00,2019-03-01T00:00:00-05:00,2919,55,15.0,"{""<5"":1,""5-20"":33,""21-60"":11,""61-240"":10,"">240"":0}",2365.5,41.820012,-71.470011,722513.0,RI,44.0,44007.0,Providence County,440070018001.0
86152,sg:6840ffb862954aaa88620dc325beca8f,Emmanuel Baptist Church,RI,2019-02-01T00:00:00-05:00,2019-03-01T00:00:00-05:00,2904,10,182.0,"{""<5"":0,""5-20"":1,""21-60"":2,""61-240"":3,"">240"":4}",1505.0,41.849610999999996,-71.419576,813110.0,RI,44.0,44007.0,Providence County,440070029004.0
86235,sg:70e51b06390a475d93abd14ba8ba58e7,Blue Moon Pub,RI,2019-02-01T00:00:00-05:00,2019-03-01T00:00:00-05:00,2920,87,41.0,"{""<5"":2,""5-20"":25,""21-60"":23,""61-240"":29,"">240"":8}",7533.5,41.781894,-71.466539,722511.0,RI,44.0,44007.0,Providence County,440070145023.0
87576,sg:f0dd7c8c6f164ba194ba94272e8f7aaa,Central Falls Free Public Library,RI,2019-02-01T00:00:00-05:00,2019-03-01T00:00:00-05:00,2863,147,139.0,"{""<5"":1,""5-20"":26,""21-60"":12,""61-240"":59,"">240"":49}",21453.0,41.885927,-71.387939,519120.0,RI,44.0,44007.0,Providence County,440070108002.0
88069,sg:1fab29a0afb441dc82f64e8924579a4f,Chennai Tiffins,RI,2019-02-01T00:00:00-05:00,2019-03-01T00:00:00-05:00,2838,8,758.0,"{""<5"":0,""5-20"":1,""21-60"":1,""61-240"":0,"">240"":6}",1493.0,41.966547,-71.47339699999999,722511.0,,,,,
88175,sg:28700f5a7fa243cca8f48702df995a96,Dels Lemonade of Warwick,RI,2019-02-01T00:00:00-05:00,2019-03-01T00:00:00-05:00,2889,51,35.0,"{""<5"":0,""5-20"":20,""21-60"":21,""61-240"":4,"">240"":6}",3142.5,41.720665000000004,-71.40339,445110.0,RI,44.0,44003.0,Kent County,440030214023.0
88346,sg:35ecfae01383459fb439ad3aab0fb7b4,Jenkins Melissa Psychologist,RI,2019-02-01T00:00:00-05:00,2019-03-01T00:00:00-05:00,2906,12,16.5,"{""<5"":0,""5-20"":7,""21-60"":4,""61-240"":1,"">240"":0}",400.0,41.846282,-71.385626,621330.0,RI,44.0,44007.0,Providence County,440070034002.0
88616,sg:4e600d8fbf4c4512a4f9d2a502a19118,Benvenuto Restaurant,RI,2019-02-01T00:00:00-05:00,2019-03-01T00:00:00-05:00,2920,190,52.5,"{""<5"":1,""5-20"":47,""21-60"":59,""61-240"":77,"">240"":6}",16008.0,41.780727,-71.466075,722511.0,RI,44.0,44007.0,Providence County,440070145023.0
88771,sg:5beb4e05387e4aa48439e674d8c23cbf,News Star,RI,2019-02-01T00:00:00-05:00,2019-03-01T00:00:00-05:00,2859,147,114.0,"{""<5"":4,""5-20"":37,""21-60"":19,""61-240"":42,"">240"":45}",18363.0,41.9588,-71.701714,722511.0,RI,44.0,44007.0,Providence County,440070129004.0
88817,sg:5f9a1cc2ee69488a98859e7d0e78f186,Supercuts,RI,2019-02-01T00:00:00-05:00,2019-03-01T00:00:00-05:00,2889,13,62.0,"{""<5"":0,""5-20"":3,""21-60"":3,""61-240"":4,"">240"":3}",1481.0,41.708104,-71.398938,812112.0,RI,44.0,44003.0,Kent County,440030218002.0
89028,sg:73fd5205b84a4eed9d45e2d4f3008403,Pizzeria Romana,RI,2019-02-01T00:00:00-05:00,2019-03-01T00:00:00-05:00,2865,361,30.0,"{""<5"":11,""5-20"":123,""21-60"":128,""61-240"":65,"">240"":34}",24691.5,41.933966,-71.47474,722511.0,RI,44.0,44007.0,Providence County,440070116004.0
89622,sg:aeeac08596814dcbacd92e6b163ffd59,Mario's Pizza,RI,2019-02-01T00:00:00-05:00,2019-03-01T00:00:00-05:00,2891,123,34.0,"{""<5"":1,""5-20"":49,""21-60"":30,""61-240"":18,"">240"":25}",10539.0,41.383187,-71.826262,722511.0,RI,44.0,44009.0,Washington County,440090508015.0
90171,sg:e5b5b7a809e9400982ed65a96f399aa5,Ocean State Job Lot,RI,2019-02-01T00:00:00-05:00,2019-03-01T00:00:00-05:00,2865,318,18.0,"{""<5"":15,""5-20"":161,""21-60"":107,""61-240"":31,"">240"":4}",12009.0,41.937628000000004,-71.477407,452319.0,RI,44.0,44007.0,Providence County,440070116004.0
90273,sg:eff54b8738af40dca40a6d7e4e5c1ca9,The Furniture Depots,RI,2019-02-01T00:00:00-05:00,2019-03-01T00:00:00-05:00,2909,100,16.5,"{""<5"":1,""5-20"":54,""21-60"":19,""61-240"":17,"">240"":9}",6165.5,41.817923,-71.446314,442110.0,RI,44.0,44007.0,Providence County,440070019003.0
90292,sg:f1d7dda04d5b4bbf9cc7e40666ae4449,L Skincare & Nails,RI,2019-02-01T00:00:00-05:00,2019-03-01T00:00:00-05:00,2910,37,47.0,"{""<5"":0,""5-20"":6,""21-60"":21,""61-240"":3,"">240"":7}",3057.0,41.774405,-71.449706,446120.0,RI,44.0,44007.0,Providence County,440070137022.0
90635,sg:160867d3b34b434e8afaec7efda37e3e,Melissa Barra Makeup,RI,2019-02-01T00:00:00-05:00,2019-03-01T00:00:00-05:00,2904,202,120.5,"{""<5"":1,""5-20"":25,""21-60"":46,""61-240"":58,"">240"":72}",28187.0,41.866214,-71.423548,446120.0,RI,44.0,44007.0,Providence County,440070118002.0
90777,sg:241e04cbe6824e2baa11245e822d8583,Avid Airline Products,RI,2019-02-01T00:00:00-05:00,2019-03-01T00:00:00-05:00,2842,147,218.0,"{""<5"":0,""5-20"":10,""21-60"":11,""61-240"":59,"">240"":67}",25530.0,41.504082000000004,-71.28556800000001,517312.0,RI,44.0,44005.0,Newport County,440050404002.0
91120,sg:4015ba84ac4e4e07924818e1a7b9faf7,New Garden Restaurant,RI,2019-02-01T00:00:00-05:00,2019-03-01T00:00:00-05:00,2909,268,19.0,"{""<5"":15,""5-20"":122,""21-60"":43,""61-240"":48,"">240"":40}",20128.0,41.825547,-71.454279,722511.0,RI,44.0,44007.0,Providence County,440070021022.0
92334,sg:b232b75c8beb4c18b92a3d177e31e2e6,American Diner Museum,RI,2019-02-01T00:00:00-05:00,2019-03-01T00:00:00-05:00,2865,12,9.5,"{""<5"":0,""5-20"":7,""21-60"":2,""61-240"":3,"">240"":0}",620.0,41.892315,-71.409391,712110.0,RI,44.0,44007.0,Providence County,440070117021.0
92929,sg:eca30284ff184f02b8d608eb326e2435,Kiki's Udderly Cool Ice Cream,RI,2019-02-01T00:00:00-05:00,2019-03-01T00:00:00-05:00,2822,1,1270.0,"{""<5"":0,""5-20"":0,""21-60"":0,""61-240"":0,"">240"":1}",240.0,41.52725,-71.552276,722515.0,RI,44.0,44009.0,Washington County,440090505003.0
94017,sg:4f90bfe6a8f04427ade24e29d68c8604,Sonoma Bistro and WineBar,RI,2019-02-01T00:00:00-05:00,2019-03-01T00:00:00-05:00,2852,267,64.0,"{""<5"":1,""5-20"":61,""21-60"":64,""61-240"":117,"">240"":24}",26725.5,41.597484,-71.454654,722511.0,RI,44.0,44009.0,Washington County,440090501021.0
94932,sg:a4cc1d6173c54fd0bc71bf06820770a3,Polishers & Jewelers Supply,RI,2019-02-01T00:00:00-05:00,2019-03-01T00:00:00-05:00,2909,36,19.5,"{""<5"":0,""5-20"":19,""21-60"":8,""61-240"":8,"">240"":1}",2005.5,41.824226,-71.439009,448310.0,RI,44.0,44007.0,Providence County,440070019001.0
95378,sg:d0963f9d27eb472bb478dc9b169f50ed,The Cafe,RI,2019-02-01T00:00:00-05:00,2019-03-01T00:00:00-05:00,2840,9,9.0,"{""<5"":0,""5-20"":6,""21-60"":0,""61-240"":1,"">240"":2}",705.5,41.484716999999996,-71.297783,722511.0,RI,44.0,44005.0,Newport County,440050408001.0
96083,sg:1224b74f4e094406b222271a7d714375,Yama Fuji,RI,2019-02-01T00:00:00-05:00,2019-03-01T00:00:00-05:00,2896,116,11.0,"{""<5"":5,""5-20"":77,""21-60"":14,""61-240"":17,"">240"":3}",4820.5,42.005354,-71.58488,722511.0,RI,44.0,44007.0,Providence County,440070128011.0
96130,sg:15f56c4585e6460ea01d2f1472656371,Vision Associates,RI,2019-02-01T00:00:00-05:00,2019-03-01T00:00:00-05:00,2920,57,20.0,"{""<5"":2,""5-20"":27,""21-60"":16,""61-240"":12,"">240"":0}",2796.5,41.767208000000004,-71.45796999999999,446130.0,RI,44.0,44007.0,Providence County,440070143001.0
96238,sg:1e92416e32464c78b3c9ac2914a617b2,University Otolaryngology,RI,2019-02-01T00:00:00-05:00,2019-03-01T00:00:00-05:00,2905,13,495.0,"{""<5"":0,""5-20"":2,""21-60"":0,""61-240"":0,"">240"":11}",2665.0,41.805197,-71.40664,621111.0,RI,44.0,44007.0,Providence County,440070006001.0
97760,sg:b2ae3632620e47178a611b8e67d5126c,Displays by Garo,RI,2019-02-01T00:00:00-05:00,2019-03-01T00:00:00-05:00,2865,39,84.0,"{""<5"":0,""5-20"":3,""21-60"":11,""61-240"":17,"">240"":8}",4961.5,41.923737,-71.479628,451211.0,RI,44.0,44007.0,Providence County,440070116004.0
97985,sg:c80f1fda50ae46c4ba3a29fd53246032,Nathan's Famous,RI,2019-02-01T00:00:00-05:00,2019-03-01T00:00:00-05:00,2898,311,20.0,"{""<5"":21,""5-20"":144,""21-60"":108,""61-240"":24,"">240"":14}",13198.5,41.512242,-71.686228,722513.0,RI,44.0,44009.0,Washington County,440090506001.0
98001,sg:c96a83db54a94da88fdcb8f99d9768e9,Portsmouth High School,RI,2019-02-01T00:00:00-05:00,2019-03-01T00:00:00-05:00,2871,1593,102.0,"{""<5"":14,""5-20"":303,""21-60"":270,""61-240"":440,"">240"":566}",216817.5,41.612258000000004,-71.249401,611110.0,RI,44.0,44005.0,Newport County,440050401023.0
98038,sg:cd8a76e67dc54056ab537a28dce1b5a4,Medical Cannabis Consultants,RI,2019-02-01T00:00:00-05:00,2019-03-01T00:00:00-05:00,2852,82,111.0,"{""<5"":1,""5-20"":15,""21-60"":16,""61-240"":16,"">240"":34}",11406.0,41.572496,-71.48455600000001,621111.0,RI,44.0,44009.0,Washington County,440090503013.0
99236,sg:3ef2a925570443d78679c3f4817d6bcc,Two Papas Biscotti by DeLuise,RI,2019-02-01T00:00:00-05:00,2019-03-01T00:00:00-05:00,2908,36,11.0,"{""<5"":1,""5-20"":25,""21-60"":2,""61-240"":0,"">240"":8}",2316.0,41.832827,-71.450069,445110.0,RI,44.0,44007.0,Providence County,440070021011.0
99360,sg:4b074bbd54c2446da360d6e7786e6e45,STATELINE NISSAN,RI,2019-02-01T00:00:00-05:00,2019-03-01T00:00:00-05:00,2914,203,78.0,"{""<5"":2,""5-20"":55,""21-60"":33,""61-240"":60,"">240"":53}",23779.0,41.822429,-71.348489,441110.0,RI,44.0,44007.0,Providence County,440070103002.0
99834,sg:76e71a63afd14d49977701bd96b76146,Stop & Shop Plaza,RI,2019-02-01T00:00:00-05:00,2019-03-01T00:00:00-05:00,2864,2040,15.0,"{""<5"":63,""5-20"":1177,""21-60"":579,""61-240"":138,"">240"":83}",79008.5,41.912859000000005,-71.404912,531120.0,RI,44.0,44007.0,Providence County,440070113012.0
99847,sg:786930bcd9ec45f7af1955760bae3a95,Auto Repair and Service,RI,2019-02-01T00:00:00-05:00,2019-03-01T00:00:00-05:00,2920,62,35.5,"{""<5"":0,""5-20"":24,""21-60"":14,""61-240"":11,"">240"":13}",5642.5,41.794959999999996,-71.475443,811111.0,RI,44.0,44007.0,Providence County,440070147006.0
100230,sg:9dabe7da8c39443aaa007ffc78099cf2,I Love Mexico Bar & Grille,RI,2019-02-01T00:00:00-05:00,2019-03-01T00:00:00-05:00,2908,68,50.0,"{""<5"":3,""5-20"":20,""21-60"":17,""61-240"":17,"">240"":11}",6144.5,41.833596,-71.42115,722511.0,RI,44.0,44007.0,Providence County,440070026001.0
100266,sg:a1b058c139474155b4dc359c778e0ec4,The Walker School of Allied Health,RI,2019-02-01T00:00:00-05:00,2019-03-01T00:00:00-05:00,2809,13,142.0,"{""<5"":0,""5-20"":3,""21-60"":0,""61-240"":8,"">240"":2}",1721.5,41.68707,-71.261522,621610.0,RI,44.0,44001.0,Bristol County,440010309012.0
100368,sg:ac4e3afbe2174b4f95c1c79c35d132de,Yoo Sushi,RI,2019-02-01T00:00:00-05:00,2019-03-01T00:00:00-05:00,2908,332,12.0,"{""<5"":33,""5-20"":158,""21-60"":42,""61-240"":42,"">240"":57}",23759.5,41.841534,-71.427634,722511.0,RI,44.0,44007.0,Providence County,440070027004.0
100798,sg:d595e011084c4c2c9c50dd5b6a2b20f9,Northern Rhode Island Animal Hospitals Inc,RI,2019-02-01T00:00:00-05:00,2019-03-01T00:00:00-05:00,2824,10,73.0,"{""<5"":0,""5-20"":3,""21-60"":2,""61-240"":2,"">240"":3}",1139.5,41.997696999999995,-71.561998,541940.0,RI,44.0,44007.0,Providence County,440070128013.0
100914,sg:e13f150f2aeb426ea1311f411e51156b,Dunn Park,RI,2019-02-01T00:00:00-05:00,2019-03-01T00:00:00-05:00,2895,451,127.0,"{""<5"":6,""5-20"":104,""21-60"":63,""61-240"":103,"">240"":175}",61368.0,41.997298,-71.53055,712190.0,RI,44.0,44007.0,Providence County,440070174003.0
101862,sg:3dc67fac9f5246be8a5f6d87551bff49,Sports Heroes,RI,2019-02-01T00:00:00-05:00,2019-03-01T00:00:00-05:00,2920,50,22.0,"{""<5"":3,""5-20"":19,""21-60"":10,""61-240"":4,"">240"":14}",4612.0,41.755334000000005,-71.476659,451110.0,RI,44.0,44007.0,Providence County,440070144002.0
101982,sg:48c55a6317954b768753c7e235d35361,Olympia Fitness and Performance,RI,2019-02-01T00:00:00-05:00,2019-03-01T00:00:00-05:00,2920,37,48.0,"{""<5"":1,""5-20"":7,""21-60"":13,""61-240"":15,"">240"":1}",3114.0,41.751444,-71.446489,713940.0,RI,44.0,44007.0,Providence County,440070139003.0
102164,sg:573c0d3d26ce456c9a19bf646f161f67,Admiral Fitzroy Inn,RI,2019-02-01T00:00:00-05:00,2019-03-01T00:00:00-05:00,2840,107,34.0,"{""<5"":4,""5-20"":34,""21-60"":29,""61-240"":15,"">240"":25}",9867.0,41.482496000000005,-71.314223,721110.0,RI,44.0,44005.0,Newport County,440050410002.0
103576,sg:db24fc2f3cad483fbdb1d51b8b66845a,Historic Baptist Church,RI,2019-02-01T00:00:00-05:00,2019-03-01T00:00:00-05:00,2852,93,77.0,"{""<5"":0,""5-20"":9,""21-60"":26,""61-240"":49,"">240"":9}",10700.0,41.572351,-71.459867,813110.0,RI,44.0,44009.0,Washington County,440090503023.0
103836,sg:f56f8ee3bd6c4f2b9d8d07e8b5a2edeb,Flawless Beauty,RI,2019-02-01T00:00:00-05:00,2019-03-01T00:00:00-05:00,2816,4,9.0,"{""<5"":1,""5-20"":2,""21-60"":0,""61-240"":1,"">240"":0}",178.0,41.688429,-71.56188399999999,446120.0,RI,44.0,44003.0,Kent County,440030206021.0
104006,sg:06c812efacff4e9fbcf63f8fca18b726,Ri Training School Youth Development Center,RI,2019-02-01T00:00:00-05:00,2019-03-01T00:00:00-05:00,2920,142,105.5,"{""<5"":4,""5-20"":33,""21-60"":17,""61-240"":64,"">240"":24}",16503.0,41.750495,-71.458495,922140.0,RI,44.0,44007.0,Providence County,440070142002.0
104427,sg:2cc8c68501ea45298c5d261496c3c29d,Hill Liquors,RI,2019-02-01T00:00:00-05:00,2019-03-01T00:00:00-05:00,2895,91,15.0,"{""<5"":8,""5-20"":42,""21-60"":16,""61-240"":10,"">240"":15}",6298.0,41.99535,-71.487708,445310.0,RI,44.0,44007.0,Providence County,440070185002.0
105093,sg:6faf28638e0e4028928f71abf5007a86,East Side Orthopedics,RI,2019-02-01T00:00:00-05:00,2019-03-01T00:00:00-05:00,2906,154,219.0,"{""<5"":3,""5-20"":26,""21-60"":21,""61-240"":28,"">240"":76}",23637.0,41.827673,-71.39851999999999,621111.0,RI,44.0,44007.0,Providence County,440070036011.0
105475,sg:92ce0828ed7c404098f3dbf6df2ab16f,Dunkin',RI,2019-02-01T00:00:00-05:00,2019-03-01T00:00:00-05:00,2919,387,7.0,"{""<5"":38,""5-20"":279,""21-60"":37,""61-240"":21,"">240"":12}",11121.5,41.823244,-71.498355,722515.0,RI,44.0,44007.0,Providence County,440070124015.0
106224,sg:e0aa3346292642379673dc753323a752,Create Power Yoga,RI,2019-02-01T00:00:00-05:00,2019-03-01T00:00:00-05:00,2916,402,60.0,"{""<5"":6,""5-20"":74,""21-60"":123,""61-240"":116,"">240"":83}",43299.5,41.854285,-71.3537,713940.0,RI,44.0,44007.0,Providence County,440070101021.0
106406,sg:f45276d9eaf8473a855f3edc57df927e,Del's Lemonade,RI,2019-02-01T00:00:00-05:00,2019-03-01T00:00:00-05:00,2919,152,7.0,"{""<5"":12,""5-20"":92,""21-60"":18,""61-240"":15,"">240"":15}",7766.5,41.825156,-71.5031,722515.0,RI,44.0,44007.0,Providence County,440070124014.0
106480,sg:fc06978ea3b845b68395b9b67c23f472,Cafe La France,RI,2019-02-01T00:00:00-05:00,2019-03-01T00:00:00-05:00,2903,25,6.0,"{""<5"":5,""5-20"":16,""21-60"":0,""61-240"":0,"">240"":4}",1172.5,41.829254999999996,-71.413264,722511.0,RI,44.0,44007.0,Providence County,440070008001.0
106510,sg:fe55a5fd2c9243c4b95474ec1c94fcb0,Providence Wholistic Healthcare,RI,2019-02-01T00:00:00-05:00,2019-03-01T00:00:00-05:00,2906,14,21.5,"{""<5"":2,""5-20"":5,""21-60"":3,""61-240"":4,"">240"":0}",791.0,41.827842,-71.396546,621111.0,RI,44.0,44007.0,Providence County,440070036012.0
106546,sg:0112e6a78ea44ac89d9cda2974201b20,CBD Center Of R I,RI,2019-02-01T00:00:00-05:00,2019-03-01T00:00:00-05:00,2919,157,59.0,"{""<5"":2,""5-20"":41,""21-60"":38,""61-240"":50,"">240"":26}",15821.5,41.823501,-71.49125500000001,722515.0,RI,44.0,44007.0,Providence County,440070124014.0
106768,sg:1546c7c776974e4baef38e98b058947b,Koch Eye Associates,RI,2019-02-01T00:00:00-05:00,2019-03-01T00:00:00-05:00,2879,64,41.0,"{""<5"":0,""5-20"":22,""21-60"":21,""61-240"":17,"">240"":4}",4644.0,41.449083,-71.47375100000001,621111.0,RI,44.0,44009.0,Washington County,440090512024.0
106778,sg:1636db0e8ef540a0a2488a35b41c4259,David's Greenwood Barber Shop,RI,2019-02-01T00:00:00-05:00,2019-03-01T00:00:00-05:00,2886,16,65.0,"{""<5"":0,""5-20"":1,""21-60"":4,""61-240"":11,"">240"":0}",1830.0,41.706456,-71.452597,812112.0,RI,44.0,44003.0,Kent County,440030221004.0
107953,sg:81e9f4f44cd04cff88faaffc350c0c0e,Sip N Dip,RI,2019-02-01T00:00:00-05:00,2019-03-01T00:00:00-05:00,2885,147,7.0,"{""<5"":18,""5-20"":87,""21-60"":14,""61-240"":12,"">240"":16}",7345.5,41.739529,-71.273658,722515.0,RI,44.0,44001.0,Bristol County,440010306011.0
108913,sg:e78f778c06a04f5bae84b830d18698b5,Mount Pleasant Academy,RI,2019-02-01T00:00:00-05:00,2019-03-01T00:00:00-05:00,2908,176,30.0,"{""<5"":6,""5-20"":68,""21-60"":34,""61-240"":26,"">240"":42}",16235.0,41.831884,-71.450353,611110.0,RI,44.0,44007.0,Providence County,440070021021.0
108926,sg:e979aa775a344decbccdf3f598ee149f,BankFive,RI,2019-02-01T00:00:00-05:00,2019-03-01T00:00:00-05:00,2809,7,6.0,"{""<5"":0,""5-20"":6,""21-60"":1,""61-240"":0,"">240"":0}",115.5,41.694857,-71.263292,522110.0,RI,44.0,44001.0,Bristol County,440010309012.0
109462,sg:1be1d1a144d04702b76ff6a244019d43,The Stork's Nest Child Academy Smithfield,RI,2019-02-01T00:00:00-05:00,2019-03-01T00:00:00-05:00,2917,325,46.0,"{""<5"":4,""5-20"":86,""21-60"":91,""61-240"":95,"">240"":49}",30828.0,41.928967,-71.499815,611110.0,RI,44.0,44007.0,Providence County,440070126025.0
111568,sg:eff269f1b9984adcb7dddac353ae50dc,Dunkin',RI,2019-02-01T00:00:00-05:00,2019-03-01T00:00:00-05:00,2809,135,9.0,"{""<5"":8,""5-20"":94,""21-60"":17,""61-240"":12,"">240"":4}",4649.5,41.691994,-71.27852,722515.0,RI,44.0,44001.0,Bristol County,440010309024.0
112281,sg:3119ed8bfb8a402aa1c91a00ef0eaf87,Bella Salon,RI,2019-02-01T00:00:00-05:00,2019-03-01T00:00:00-05:00,2861,7,297.0,"{""<5"":0,""5-20"":3,""21-60"":0,""61-240"":0,"">240"":4}",997.5,41.861962,-71.354787,812113.0,RI,44.0,44007.0,Providence County,440070170002.0
