,safegraph_place_id,location_name,region,date_range_start,date_range_end,postal_code,raw_visit_counts,median_dwell,bucketed_dwell_times,est_total_dwell,latitude,longitude,naics_code,state,stateFIPS,countyFIPS,countyName,CBGFIPS
168,sg:0fa9e4f70e4b40938209a35c6156d80e,Collier Point Park,RI,2019-07-01T00:00:00-04:00,2019-08-01T00:00:00-04:00,2903,133,18.0,"{""<5"":6,""5-20"":65,""21-60"":40,""61-240"":18,"">240"":4}",6116.5,41.813815999999996,-71.40277900000001,712190.0,RI,44.0,44007.0,Providence County,440070006001.0
782,sg:4906fddb9d7e4082bbe2bc654423a651,Advanced Injury Center,RI,2019-07-01T00:00:00-04:00,2019-08-01T00:00:00-04:00,2909,2,77.5,"{""<5"":0,""5-20"":0,""21-60"":1,""61-240"":1,"">240"":0}",191.0,41.819492,-71.429585,621310.0,RI,44.0,44007.0,Providence County,440070011003.0
951,sg:58b799abc46b40ccb8c7f2ff6c7baa84,Westerly Hospital,RI,2019-07-01T00:00:00-04:00,2019-08-01T00:00:00-04:00,2891,3,28.0,"{""<5"":0,""5-20"":0,""21-60"":2,""61-240"":0,"">240"":1}",321.0,41.363848,-71.82004599999999,621610.0,RI,44.0,44009.0,Washington County,440090508021.0
1945,sg:b909fe8ce39242dcb961c0b0051574b1,SquadLocker,RI,2019-07-01T00:00:00-04:00,2019-08-01T00:00:00-04:00,2886,144,148.5,"{""<5"":1,""5-20"":25,""21-60"":21,""61-240"":56,"">240"":41}",19433.5,41.730422,-71.47957,448140.0,RI,44.0,44003.0,Kent County,440030223003.0
2815,sg:0dee21d4f52b4608b0efbd5c1bce2d0d,Siam Square Fine Thai Cuisine,RI,2019-07-01T00:00:00-04:00,2019-08-01T00:00:00-04:00,2842,235,29.0,"{""<5"":5,""5-20"":87,""21-60"":75,""61-240"":63,"">240"":5}",14819.0,41.519698,-71.293026,722511.0,RI,44.0,44005.0,Newport County,440050403042.0
3089,sg:2613444b634e411dbd91d7d53f0fd989,Run Newport,RI,2019-07-01T00:00:00-04:00,2019-08-01T00:00:00-04:00,2840,412,20.0,"{""<5"":8,""5-20"":218,""21-60"":147,""61-240"":31,"">240"":8}",15284.0,41.489692,-71.316264,451110.0,RI,44.0,44005.0,Newport County,440050410001.0
3544,sg:5006999c23a943f2a764b2c12d9f1148,Family Dollar Stores,RI,2019-07-01T00:00:00-04:00,2019-08-01T00:00:00-04:00,2907,117,12.0,"{""<5"":3,""5-20"":84,""21-60"":27,""61-240"":2,"">240"":1}",2692.0,41.7891,-71.432415,452319.0,RI,44.0,44007.0,Providence County,440070015001.0
3721,sg:60581e6643c64313b64d0891e03e7bf5,Hello Beautiful,RI,2019-07-01T00:00:00-04:00,2019-08-01T00:00:00-04:00,2904,2,182.0,"{""<5"":0,""5-20"":0,""21-60"":1,""61-240"":0,"">240"":1}",280.5,41.859977,-71.472155,812112.0,RI,44.0,44007.0,Providence County,440070121031.0
3732,sg:6116fbfc827f4daf9f04c9ec4e2c66c3,Jennie Finn LMT Being In Balance,RI,2019-07-01T00:00:00-04:00,2019-08-01T00:00:00-04:00,2906,20,235.0,"{""<5"":0,""5-20"":2,""21-60"":1,""61-240"":8,"">240"":9}",3429.5,41.827625,-71.393016,812199.0,RI,44.0,44007.0,Providence County,440070036012.0
3904,sg:70470e1dcf51421c864f1f81f6519ef8,Extended Stay America,RI,2019-07-01T00:00:00-04:00,2019-08-01T00:00:00-04:00,2893,386,252.5,"{""<5"":1,""5-20"":39,""21-60"":52,""61-240"":98,"">240"":196}",64385.0,41.663349,-71.50014300000001,721110.0,RI,44.0,44003.0,Kent County,440030201012.0
4062,sg:82c5a4a4e9c34c5cb49a4943f4126a83,Pawtucket Credit Union,RI,2019-07-01T00:00:00-04:00,2019-08-01T00:00:00-04:00,2861,98,314.0,"{""<5"":2,""5-20"":15,""21-60"":9,""61-240"":21,"">240"":51}",15957.5,41.89094,-71.340903,522110.0,RI,44.0,44007.0,Providence County,440070157001.0
4151,sg:8c028ae30d35488aac22df12d09aeec3,The Perfect Puppy,RI,2019-07-01T00:00:00-04:00,2019-08-01T00:00:00-04:00,2893,124,10.0,"{""<5"":4,""5-20"":92,""21-60"":21,""61-240"":5,"">240"":2}",3243.0,41.683696999999995,-71.50617700000001,453910.0,RI,44.0,44003.0,Kent County,440030201011.0
4166,sg:8d404bdbb86e49be9172581f9d46bfc4,Town Hall Laundromat,RI,2019-07-01T00:00:00-04:00,2019-08-01T00:00:00-04:00,2919,4,190.5,"{""<5"":0,""5-20"":0,""21-60"":0,""61-240"":3,"">240"":1}",691.5,41.823864,-71.496879,812320.0,RI,44.0,44007.0,Providence County,440070124014.0
4354,sg:a05cf31c3b434d399afc16d5cce11eeb,HOAM Carpet & Upholstery Cleaning,RI,2019-07-01T00:00:00-04:00,2019-08-01T00:00:00-04:00,2919,75,76.0,"{""<5"":1,""5-20"":12,""21-60"":19,""61-240"":34,"">240"":9}",8199.0,41.844812,-71.495538,561740.0,RI,44.0,44007.0,Providence County,440070123003.0
4784,sg:cc389c5ce9ba44fcabf53cdad9bad390,Hilltop Inn,RI,2019-07-01T00:00:00-04:00,2019-08-01T00:00:00-04:00,2840,122,62.0,"{""<5"":1,""5-20"":38,""21-60"":20,""61-240"":33,"">240"":30}",13454.0,41.488106,-71.3097,721110.0,RI,44.0,44005.0,Newport County,440050407003.0
4944,sg:dc78ef03f6954b8cbb0feae26429a3d7,Mirabar,RI,2019-07-01T00:00:00-04:00,2019-08-01T00:00:00-04:00,2903,72,344.5,"{""<5"":0,""5-20"":24,""21-60"":0,""61-240"":5,"">240"":43}",11372.5,41.818425,-71.409858,722511.0,RI,44.0,44007.0,Providence County,440070006001.0
4951,sg:dd27127646f6464688de8c800a693c2d,Padgett Business Services of Rhode Island,RI,2019-07-01T00:00:00-04:00,2019-08-01T00:00:00-04:00,2882,4,337.5,"{""<5"":0,""5-20"":0,""21-60"":0,""61-240"":0,"">240"":4}",960.0,41.425656,-71.47919399999999,541213.0,RI,44.0,44009.0,Washington County,440090515033.0
5853,sg:31decd4442e44a9a967c6621f4eaece1,Thibaudeau Farms Lincoln Gardens,RI,2019-07-01T00:00:00-04:00,2019-08-01T00:00:00-04:00,2865,57,189.0,"{""<5"":0,""5-20"":10,""21-60"":3,""61-240"":18,"">240"":26}",9195.5,41.914321,-71.41318000000001,712190.0,RI,44.0,44007.0,Providence County,440070117011.0
5882,sg:343eafaf08264ef48026a765aa1b85ca,Providence Drug Treatment Centers,RI,2019-07-01T00:00:00-04:00,2019-08-01T00:00:00-04:00,2903,1,500.0,"{""<5"":0,""5-20"":0,""21-60"":0,""61-240"":0,"">240"":1}",240.0,41.824011999999996,-71.41179100000001,621330.0,RI,44.0,44007.0,Providence County,440070008003.0
5960,sg:3ca2ca8380d648baab92c244ec5042f4,Central Congregational Church,RI,2019-07-01T00:00:00-04:00,2019-08-01T00:00:00-04:00,2906,24,47.0,"{""<5"":0,""5-20"":7,""21-60"":8,""61-240"":6,"">240"":3}",2034.5,41.829037,-71.396026,813110.0,RI,44.0,44007.0,Providence County,440070036011.0
6159,sg:4e3a987913ba4fc0877681359769309a,EBCAP Dental Center,RI,2019-07-01T00:00:00-04:00,2019-08-01T00:00:00-04:00,2840,11,521.0,"{""<5"":0,""5-20"":0,""21-60"":0,""61-240"":0,"">240"":11}",2640.0,41.491082,-71.312249,621210.0,RI,44.0,44005.0,Newport County,440050410001.0
6363,sg:64758a11d3364f5895de8eb17417b012,Central Falls Sr High,RI,2019-07-01T00:00:00-04:00,2019-08-01T00:00:00-04:00,2863,577,74.0,"{""<5"":8,""5-20"":122,""21-60"":131,""61-240"":186,"">240"":130}",66043.5,41.886659,-71.391183,611110.0,RI,44.0,44007.0,Providence County,440070108002.0
6563,sg:786276e26ea644ce9461acfe755ac5f7,Open Mri of New England,RI,2019-07-01T00:00:00-04:00,2019-08-01T00:00:00-04:00,2864,110,43.0,"{""<5"":1,""5-20"":20,""21-60"":53,""61-240"":26,"">240"":10}",8712.0,41.914357,-71.397924,621111.0,RI,44.0,44007.0,Providence County,440070112005.0
6620,sg:7e44724c7ee848e499c9b01f9d21da73,Diversified Auto Collision Repair,RI,2019-07-01T00:00:00-04:00,2019-08-01T00:00:00-04:00,2917,2,29.5,"{""<5"":0,""5-20"":1,""21-60"":1,""61-240"":0,"">240"":0}",53.0,41.877779,-71.472829,811121.0,RI,44.0,44007.0,Providence County,440070126026.0
6769,sg:8da99b2145174863b6beabf6e6f0f1a3,Wharf Pub & Restaurant,RI,2019-07-01T00:00:00-04:00,2019-08-01T00:00:00-04:00,2840,655,42.0,"{""<5"":9,""5-20"":179,""21-60"":216,""61-240"":244,"">240"":7}",49410.0,41.486373,-71.315578,722511.0,RI,44.0,44005.0,Newport County,440050410001.0
6851,sg:953dce59351a4d188cbd03b93ab208ea,Better Bodies Functional Fitness,RI,2019-07-01T00:00:00-04:00,2019-08-01T00:00:00-04:00,2921,107,52.0,"{""<5"":0,""5-20"":20,""21-60"":41,""61-240"":29,"">240"":17}",10355.0,41.784836,-71.514988,713940.0,RI,44.0,44007.0,Providence County,440070146002.0
6893,sg:99b2f64e3f414cbd9632566e6e3202b1,Aquidneck Farms,RI,2019-07-01T00:00:00-04:00,2019-08-01T00:00:00-04:00,2871,14,8.0,"{""<5"":0,""5-20"":10,""21-60"":4,""61-240"":0,"">240"":0}",287.0,41.543434000000005,-71.247757,445110.0,RI,44.0,44005.0,Newport County,440050401022.0
6969,sg:a209d06e2199468eae9144e88d3c582f,Coastal Medical Waterman Pediatrics,RI,2019-07-01T00:00:00-04:00,2019-08-01T00:00:00-04:00,2914,2,317.5,"{""<5"":1,""5-20"":0,""21-60"":0,""61-240"":0,"">240"":1}",242.5,41.808659999999996,-71.346885,621111.0,RI,44.0,44007.0,Providence County,440070105011.0
7203,sg:b9e7f6a5d5be4f0fb7704b7772e79752,Chopping Block,RI,2019-07-01T00:00:00-04:00,2019-08-01T00:00:00-04:00,2864,53,60.0,"{""<5"":1,""5-20"":15,""21-60"":11,""61-240"":15,"">240"":11}",5533.0,41.922008,-71.410997,812112.0,RI,44.0,44007.0,Providence County,440070113012.0
7275,sg:c07e2b8e1d3f4779a48bad22142821fb,Keri Campbell RE MAX 1ST CHOICE,RI,2019-07-01T00:00:00-04:00,2019-08-01T00:00:00-04:00,2910,1,526.0,"{""<5"":0,""5-20"":0,""21-60"":0,""61-240"":0,"">240"":1}",240.0,41.774687,-71.449609,531210.0,RI,44.0,44007.0,Providence County,440070137022.0
8226,sg:1d39db70f7ce47e9aa5b924fe29edfef,Manville Park,RI,2019-07-01T00:00:00-04:00,2019-08-01T00:00:00-04:00,2838,169,35.0,"{""<5"":4,""5-20"":61,""21-60"":37,""61-240"":39,"">240"":28}",14860.5,41.970515999999996,-71.471466,712190.0,RI,44.0,44007.0,Providence County,440070115002.0
8323,sg:25b9e02b6ecb4f8a9a76056c93d7b018,2nd Story Theatre,RI,2019-07-01T00:00:00-04:00,2019-08-01T00:00:00-04:00,2885,4,285.0,"{""<5"":0,""5-20"":0,""21-60"":0,""61-240"":1,"">240"":3}",870.5,41.731041999999995,-71.281827,512131.0,RI,44.0,44001.0,Bristol County,440010305001.0
9209,sg:7a93dc891e014f509eab7eb36b3d54be,Taste of China,RI,2019-07-01T00:00:00-04:00,2019-08-01T00:00:00-04:00,2909,359,31.0,"{""<5"":12,""5-20"":125,""21-60"":89,""61-240"":93,"">240"":40}",28793.5,41.824871,-71.44883,722511.0,RI,44.0,44007.0,Providence County,440070019004.0
9771,sg:b11e3824933b4e9eb9f142c0bf247c5c,Navigant Credit Union,RI,2019-07-01T00:00:00-04:00,2019-08-01T00:00:00-04:00,2865,45,7.0,"{""<5"":3,""5-20"":34,""21-60"":4,""61-240"":2,"">240"":2}",1375.5,41.904967,-71.408516,522110.0,RI,44.0,44007.0,Providence County,440070117011.0
9789,sg:b2b9870142724555b268ccef9ff00956,Back In Thyme Herb Farm And Kitchen,RI,2019-07-01T00:00:00-04:00,2019-08-01T00:00:00-04:00,2833,32,26.5,"{""<5"":2,""5-20"":11,""21-60"":11,""61-240"":5,"">240"":3}",2060.5,41.462065,-71.778053,722515.0,RI,44.0,44009.0,Washington County,440090507003.0
9871,sg:ba7522179d8e4d1c9759c803d91c3236,Colortyme,RI,2019-07-01T00:00:00-04:00,2019-08-01T00:00:00-04:00,2895,29,12.0,"{""<5"":1,""5-20"":18,""21-60"":4,""61-240"":0,"">240"":6}",1829.5,41.998132,-71.518499,532289.0,RI,44.0,44007.0,Providence County,440070178003.0
10820,sg:1a2b9a25939f4879b07edc133857acd6,CVS,RI,2019-07-01T00:00:00-04:00,2019-08-01T00:00:00-04:00,2914,571,9.0,"{""<5"":27,""5-20"":447,""21-60"":86,""61-240"":8,"">240"":3}",11062.0,41.811228,-71.357456,446110.0,RI,44.0,44007.0,Providence County,440070105011.0
10904,sg:2426a238e8394ec58ce48c16500577dd,Iglesia Aposento Alto,RI,2019-07-01T00:00:00-04:00,2019-08-01T00:00:00-04:00,2907,335,82.0,"{""<5"":7,""5-20"":72,""21-60"":68,""61-240"":109,"">240"":79}",39036.0,41.802982,-71.42268299999999,813110.0,RI,44.0,44007.0,Providence County,440070003002.0
10919,sg:25b2bd61399d4dfdb099a352ba9abdd8,The Church of Jesus Christ of Latter day Saints,RI,2019-07-01T00:00:00-04:00,2019-08-01T00:00:00-04:00,2909,132,101.0,"{""<5"":5,""5-20"":37,""21-60"":12,""61-240"":30,"">240"":48}",16996.0,41.809557,-71.436728,813110.0,RI,44.0,44007.0,Providence County,440070014003.0
11251,sg:4386a59c9e624b58a61dc22b9c957e67,YMCA,RI,2019-07-01T00:00:00-04:00,2019-08-01T00:00:00-04:00,2886,77,27.0,"{""<5"":0,""5-20"":30,""21-60"":44,""61-240"":3,"">240"":0}",2608.5,41.694137,-71.494109,624190.0,RI,44.0,44003.0,Kent County,440030222022.0
11262,sg:44efa6d7317848928983a1d7f4a842c0,Once Upon a Child,RI,2019-07-01T00:00:00-04:00,2019-08-01T00:00:00-04:00,2886,527,20.0,"{""<5"":15,""5-20"":260,""21-60"":197,""61-240"":34,"">240"":21}",21423.0,41.707309,-71.49723900000001,453310.0,RI,44.0,44003.0,Kent County,440030223001.0
11496,sg:5b2047bbae5047739cc8a6482bec3e65,Lefebvre Insurance Agency Inc Nationwide Insurance,RI,2019-07-01T00:00:00-04:00,2019-08-01T00:00:00-04:00,2904,1,565.0,"{""<5"":0,""5-20"":0,""21-60"":0,""61-240"":0,"">240"":1}",240.0,41.842832,-71.407135,524210.0,RI,44.0,44007.0,Providence County,440070032004.0
11609,sg:64c293d2a921446c92ed6c847ffd71e2,Atlas Music,RI,2019-07-01T00:00:00-04:00,2019-08-01T00:00:00-04:00,2840,214,20.0,"{""<5"":9,""5-20"":103,""21-60"":37,""61-240"":37,"">240"":28}",15097.0,41.483012,-71.305846,451140.0,RI,44.0,44005.0,Newport County,440050408001.0
11917,sg:83e95d3219464f259b7885264fe88d9e,Scott's Garage,RI,2019-07-01T00:00:00-04:00,2019-08-01T00:00:00-04:00,2919,1,39.0,"{""<5"":0,""5-20"":0,""21-60"":1,""61-240"":0,"">240"":0}",40.5,41.833751,-71.475876,811111.0,RI,44.0,44007.0,Providence County,440070124016.0
11950,sg:8705a1f789344864b37d585d361740a0,Christopher Franklin CPA,RI,2019-07-01T00:00:00-04:00,2019-08-01T00:00:00-04:00,2886,41,71.0,"{""<5"":0,""5-20"":5,""21-60"":13,""61-240"":19,"">240"":4}",4408.5,41.680446,-71.449256,541213.0,RI,44.0,44003.0,Kent County,440030220003.0
11979,sg:88f92ca862384e96b57bf75021a2b742,Stride Rite,RI,2019-07-01T00:00:00-04:00,2019-08-01T00:00:00-04:00,2919,14,10.0,"{""<5"":0,""5-20"":13,""21-60"":1,""61-240"":0,"">240"":0}",203.0,41.825267,-71.50353,448210.0,RI,44.0,44007.0,Providence County,440070124014.0
13214,sg:03a175fc0f0944dc920a9c872897ac1f,Athalia of Newport,RI,2019-07-01T00:00:00-04:00,2019-08-01T00:00:00-04:00,2840,14,28.5,"{""<5"":0,""5-20"":4,""21-60"":6,""61-240"":0,"">240"":4}",1253.0,41.485184000000004,-71.313926,448310.0,RI,44.0,44005.0,Newport County,440050410001.0
13626,sg:2777e531e3914656bb85c8905759f482,Champlin's Seafood,RI,2019-07-01T00:00:00-04:00,2019-08-01T00:00:00-04:00,2882,628,41.0,"{""<5"":15,""5-20"":147,""21-60"":266,""61-240"":182,"">240"":18}",44359.0,41.377206,-71.512784,722511.0,RI,44.0,44009.0,Washington County,440090515041.0
13794,sg:35f28ff750f740cc85e3ada9ada79bb5,Village Pub,RI,2019-07-01T00:00:00-04:00,2019-08-01T00:00:00-04:00,2816,51,11.0,"{""<5"":6,""5-20"":20,""21-60"":8,""61-240"":16,"">240"":1}",3237.0,41.690381,-71.565005,722511.0,RI,44.0,44003.0,Kent County,440030206021.0
14153,sg:59c12633714e460fa09c01773f8bf8bc,Four Corners Fitness,RI,2019-07-01T00:00:00-04:00,2019-08-01T00:00:00-04:00,2878,18,22.0,"{""<5"":1,""5-20"":7,""21-60"":4,""61-240"":3,"">240"":3}",1423.5,41.570361,-71.188273,713940.0,RI,44.0,44005.0,Newport County,440050417023.0
14483,sg:7c8bc70c8ebc415a83cc562e4b0df351,Horan John F DO,RI,2019-07-01T00:00:00-04:00,2019-08-01T00:00:00-04:00,2818,1,486.0,"{""<5"":0,""5-20"":0,""21-60"":0,""61-240"":0,"">240"":1}",240.0,41.65052,-71.460858,621111.0,RI,44.0,44003.0,Kent County,440030209014.0
14548,sg:8331964bccaf473288f4c605dba883d5,Metacomet Country Club,RI,2019-07-01T00:00:00-04:00,2019-08-01T00:00:00-04:00,2914,613,34.0,"{""<5"":15,""5-20"":241,""21-60"":138,""61-240"":151,"">240"":68}",47684.5,41.806146000000005,-71.378387,713910.0,RI,44.0,44007.0,Providence County,440070104003.0
15030,sg:b4253542b97e4238a82ed450d2ebf8cb,Persimmon,RI,2019-07-01T00:00:00-04:00,2019-08-01T00:00:00-04:00,2906,117,58.0,"{""<5"":3,""5-20"":20,""21-60"":39,""61-240"":37,"">240"":18}",11725.5,41.822084000000004,-71.396419,722511.0,RI,44.0,44007.0,Providence County,440070037003.0
15209,sg:c45401b67d674df0989284e849daed8f,Alltown,RI,2019-07-01T00:00:00-04:00,2019-08-01T00:00:00-04:00,2879,187,5.0,"{""<5"":25,""5-20"":160,""21-60"":1,""61-240"":1,"">240"":0}",2253.5,41.494259,-71.457048,447110.0,RI,44.0,44009.0,Washington County,440090513051.0
16471,sg:3cbead03bd034f579420ee2e5e654252,Advanced Auto Buyers,RI,2019-07-01T00:00:00-04:00,2019-08-01T00:00:00-04:00,2916,30,24.5,"{""<5"":0,""5-20"":10,""21-60"":8,""61-240"":10,"">240"":2}",2434.0,41.846055,-71.34584699999999,441120.0,RI,44.0,44007.0,Providence County,440070101022.0
16869,sg:611936a0ba3c43f5a2c3809f3d84a3ac,MyGlobal Telecom,RI,2019-07-01T00:00:00-04:00,2019-08-01T00:00:00-04:00,2920,22,55.5,"{""<5"":0,""5-20"":4,""21-60"":7,""61-240"":10,"">240"":1}",2078.5,41.733952,-71.474869,443142.0,RI,44.0,44007.0,Providence County,440070142003.0
16901,sg:635381b5c2b440a7a8f7711276c342ac,All Is Well Home care,RI,2019-07-01T00:00:00-04:00,2019-08-01T00:00:00-04:00,2888,62,177.5,"{""<5"":0,""5-20"":16,""21-60"":8,""61-240"":13,"">240"":25}",8480.5,41.758936,-71.406447,623312.0,RI,44.0,44003.0,Kent County,440030210011.0
16903,sg:637d9e68c7384a4f9ae7cc57070a673d,Em's Liquor Store,RI,2019-07-01T00:00:00-04:00,2019-08-01T00:00:00-04:00,2920,19,12.0,"{""<5"":0,""5-20"":11,""21-60"":4,""61-240"":4,"">240"":0}",901.5,41.78423,-71.45958,445310.0,RI,44.0,44007.0,Providence County,440070147004.0
17263,sg:891d41234d7f4947b56a63152884f6b4,Paynes Dock Restaurant,RI,2019-07-01T00:00:00-04:00,2019-08-01T00:00:00-04:00,2807,2310,59.0,"{""<5"":15,""5-20"":489,""21-60"":684,""61-240"":711,"">240"":411}",239497.5,41.182037,-71.575158,722511.0,RI,44.0,44009.0,Washington County,440090415001.0
17341,sg:9237b12943964923a753a1f12f5d5438,Bristol Fire Department Defiance Hose Company,RI,2019-07-01T00:00:00-04:00,2019-08-01T00:00:00-04:00,2809,22,31.0,"{""<5"":1,""5-20"":9,""21-60"":5,""61-240"":5,"">240"":2}",1550.0,41.691678,-71.278961,922160.0,RI,44.0,44001.0,Bristol County,440010309024.0
17800,sg:c1605736bb7f464fbdef040a69359798,Not Just Spices,RI,2019-07-01T00:00:00-04:00,2019-08-01T00:00:00-04:00,2906,70,13.0,"{""<5"":2,""5-20"":38,""21-60"":11,""61-240"":17,"">240"":2}",3964.0,41.849764,-71.394452,445110.0,RI,44.0,44007.0,Providence County,440070033002.0
18937,sg:29dbebe346e9419d8a8c0e6ba5feb10d,Hillview Auto Body,RI,2019-07-01T00:00:00-04:00,2019-08-01T00:00:00-04:00,2919,48,41.0,"{""<5"":1,""5-20"":16,""21-60"":10,""61-240"":5,"">240"":16}",5200.0,41.852525,-71.485262,811121.0,RI,44.0,44007.0,Providence County,440070123001.0
19256,sg:477c63fe75154140baaf64e572dc641a,Sprout Coworking,RI,2019-07-01T00:00:00-04:00,2019-08-01T00:00:00-04:00,2885,1,7.0,"{""<5"":0,""5-20"":1,""21-60"":0,""61-240"":0,"">240"":0}",12.5,41.729171,-71.28245799999999,444130.0,RI,44.0,44001.0,Bristol County,440010305003.0
19293,sg:49d974a3e4c8488a8c03708186b3727b,Dunkin',RI,2019-07-01T00:00:00-04:00,2019-08-01T00:00:00-04:00,2852,166,7.0,"{""<5"":14,""5-20"":114,""21-60"":26,""61-240"":6,"">240"":6}",4856.0,41.629486,-71.462434,722515.0,RI,44.0,44009.0,Washington County,440090501041.0
19600,sg:67a7476921fa4fffa5b24dc5e2ebc719,Alan Shawn Feinstein Ms Of Cov,RI,2019-07-01T00:00:00-04:00,2019-08-01T00:00:00-04:00,2816,48,28.5,"{""<5"":0,""5-20"":22,""21-60"":10,""61-240"":14,"">240"":2}",3267.0,41.696490000000004,-71.561284,611110.0,RI,44.0,44003.0,Kent County,440030206013.0
19971,sg:8b1b642203d045c381674f7022f40e3e,McDonald's,RI,2019-07-01T00:00:00-04:00,2019-08-01T00:00:00-04:00,2914,532,8.0,"{""<5"":41,""5-20"":330,""21-60"":107,""61-240"":49,"">240"":5}",17135.5,41.821661999999996,-71.352756,722513.0,RI,44.0,44007.0,Providence County,440070103002.0
20064,sg:94654296c21c4ad59f149473d78f6073,George D Bertherman OD,RI,2019-07-01T00:00:00-04:00,2019-08-01T00:00:00-04:00,2905,127,8.0,"{""<5"":10,""5-20"":96,""21-60"":13,""61-240"":3,"">240"":5}",3403.0,41.7875,-71.402238,446130.0,RI,44.0,44007.0,Providence County,440070001014.0
20605,sg:caa988726bcf4abd91daf515b8e988e3,Pettaquamscutt Tot Park,RI,2019-07-01T00:00:00-04:00,2019-08-01T00:00:00-04:00,2874,41,61.0,"{""<5"":0,""5-20"":9,""21-60"":11,""61-240"":13,"">240"":8}",4434.5,41.496981,-71.445298,712190.0,RI,44.0,44009.0,Washington County,440090515025.0
21076,sg:fa3bf099c298409082b79a0a100a021f,Paul Madden Associates,RI,2019-07-01T00:00:00-04:00,2019-08-01T00:00:00-04:00,2842,18,165.0,"{""<5"":0,""5-20"":2,""21-60"":5,""61-240"":10,"">240"":1}",1972.5,41.539313,-71.27039599999999,451110.0,RI,44.0,44005.0,Newport County,440050403041.0
21443,sg:1c502e9a49484e51ad2f63da8a88492b,Portsmouth Multi Purpose Senior Center,RI,2019-07-01T00:00:00-04:00,2019-08-01T00:00:00-04:00,2871,57,48.0,"{""<5"":1,""5-20"":14,""21-60"":17,""61-240"":21,"">240"":4}",4986.5,41.618057,-71.25753,623312.0,RI,44.0,44005.0,Newport County,440050401035.0
21586,sg:27854d334ace4c4ca3d34523ddb2ae2c,Pleasant St Baptist Church Study,RI,2019-07-01T00:00:00-04:00,2019-08-01T00:00:00-04:00,2891,108,135.5,"{""<5"":0,""5-20"":16,""21-60"":20,""61-240"":30,"">240"":42}",15605.0,41.38516,-71.828091,813110.0,RI,44.0,44009.0,Washington County,440090508015.0
21867,sg:40976386af3b46bb94b4acfab6b3b572,East Side Escape,RI,2019-07-01T00:00:00-04:00,2019-08-01T00:00:00-04:00,2906,14,78.5,"{""<5"":0,""5-20"":0,""21-60"":3,""61-240"":11,"">240"":0}",1777.0,41.827228999999996,-71.382497,812199.0,RI,44.0,44007.0,Providence County,440070035004.0
22083,sg:53ea59a1cbcd4e29b90293d61848a499,Mckillop Library,RI,2019-07-01T00:00:00-04:00,2019-08-01T00:00:00-04:00,2840,255,22.0,"{""<5"":7,""5-20"":104,""21-60"":58,""61-240"":53,"">240"":33}",19563.0,41.470831,-71.300195,519120.0,RI,44.0,44005.0,Newport County,440050409004.0
22260,sg:6581ba6a3211482fb80cd4c99ff88713,Airport Golf Simulator,RI,2019-07-01T00:00:00-04:00,2019-08-01T00:00:00-04:00,2886,185,49.0,"{""<5"":2,""5-20"":45,""21-60"":64,""61-240"":70,"">240"":4}",14654.5,41.727269,-71.439688,713940.0,RI,44.0,44003.0,Kent County,440030211004.0
22486,sg:7c05b7182c3944708e3bfdc63e9ec43e,Jerusalem Meat Market,RI,2019-07-01T00:00:00-04:00,2019-08-01T00:00:00-04:00,2910,38,41.0,"{""<5"":0,""5-20"":11,""21-60"":13,""61-240"":10,"">240"":4}",3129.0,41.775715999999996,-71.43665899999999,445110.0,RI,44.0,44007.0,Providence County,440070137014.0
22712,sg:90d0c542667244a6afbe99ad3d26198f,Maple Root Baptist Church,RI,2019-07-01T00:00:00-04:00,2019-08-01T00:00:00-04:00,2816,43,12.0,"{""<5"":2,""5-20"":26,""21-60"":10,""61-240"":5,"">240"":0}",1487.5,41.669121999999994,-71.60557800000001,813110.0,RI,44.0,44003.0,Kent County,440030207032.0
22737,sg:9362619f894d4f62b47b9feda561afb7,Leo's Tire Sales,RI,2019-07-01T00:00:00-04:00,2019-08-01T00:00:00-04:00,2888,64,13.0,"{""<5"":7,""5-20"":33,""21-60"":12,""61-240"":12,"">240"":0}",2722.0,41.758433000000004,-71.424747,441310.0,RI,44.0,44003.0,Kent County,440030211001.0
23117,sg:b8cda89cb17842c78f194e7ac0865896,426 Fitness,RI,2019-07-01T00:00:00-04:00,2019-08-01T00:00:00-04:00,2885,22,24.0,"{""<5"":0,""5-20"":11,""21-60"":5,""61-240"":2,"">240"":4}",1601.0,41.727052,-71.2694,713940.0,RI,44.0,44001.0,Bristol County,440010306021.0
23359,sg:cfa621df82ae47bc87aff9e585700e69,Daves Fruit & Gift Basket,RI,2019-07-01T00:00:00-04:00,2019-08-01T00:00:00-04:00,2818,1,84.0,"{""<5"":0,""5-20"":0,""21-60"":0,""61-240"":1,"">240"":0}",150.5,41.661347,-71.494772,,RI,44.0,44003.0,Kent County,440030209031.0
23922,sg:098ca6e4529f4825acd6bcf790d4b181,Meldgie's Diner,RI,2019-07-01T00:00:00-04:00,2019-08-01T00:00:00-04:00,2882,444,24.0,"{""<5"":12,""5-20"":183,""21-60"":173,""61-240"":56,"">240"":20}",22552.0,41.38759,-71.48612800000001,722511.0,RI,44.0,44009.0,Washington County,440090515043.0
24027,sg:1277d13405004fef864cbde7996fdb2b,Ocean State Tackle,RI,2019-07-01T00:00:00-04:00,2019-08-01T00:00:00-04:00,2904,201,21.0,"{""<5"":11,""5-20"":89,""21-60"":30,""61-240"":29,"">240"":42}",16799.5,41.849956,-71.41951800000001,441222.0,RI,44.0,44007.0,Providence County,440070029004.0
24188,sg:2092d267b1644be4813709f32730cc38,Dimitri G Ganim DDS,RI,2019-07-01T00:00:00-04:00,2019-08-01T00:00:00-04:00,2861,19,75.0,"{""<5"":0,""5-20"":2,""21-60"":7,""61-240"":4,"">240"":6}",2350.5,41.879795,-71.354457,621210.0,RI,44.0,44007.0,Providence County,440070159002.0
24265,sg:2687880113ed40d68a543d6bd54e3433,Kon Asian Bistro & Hibachi Grill,RI,2019-07-01T00:00:00-04:00,2019-08-01T00:00:00-04:00,2818,112,42.0,"{""<5"":2,""5-20"":28,""21-60"":49,""61-240"":31,"">240"":2}",7485.0,41.65725,-71.45362,722511.0,RI,44.0,44003.0,Kent County,440030209011.0
24307,sg:2a3e930d4fc54bde8b22915e44f40ba2,Coastal Medical,RI,2019-07-01T00:00:00-04:00,2019-08-01T00:00:00-04:00,2920,24,41.0,"{""<5"":0,""5-20"":6,""21-60"":8,""61-240"":9,"">240"":1}",1993.5,41.754165,-71.45417900000001,621111.0,RI,44.0,44007.0,Providence County,440070139003.0
24381,sg:303ce9d8236f46abaf7c862f28c759cc,William Hall Library,RI,2019-07-01T00:00:00-04:00,2019-08-01T00:00:00-04:00,2905,100,53.0,"{""<5"":0,""5-20"":27,""21-60"":25,""61-240"":44,"">240"":4}",8932.0,41.775452,-71.399764,519120.0,RI,44.0,44007.0,Providence County,440070134001.0
24642,sg:487ce6220c2d4f068c862d4c3559f981,Brumble Bikes,RI,2019-07-01T00:00:00-04:00,2019-08-01T00:00:00-04:00,2891,97,51.0,"{""<5"":5,""5-20"":27,""21-60"":17,""61-240"":20,"">240"":28}",10768.5,41.371614,-71.830735,451110.0,RI,44.0,44009.0,Washington County,440090508013.0
24653,sg:49b375fdf96f4bdaac88ff337ebd0c7f,Hillsgrove Servicenter Inc,RI,2019-07-01T00:00:00-04:00,2019-08-01T00:00:00-04:00,2886,34,7.0,"{""<5"":3,""5-20"":23,""21-60"":8,""61-240"":0,"">240"":0}",619.0,41.728106,-71.438766,447110.0,RI,44.0,44003.0,Kent County,440030211004.0
24757,sg:53ec6a85c3f641b780829aee1691972b,Reliable Collision Repair,RI,2019-07-01T00:00:00-04:00,2019-08-01T00:00:00-04:00,2893,35,20.0,"{""<5"":1,""5-20"":17,""21-60"":7,""61-240"":3,"">240"":7}",2630.0,41.724886,-71.489175,811121.0,RI,44.0,44003.0,Kent County,440030205001.0
25159,sg:79654e5aabc6478585b469b5671fafbf,Body Armour Fitness,RI,2019-07-01T00:00:00-04:00,2019-08-01T00:00:00-04:00,2919,165,78.0,"{""<5"":4,""5-20"":23,""21-60"":42,""61-240"":95,"">240"":1}",16536.0,41.803343,-71.467964,713940.0,RI,44.0,44007.0,Providence County,440070125001.0
26125,sg:d797a3e709e149c38bbccefd3af08f97,Martinelli's Panini Bistro,RI,2019-07-01T00:00:00-04:00,2019-08-01T00:00:00-04:00,2886,34,65.5,"{""<5"":3,""5-20"":5,""21-60"":6,""61-240"":19,"">240"":1}",3412.5,41.705418,-71.452527,722511.0,RI,44.0,44003.0,Kent County,440030221002.0
26395,sg:f4139ec399dc4e94bff5b8df03b67614,Navigant Credit Union,RI,2019-07-01T00:00:00-04:00,2019-08-01T00:00:00-04:00,2885,17,6.0,"{""<5"":2,""5-20"":14,""21-60"":1,""61-240"":0,"">240"":0}",220.5,41.727999,-71.281666,522110.0,RI,44.0,44001.0,Bristol County,440010305002.0
26633,sg:0ef8faa3f6ca49899cf65e1ebe1d0090,Pawtucket Wine and Spirits,RI,2019-07-01T00:00:00-04:00,2019-08-01T00:00:00-04:00,2861,101,11.0,"{""<5"":5,""5-20"":75,""21-60"":19,""61-240"":2,"">240"":0}",2020.5,41.888837,-71.367649,445310.0,RI,44.0,44007.0,Providence County,440070155003.0
26828,sg:209abc30d4ac4ca39a6429961232b076,Three golden apples fine jewelery,RI,2019-07-01T00:00:00-04:00,2019-08-01T00:00:00-04:00,2840,1,35.0,"{""<5"":0,""5-20"":0,""21-60"":1,""61-240"":0,"">240"":0}",40.5,41.484287,-71.308433,448310.0,RI,44.0,44005.0,Newport County,440050408001.0
27129,sg:3b75131616cf491f937189c285067195,Kid's Kingdom Arlington School,RI,2019-07-01T00:00:00-04:00,2019-08-01T00:00:00-04:00,2920,9,907.0,"{""<5"":0,""5-20"":1,""21-60"":1,""61-240"":0,"">240"":7}",1733.0,41.794101,-71.454931,624410.0,RI,44.0,44007.0,Providence County,440070147002.0
27292,sg:4b116cc7ca54402b8d360cc769b44ef0,New England Wireless & Steam Museum,RI,2019-07-01T00:00:00-04:00,2019-08-01T00:00:00-04:00,2818,1,5.0,"{""<5"":0,""5-20"":1,""21-60"":0,""61-240"":0,"">240"":0}",12.5,41.624282,-71.513005,712110.0,RI,44.0,44003.0,Kent County,440030209033.0
27556,sg:64c8751158884773ae9fecbf2f51c587,RE Antiques and Interiors,RI,2019-07-01T00:00:00-04:00,2019-08-01T00:00:00-04:00,2852,173,11.0,"{""<5"":12,""5-20"":89,""21-60"":24,""61-240"":13,"">240"":35}",12471.0,41.593583,-71.45608399999999,453310.0,RI,44.0,44009.0,Washington County,440090501021.0
27674,sg:7260ec8f60e64cc89e6e300913c6ae0c,Elmwood Health Center,RI,2019-07-01T00:00:00-04:00,2019-08-01T00:00:00-04:00,2907,202,96.5,"{""<5"":0,""5-20"":43,""21-60"":33,""61-240"":79,"">240"":47}",25043.5,41.806761,-71.425405,623312.0,RI,44.0,44007.0,Providence County,440070003005.0
28005,sg:9098f44a0b244375bdd2bcc685b64255,Dot's Dairy Bar,RI,2019-07-01T00:00:00-04:00,2019-08-01T00:00:00-04:00,2861,154,20.0,"{""<5"":4,""5-20"":82,""21-60"":49,""61-240"":13,"">240"":6}",6416.0,41.89355,-71.354295,722515.0,RI,44.0,44007.0,Providence County,440070156001.0
28433,sg:bbe17ca591a340bbb9937aabf9a9dff2,Cumberland Farms,RI,2019-07-01T00:00:00-04:00,2019-08-01T00:00:00-04:00,2818,131,7.0,"{""<5"":2,""5-20"":100,""21-60"":17,""61-240"":6,"">240"":6}",4286.5,41.641067,-71.4688,447110.0,RI,44.0,44003.0,Kent County,440030209042.0
28721,sg:d8c25ac9f752446799a6343bdeb8f2e7,Wood River Golf,RI,2019-07-01T00:00:00-04:00,2019-08-01T00:00:00-04:00,2832,132,44.5,"{""<5"":1,""5-20"":43,""21-60"":32,""61-240"":48,"">240"":8}",10980.0,41.449375,-71.720924,713910.0,RI,44.0,44009.0,Washington County,440090507004.0
28816,sg:e134ec8729814844b7ddad8b7d14bea8,Coletta's Collision Center,RI,2019-07-01T00:00:00-04:00,2019-08-01T00:00:00-04:00,2905,71,11.0,"{""<5"":6,""5-20"":38,""21-60"":14,""61-240"":7,"">240"":6}",3550.5,41.805232000000004,-71.40329399999999,811121.0,RI,44.0,44007.0,Providence County,440070006001.0
28869,sg:e8584241f5d44c0cad2f9ee6182f6323,West Davisville Solar,RI,2019-07-01T00:00:00-04:00,2019-08-01T00:00:00-04:00,2852,14,129.5,"{""<5"":1,""5-20"":2,""21-60"":4,""61-240"":2,"">240"":5}",1690.5,41.603458,-71.47772900000001,221114.0,RI,44.0,44009.0,Washington County,440090501032.0
29395,sg:1b209bcaa8ab4fc694264364b2497f64,LA Cafe,RI,2019-07-01T00:00:00-04:00,2019-08-01T00:00:00-04:00,2893,284,12.0,"{""<5"":14,""5-20"":156,""21-60"":53,""61-240"":47,"">240"":14}",14565.0,41.700653,-71.528766,722511.0,RI,44.0,44003.0,Kent County,440030203005.0
29828,sg:4081a80d7c994bc39b5c9e9af456a648,Gregory's Optical,RI,2019-07-01T00:00:00-04:00,2019-08-01T00:00:00-04:00,2903,21,50.0,"{""<5"":0,""5-20"":8,""21-60"":3,""61-240"":8,"">240"":2}",1905.5,41.819362,-71.397897,446130.0,RI,44.0,44007.0,Providence County,440070037002.0
29865,sg:447b05f776ed4f9a9b66292c73926d8a,CosmoProf,RI,2019-07-01T00:00:00-04:00,2019-08-01T00:00:00-04:00,2895,5,12.0,"{""<5"":0,""5-20"":4,""21-60"":1,""61-240"":0,"">240"":0}",90.5,42.015264,-71.466601,423850.0,RI,44.0,44007.0,Providence County,440070184003.0
29894,sg:460673f1d8974a12baa055a479cd382a,Pires Auto School,RI,2019-07-01T00:00:00-04:00,2019-08-01T00:00:00-04:00,2860,162,26.0,"{""<5"":2,""5-20"":68,""21-60"":44,""61-240"":23,"">240"":25}",12098.5,41.890692,-71.372715,453310.0,RI,44.0,44007.0,Providence County,440070154001.0
30230,sg:6818f3c9fccc44d0beec0db7c44849c6,Pick Pockets,RI,2019-07-01T00:00:00-04:00,2019-08-01T00:00:00-04:00,2842,1,883.0,"{""<5"":0,""5-20"":0,""21-60"":0,""61-240"":0,"">240"":1}",240.0,41.522259999999996,-71.283845,722511.0,RI,44.0,44005.0,Newport County,440050403041.0
30231,sg:681c12a632544de788edc70c01544cc0,Kindermusik of Aquidneck Island,RI,2019-07-01T00:00:00-04:00,2019-08-01T00:00:00-04:00,2871,12,83.0,"{""<5"":0,""5-20"":3,""21-60"":0,""61-240"":9,"">240"":0}",1392.0,41.584229,-71.255418,713940.0,RI,44.0,44005.0,Newport County,440050401036.0
30407,sg:78fb0e3f3f254000b98d87969ec83046,Outbound Hounds,RI,2019-07-01T00:00:00-04:00,2019-08-01T00:00:00-04:00,2905,78,25.0,"{""<5"":0,""5-20"":33,""21-60"":19,""61-240"":10,"">240"":16}",6527.0,41.772452,-71.403079,812910.0,RI,44.0,44007.0,Providence County,440070134004.0
30585,sg:8b7ba98b35224820a26d298a808318c8,Balasco's Garage,RI,2019-07-01T00:00:00-04:00,2019-08-01T00:00:00-04:00,2920,83,34.0,"{""<5"":1,""5-20"":31,""21-60"":15,""61-240"":28,"">240"":8}",7131.5,41.778484999999996,-71.466337,441310.0,RI,44.0,44007.0,Providence County,440070143002.0
30614,sg:8dcae244afba41bfb101861af2551794,Bike On com,RI,2019-07-01T00:00:00-04:00,2019-08-01T00:00:00-04:00,2886,29,181.0,"{""<5"":0,""5-20"":6,""21-60"":3,""61-240"":6,"">240"":14}",4459.5,41.698570000000004,-71.455402,451110.0,RI,44.0,44003.0,Kent County,440030220002.0
31339,sg:d621cd2b397e4539b319a5ea5e98d9fa,Olympia Sports,RI,2019-07-01T00:00:00-04:00,2019-08-01T00:00:00-04:00,2891,479,21.0,"{""<5"":15,""5-20"":217,""21-60"":130,""61-240"":68,"">240"":49}",30009.0,41.357564,-71.809717,451110.0,RI,44.0,44009.0,Washington County,440090508022.0
31355,sg:d90b7cca034b4e5182cef2b10922ca9e,Woonsocket Harris Public Library,RI,2019-07-01T00:00:00-04:00,2019-08-01T00:00:00-04:00,2895,203,25.0,"{""<5"":1,""5-20"":87,""21-60"":70,""61-240"":39,"">240"":6}",11234.5,42.005423,-71.508214,519120.0,RI,44.0,44007.0,Providence County,440070180002.0
31370,sg:db220aacadd14b418b4e1c5253ccd964,Stop &amp Shop,RI,2019-07-01T00:00:00-04:00,2019-08-01T00:00:00-04:00,2864,121,16.0,"{""<5"":0,""5-20"":84,""21-60"":25,""61-240"":8,"">240"":4}",4226.5,41.913277,-71.405897,445110.0,,,,,
31870,sg:0c06e3d033734ee298479d29a1085b05,Greek Orthodox Annunciation Church,RI,2019-07-01T00:00:00-04:00,2019-08-01T00:00:00-04:00,2920,38,33.0,"{""<5"":1,""5-20"":12,""21-60"":8,""61-240"":11,"">240"":6}",3572.0,41.771271,-71.470965,722511.0,RI,44.0,44007.0,Providence County,440070143004.0
31908,sg:0edb86b4aa14436baabbe9c2ac60e4d0,Beacon Shipping Logistics,RI,2019-07-01T00:00:00-04:00,2019-08-01T00:00:00-04:00,2888,176,119.0,"{""<5"":5,""5-20"":41,""21-60"":24,""61-240"":77,"">240"":29}",20045.5,41.756619,-71.433596,447110.0,RI,44.0,44003.0,Kent County,440030211002.0
32464,sg:4137dd608446492b8f9236f4bf07aeeb,Chester W Barrows School,RI,2019-07-01T00:00:00-04:00,2019-08-01T00:00:00-04:00,2905,138,46.5,"{""<5"":2,""5-20"":44,""21-60"":31,""61-240"":43,"">240"":18}",12602.0,41.773234,-71.407149,611110.0,RI,44.0,44007.0,Providence County,440070135005.0
32731,sg:5a951ad2f46d41a68c8f134b2afd7121,New England Power Wash,RI,2019-07-01T00:00:00-04:00,2019-08-01T00:00:00-04:00,2919,112,25.0,"{""<5"":1,""5-20"":44,""21-60"":25,""61-240"":30,"">240"":12}",8960.0,41.803687,-71.525159,811192.0,RI,44.0,44007.0,Providence County,440070125003.0
33057,sg:78e1cd97412e4137946b93ad6a502f7d,OceanPoint Insurance Agency,RI,2019-07-01T00:00:00-04:00,2019-08-01T00:00:00-04:00,2806,1,258.0,"{""<5"":0,""5-20"":0,""21-60"":0,""61-240"":0,"">240"":1}",240.0,41.736065999999994,-71.306722,524210.0,RI,44.0,44001.0,Bristol County,440010304003.0
33703,sg:b9d0ef4b46ef419184256e812a464011,Shell Oil,RI,2019-07-01T00:00:00-04:00,2019-08-01T00:00:00-04:00,2886,968,6.0,"{""<5"":80,""5-20"":785,""21-60"":42,""61-240"":23,"">240"":38}",24295.0,41.716482,-71.462733,447110.0,RI,44.0,44003.0,Kent County,440030221002.0
33801,sg:c390685049574e55b2ea95332731f67c,El Taco Guerrero,RI,2019-07-01T00:00:00-04:00,2019-08-01T00:00:00-04:00,2908,154,30.0,"{""<5"":3,""5-20"":56,""21-60"":35,""61-240"":30,"">240"":30}",13840.0,41.825469,-71.439858,722511.0,RI,44.0,44007.0,Providence County,440070022002.0
34063,sg:dc10bde978294e36bf2d2ddbe773e161,CrossFit,RI,2019-07-01T00:00:00-04:00,2019-08-01T00:00:00-04:00,2892,55,242.0,"{""<5"":0,""5-20"":12,""21-60"":6,""61-240"":8,"">240"":29}",8557.0,41.480925,-71.56914599999999,713940.0,RI,44.0,44009.0,Washington County,440090513061.0
34450,sg:02767c89a3854efdadaab03367f3e2f5,Riverside Optical Shop,RI,2019-07-01T00:00:00-04:00,2019-08-01T00:00:00-04:00,2915,127,49.0,"{""<5"":6,""5-20"":44,""21-60"":23,""61-240"":30,"">240"":24}",11771.5,41.772874,-71.363309,446130.0,RI,44.0,44007.0,Providence County,440070106003.0
34511,sg:0728425957704cc89ddf6b8ae82e9014,B Souza Horticultural,RI,2019-07-01T00:00:00-04:00,2019-08-01T00:00:00-04:00,2882,9,94.0,"{""<5"":0,""5-20"":1,""21-60"":2,""61-240"":5,"">240"":1}",1086.0,41.424128,-71.483786,444130.0,RI,44.0,44009.0,Washington County,440090515044.0
34628,sg:1285bf39075c4af5ad56739063919b6e,Providence Fire Department Engine Company 14 Ladder Company 6 Rescue 6,RI,2019-07-01T00:00:00-04:00,2019-08-01T00:00:00-04:00,2909,132,151.5,"{""<5"":0,""5-20"":16,""21-60"":21,""61-240"":50,"">240"":45}",19375.5,41.824298999999996,-71.437839,922160.0,RI,44.0,44007.0,Providence County,440070019001.0
34789,sg:22498b00acff452782eb64d184fd3cf8,Pane E Vino,RI,2019-07-01T00:00:00-04:00,2019-08-01T00:00:00-04:00,2903,227,96.0,"{""<5"":5,""5-20"":33,""21-60"":36,""61-240"":121,"">240"":32}",27773.5,41.823984,-71.429741,722511.0,RI,44.0,44007.0,Providence County,440070009001.0
35894,sg:8ed81481a4e8428083bd9c3eaa979c50,Big 10 Tires,RI,2019-07-01T00:00:00-04:00,2019-08-01T00:00:00-04:00,2904,111,36.0,"{""<5"":3,""5-20"":34,""21-60"":30,""61-240"":22,"">240"":22}",10238.5,41.854490999999996,-71.40114399999999,441310.0,RI,44.0,44007.0,Providence County,440070033004.0
35912,sg:9116b19e5e4a4db598d68c69838b1db5,Recreation Center,RI,2019-07-01T00:00:00-04:00,2019-08-01T00:00:00-04:00,2908,389,78.0,"{""<5"":1,""5-20"":72,""21-60"":99,""61-240"":192,"">240"":25}",39808.0,41.844649,-71.457552,712190.0,RI,44.0,44007.0,Providence County,440070024005.0
36096,sg:a4505f6891cb448f8975abda7a900224,C & C Fiberglass Components,RI,2019-07-01T00:00:00-04:00,2019-08-01T00:00:00-04:00,2809,79,227.0,"{""<5"":1,""5-20"":8,""21-60"":4,""61-240"":28,"">240"":38}",13598.5,41.697016,-71.266998,441222.0,RI,44.0,44001.0,Bristol County,440010309021.0
36118,sg:a5ef7e60a2204ccdb11ca8c2549f32d7,Airport Nursery,RI,2019-07-01T00:00:00-04:00,2019-08-01T00:00:00-04:00,2886,6,58.0,"{""<5"":0,""5-20"":0,""21-60"":3,""61-240"":1,"">240"":2}",752.0,41.710747,-71.44135899999999,811411.0,RI,44.0,44003.0,Kent County,440039800001.0
36897,sg:f42d14144ec74f08997ed61892411c5e,Westerly Private Guitar Instruction,RI,2019-07-01T00:00:00-04:00,2019-08-01T00:00:00-04:00,2891,268,29.0,"{""<5"":4,""5-20"":84,""21-60"":114,""61-240"":55,"">240"":11}",16594.5,41.367129999999996,-71.81983199999999,451140.0,RI,44.0,44009.0,Washington County,440090508021.0
37320,sg:19e4db1d8d354a73851725a771b9fbce,BAK 2 Basics,RI,2019-07-01T00:00:00-04:00,2019-08-01T00:00:00-04:00,2886,39,222.0,"{""<5"":1,""5-20"":4,""21-60"":6,""61-240"":14,"">240"":14}",5762.5,41.707415000000005,-71.452197,722515.0,RI,44.0,44003.0,Kent County,440030221004.0
37324,sg:1a85f235c9a04b51b25e422f87f2d9ea,Audio Dezign,RI,2019-07-01T00:00:00-04:00,2019-08-01T00:00:00-04:00,2842,43,8.0,"{""<5"":2,""5-20"":34,""21-60"":6,""61-240"":1,"">240"":0}",823.5,41.515732,-71.30125100000001,443142.0,RI,44.0,44005.0,Newport County,440050403021.0
37767,sg:44352a803c764b06ac45c19d44b3b600,Rhode Island Billiard Bar & Bistro,RI,2019-07-01T00:00:00-04:00,2019-08-01T00:00:00-04:00,2911,84,84.0,"{""<5"":2,""5-20"":9,""21-60"":23,""61-240"":32,"">240"":18}",10185.0,41.857495,-71.484468,722511.0,RI,44.0,44007.0,Providence County,440070121041.0
37842,sg:49fdd03ab03a4560a7b22fc143bb9f5c,Hilltop Cafe Pods's Pizza,RI,2019-07-01T00:00:00-04:00,2019-08-01T00:00:00-04:00,2891,144,67.0,"{""<5"":2,""5-20"":19,""21-60"":40,""61-240"":55,"">240"":28}",16860.0,41.381467,-71.831739,722511.0,RI,44.0,44009.0,Washington County,440090508015.0
38688,sg:9ab12c997564452abd5662ecf75f5d76,Aquidneck Island Insurance,RI,2019-07-01T00:00:00-04:00,2019-08-01T00:00:00-04:00,2842,1,8.0,"{""<5"":0,""5-20"":1,""21-60"":0,""61-240"":0,"">240"":0}",12.5,41.506786,-71.28354200000001,524210.0,RI,44.0,44005.0,Newport County,440050404002.0
38826,sg:a83a5b6487404cfbb9f11dd30afa91ac,Curryland,RI,2019-07-01T00:00:00-04:00,2019-08-01T00:00:00-04:00,2840,357,41.0,"{""<5"":10,""5-20"":117,""21-60"":78,""61-240"":98,"">240"":54}",32355.5,41.508212,-71.317128,722511.0,RI,44.0,44005.0,Newport County,440050405001.0
38970,sg:b7233067f44d4f86be126581e6491e30,King's Coat Sealcoating,RI,2019-07-01T00:00:00-04:00,2019-08-01T00:00:00-04:00,2822,2,6.5,"{""<5"":0,""5-20"":2,""21-60"":0,""61-240"":0,"">240"":0}",25.0,41.575158,-71.66736999999999,444130.0,RI,44.0,44009.0,Washington County,440090505001.0
39063,sg:bf851c95699746ed9197664dc8d1fc76,Rubinstein & Ducoff,RI,2019-07-01T00:00:00-04:00,2019-08-01T00:00:00-04:00,2906,44,80.5,"{""<5"":1,""5-20"":10,""21-60"":7,""61-240"":9,"">240"":17}",5845.5,41.827971000000005,-71.393097,621210.0,RI,44.0,44007.0,Providence County,440070036012.0
39265,sg:d238e79b6d6349b090f6a28e7d3b5b9e,Fisher Auto Parts,RI,2019-07-01T00:00:00-04:00,2019-08-01T00:00:00-04:00,2907,155,60.0,"{""<5"":3,""5-20"":57,""21-60"":18,""61-240"":35,"">240"":42}",16796.5,41.790468,-71.424077,441310.0,RI,44.0,44007.0,Providence County,440070015002.0
39334,sg:d7eec0276b0e482da0b1a3ddc6a77909,Little Compton Fire Department,RI,2019-07-01T00:00:00-04:00,2019-08-01T00:00:00-04:00,2837,14,21.0,"{""<5"":1,""5-20"":5,""21-60"":6,""61-240"":0,"">240"":2}",788.0,41.510249,-71.168584,922160.0,RI,44.0,44005.0,Newport County,440050414001.0
39435,sg:e423ad361bbb400c9870abf654cc734f,Spinworks,RI,2019-07-01T00:00:00-04:00,2019-08-01T00:00:00-04:00,2864,828,32.0,"{""<5"":8,""5-20"":161,""21-60"":489,""61-240"":158,"">240"":12}",48496.0,41.958064,-71.443506,713940.0,RI,44.0,44007.0,Providence County,440070114034.0
39487,sg:e8304a12e2564b1ab8c86fb4532ec8aa,My B F F Resort,RI,2019-07-01T00:00:00-04:00,2019-08-01T00:00:00-04:00,2919,99,9.0,"{""<5"":7,""5-20"":62,""21-60"":18,""61-240"":11,"">240"":1}",3417.0,41.825024,-71.471274,453910.0,RI,44.0,44007.0,Providence County,440070124011.0
39517,sg:ebfe384ba00446188d0f37ced4839be3,B and C Liquors,RI,2019-07-01T00:00:00-04:00,2019-08-01T00:00:00-04:00,2917,92,6.5,"{""<5"":12,""5-20"":71,""21-60"":6,""61-240"":2,"">240"":1}",1701.5,41.868071,-71.505191,445310.0,RI,44.0,44007.0,Providence County,440070126024.0
39601,sg:f3fe7e767d594315b53a2d6f08506c45,Ben's Furniture Co,RI,2019-07-01T00:00:00-04:00,2019-08-01T00:00:00-04:00,2840,1,21.0,"{""<5"":0,""5-20"":0,""21-60"":1,""61-240"":0,"">240"":0}",40.5,41.488817,-71.31501800000001,442110.0,RI,44.0,44005.0,Newport County,440050410001.0
39740,sg:03a7b6cbd27f48cfb026feac88fe483d,West Warwick Fire Department Station 1 Headquarters,RI,2019-07-01T00:00:00-04:00,2019-08-01T00:00:00-04:00,2893,76,68.5,"{""<5"":0,""5-20"":19,""21-60"":16,""61-240"":27,"">240"":14}",8309.0,41.706540000000004,-71.522786,922160.0,RI,44.0,44003.0,Kent County,440030203003.0
39987,sg:179d1cb9329b4c6e83272a2e20643b91,Hair Designs,RI,2019-07-01T00:00:00-04:00,2019-08-01T00:00:00-04:00,2886,8,24.0,"{""<5"":0,""5-20"":3,""21-60"":4,""61-240"":1,"">240"":0}",350.0,41.722121,-71.441643,812112.0,RI,44.0,44003.0,Kent County,440030211004.0
40374,sg:3bebd51d8b7d413ba576aacf42dddf2a,Petro Home Services,RI,2019-07-01T00:00:00-04:00,2019-08-01T00:00:00-04:00,2895,13,10.0,"{""<5"":1,""5-20"":7,""21-60"":3,""61-240"":2,"">240"":0}",512.5,42.009027,-71.529609,221210.0,RI,44.0,44007.0,Providence County,440070174001.0
40980,sg:70780cd2eac944f7818872f3375ac04e,Universe Bar & Cafe,RI,2019-07-01T00:00:00-04:00,2019-08-01T00:00:00-04:00,2904,114,42.5,"{""<5"":3,""5-20"":27,""21-60"":48,""61-240"":25,"">240"":11}",8691.5,41.869026,-71.423787,722511.0,RI,44.0,44007.0,Providence County,440070118001.0
41290,sg:8d02d428e05c4f4f88fec7f72459ae53,Advance America Cash Advance Center,RI,2019-07-01T00:00:00-04:00,2019-08-01T00:00:00-04:00,2919,8,11.0,"{""<5"":0,""5-20"":7,""21-60"":1,""61-240"":0,"">240"":0}",128.0,41.825585,-71.499976,522291.0,RI,44.0,44007.0,Providence County,440070124014.0
41749,sg:b71f5bd32cf742dcafdc516e83c62521,White Dog Distilling,RI,2019-07-01T00:00:00-04:00,2019-08-01T00:00:00-04:00,2860,4,15.5,"{""<5"":0,""5-20"":3,""21-60"":0,""61-240"":0,"">240"":1}",277.5,41.872713,-71.407493,722515.0,RI,44.0,44007.0,Providence County,440070163001.0
41758,sg:b82b2eb234ff49c4b0348de95ceb90d5,Magniventris,RI,2019-07-01T00:00:00-04:00,2019-08-01T00:00:00-04:00,2905,152,53.5,"{""<5"":3,""5-20"":42,""21-60"":36,""61-240"":36,"">240"":35}",15808.5,41.787158000000005,-71.39695,448140.0,RI,44.0,44007.0,Providence County,440070001013.0
41963,sg:cb4c659565974e8e983503bc2219b6b8,Caribe Super Market,RI,2019-07-01T00:00:00-04:00,2019-08-01T00:00:00-04:00,2904,404,29.0,"{""<5"":11,""5-20"":168,""21-60"":79,""61-240"":78,"">240"":68}",33386.0,41.853419,-71.420053,445110.0,RI,44.0,44007.0,Providence County,440070029002.0
42267,sg:e7b2753e11fb40b096190ddb42fd9751,United Brothers Synagogue,RI,2019-07-01T00:00:00-04:00,2019-08-01T00:00:00-04:00,2809,12,159.0,"{""<5"":0,""5-20"":3,""21-60"":2,""61-240"":2,"">240"":5}",1619.5,41.668913,-71.273425,813110.0,RI,44.0,44001.0,Bristol County,440010307004.0
42900,sg:22192dcf4a5d4209b0b6a16d267bfa42,Pakarang Exquisite Thai Cuisine,RI,2019-07-01T00:00:00-04:00,2019-08-01T00:00:00-04:00,2903,158,151.0,"{""<5"":1,""5-20"":27,""21-60"":22,""61-240"":76,"">240"":32}",20349.0,41.821846,-71.40486,722511.0,RI,44.0,44007.0,Providence County,440070037002.0
43090,sg:33bdad952de84dbe839baf172a64590f,Alexanders Uniforms,RI,2019-07-01T00:00:00-04:00,2019-08-01T00:00:00-04:00,2920,214,67.5,"{""<5"":2,""5-20"":59,""21-60"":42,""61-240"":67,"">240"":44}",23087.0,41.756817,-71.447822,453310.0,RI,44.0,44007.0,Providence County,440070139003.0
44686,sg:d08693813dd74507a2970cfe3fc2d03b,WED Shun III LLC,RI,2019-07-01T00:00:00-04:00,2019-08-01T00:00:00-04:00,2919,10,9.0,"{""<5"":0,""5-20"":8,""21-60"":2,""61-240"":0,"">240"":0}",181.0,41.799061,-71.549306,221111.0,RI,44.0,44007.0,Providence County,440070122003.0
44702,sg:d1a85b39345c4b97aae9e404ea066520,Inferno Audio,RI,2019-07-01T00:00:00-04:00,2019-08-01T00:00:00-04:00,2895,143,12.0,"{""<5"":11,""5-20"":73,""21-60"":37,""61-240"":19,"">240"":3}",6018.0,42.005218,-71.51100799999999,443142.0,RI,44.0,44007.0,Providence County,440070180002.0
44919,sg:e5cd1a7ca470447dbda1fd9cf55d6232,J C's of Watch Hill,RI,2019-07-01T00:00:00-04:00,2019-08-01T00:00:00-04:00,2891,213,24.0,"{""<5"":5,""5-20"":90,""21-60"":50,""61-240"":39,"">240"":29}",15992.0,41.310518,-71.857351,448140.0,RI,44.0,44009.0,Washington County,440090510001.0
45252,sg:05e6889283c14b15bf19b817bb72a188,Bonetown Burgers & BBQ,RI,2019-07-01T00:00:00-04:00,2019-08-01T00:00:00-04:00,2920,144,40.0,"{""<5"":1,""5-20"":45,""21-60"":50,""61-240"":47,"">240"":1}",9903.5,41.78241,-71.466747,722511.0,RI,44.0,44007.0,Providence County,440070147005.0
45704,sg:2d6711eaa3a64aac96569a1024d15d01,Kingston Congregational Church,RI,2019-07-01T00:00:00-04:00,2019-08-01T00:00:00-04:00,2881,73,81.0,"{""<5"":1,""5-20"":16,""21-60"":15,""61-240"":21,"">240"":20}",8770.5,41.480059999999995,-71.525512,813110.0,RI,44.0,44009.0,Washington County,440090513063.0
45849,sg:3a5b3a05ed584d5b9617d28956b87b6f,Bay Marina,RI,2019-07-01T00:00:00-04:00,2019-08-01T00:00:00-04:00,2889,65,14.0,"{""<5"":1,""5-20"":38,""21-60"":10,""61-240"":7,"">240"":9}",4096.0,41.698153000000005,-71.38810500000001,441222.0,RI,44.0,44003.0,Kent County,440030217001.0
46030,sg:48bbaa8444844dcb84ec6e090a96a87f,YMCA,RI,2019-07-01T00:00:00-04:00,2019-08-01T00:00:00-04:00,2816,194,37.0,"{""<5"":2,""5-20"":76,""21-60"":47,""61-240"":57,"">240"":12}",14317.0,41.679024,-71.671625,624190.0,RI,44.0,44003.0,Kent County,440030207022.0
46082,sg:4bed263254494b708e71e821dac6bf6c,Jeff Allen's Latin and Ballroom Dance Studio,RI,2019-07-01T00:00:00-04:00,2019-08-01T00:00:00-04:00,2920,218,45.0,"{""<5"":1,""5-20"":42,""21-60"":94,""61-240"":65,"">240"":16}",17957.0,41.784886,-71.473382,713940.0,RI,44.0,44007.0,Providence County,440070148003.0
46211,sg:58cb52622ebd4cc79ad069f39fa4c0a5,Oop,RI,2019-07-01T00:00:00-04:00,2019-08-01T00:00:00-04:00,2906,74,44.0,"{""<5"":1,""5-20"":18,""21-60"":25,""61-240"":19,"">240"":11}",6739.5,41.827464,-71.39263100000001,452319.0,RI,44.0,44007.0,Providence County,440070036012.0
46249,sg:5c7a19dacad7496e92c0c0a81c15f9dc,Cranston Fire Department Station 2,RI,2019-07-01T00:00:00-04:00,2019-08-01T00:00:00-04:00,2910,197,104.0,"{""<5"":1,""5-20"":44,""21-60"":36,""61-240"":49,"">240"":67}",25465.0,41.779683,-71.43509399999999,922160.0,RI,44.0,44007.0,Providence County,440070140001.0
46418,sg:6cc36a6a86a64b28b3fc9a8f7bbbaf0a,Wally's Tap House,RI,2019-07-01T00:00:00-04:00,2019-08-01T00:00:00-04:00,2878,124,56.0,"{""<5"":4,""5-20"":37,""21-60"":26,""61-240"":55,"">240"":2}",10283.0,41.624887,-71.146982,722511.0,RI,44.0,44005.0,Newport County,440050417021.0
46833,sg:91eec752a4b8422687ba342f03f8362c,1 Alpha And Omega Cleaning Services,RI,2019-07-01T00:00:00-04:00,2019-08-01T00:00:00-04:00,2886,220,77.5,"{""<5"":4,""5-20"":48,""21-60"":47,""61-240"":67,"">240"":54}",25557.0,41.720009999999995,-71.47284300000001,561740.0,RI,44.0,44003.0,Kent County,440030223003.0
47007,sg:a3409a431fa34dcba83d5ef9431fc86a,Olympic Physical Therapy & Foot Orthotics,RI,2019-07-01T00:00:00-04:00,2019-08-01T00:00:00-04:00,2809,9,26.0,"{""<5"":0,""5-20"":3,""21-60"":2,""61-240"":0,"">240"":4}",1078.5,41.670056,-71.27620999999999,446199.0,RI,44.0,44001.0,Bristol County,440010307004.0
47073,sg:a9c4aef88b2a46ca986489e2a0060d30,Ardente Supply Co Inc,RI,2019-07-01T00:00:00-04:00,2019-08-01T00:00:00-04:00,2908,125,18.0,"{""<5"":5,""5-20"":59,""21-60"":24,""61-240"":17,"">240"":20}",9080.5,41.827901000000004,-71.436596,444130.0,RI,44.0,44007.0,Providence County,440070022002.0
47131,sg:af4fa215b8ff47eca34f07c0cab30695,Robin Hollow Farm,RI,2019-07-01T00:00:00-04:00,2019-08-01T00:00:00-04:00,2874,1,558.0,"{""<5"":0,""5-20"":0,""21-60"":0,""61-240"":0,"">240"":1}",240.0,41.517711,-71.451385,453110.0,RI,44.0,44009.0,Washington County,440090504023.0
47414,sg:c910cb9ab39149438846530bc597f053,El Paso Restaurant,RI,2019-07-01T00:00:00-04:00,2019-08-01T00:00:00-04:00,2863,150,30.0,"{""<5"":3,""5-20"":58,""21-60"":31,""61-240"":27,"">240"":31}",13491.5,41.896822,-71.388819,722511.0,RI,44.0,44007.0,Providence County,440070109003.0
47572,sg:d8c5b89fa43f4a83997bca8a71a10a98,Nicholas A Ferri Middle,RI,2019-07-01T00:00:00-04:00,2019-08-01T00:00:00-04:00,2919,42,225.5,"{""<5"":0,""5-20"":2,""21-60"":1,""61-240"":25,"">240"":14}",7188.0,41.829582,-71.502307,611110.0,RI,44.0,44007.0,Providence County,440070124014.0
47694,sg:e5cdb024c1e44e0a982f910b86439ab7,J's Deli,RI,2019-07-01T00:00:00-04:00,2019-08-01T00:00:00-04:00,2864,4,105.0,"{""<5"":0,""5-20"":2,""21-60"":0,""61-240"":1,"">240"":1}",415.5,41.954081,-71.402109,722511.0,RI,44.0,44007.0,Providence County,440070114013.0
47998,sg:03c596d51b5e4390acfe8ba121e9339a,Barrington Music,RI,2019-07-01T00:00:00-04:00,2019-08-01T00:00:00-04:00,2806,16,33.0,"{""<5"":1,""5-20"":5,""21-60"":5,""61-240"":4,"">240"":1}",1109.5,41.752932,-71.295172,451140.0,RI,44.0,44001.0,Bristol County,440010303002.0
48357,sg:21951e25df004b199bdee851112096ac,Long Wharf General Store,RI,2019-07-01T00:00:00-04:00,2019-08-01T00:00:00-04:00,2840,314,17.5,"{""<5"":15,""5-20"":178,""21-60"":93,""61-240"":25,"">240"":3}",10511.5,41.490035999999996,-71.316335,453220.0,RI,44.0,44005.0,Newport County,440050411003.0
48368,sg:226ad1a6026e4140b5f916cb5b0b1268,Fred's Place,RI,2019-07-01T00:00:00-04:00,2019-08-01T00:00:00-04:00,2920,8,88.0,"{""<5"":0,""5-20"":2,""21-60"":0,""61-240"":4,"">240"":2}",1107.0,41.783569,-71.46491800000001,812112.0,RI,44.0,44007.0,Providence County,440070147005.0
48531,sg:325b33e1ec7949a79247fd1e52878b1e,Ocean State Credit Union,RI,2019-07-01T00:00:00-04:00,2019-08-01T00:00:00-04:00,2816,130,10.0,"{""<5"":6,""5-20"":76,""21-60"":17,""61-240"":11,"">240"":20}",8109.0,41.673959,-71.59350699999999,522110.0,RI,44.0,44003.0,Kent County,440030207032.0
48800,sg:49d51adceb354f26aceb830c81631eea,Allstate Insurance,RI,2019-07-01T00:00:00-04:00,2019-08-01T00:00:00-04:00,2904,34,65.5,"{""<5"":0,""5-20"":8,""21-60"":8,""61-240"":10,"">240"":8}",3849.0,41.869706,-71.42103,524210.0,RI,44.0,44007.0,Providence County,440070118001.0
49227,sg:71e9f4b421f94f7cb895a1c8b432c9a0,Adeline's Speakeasy Kitchen Bar,RI,2019-07-01T00:00:00-04:00,2019-08-01T00:00:00-04:00,2864,24,74.5,"{""<5"":0,""5-20"":0,""21-60"":7,""61-240"":16,"">240"":1}",2931.5,41.957378999999996,-71.443722,722511.0,RI,44.0,44007.0,Providence County,440070114034.0
49537,sg:8d3b8c91da9847b8b51885132e61c881,City Girl Cupcake,RI,2019-07-01T00:00:00-04:00,2019-08-01T00:00:00-04:00,2903,105,41.0,"{""<5"":1,""5-20"":31,""21-60"":27,""61-240"":29,"">240"":17}",9928.0,41.823274,-71.410945,311811.0,RI,44.0,44007.0,Providence County,440070008003.0
49708,sg:9c26a3f9c39f4481a47d9f194d83637e,147 Market And Deli,RI,2019-07-01T00:00:00-04:00,2019-08-01T00:00:00-04:00,2860,182,79.0,"{""<5"":7,""5-20"":41,""21-60"":35,""61-240"":48,"">240"":51}",21411.5,41.870746000000004,-71.378529,722511.0,RI,44.0,44007.0,Providence County,440070167002.0
49917,sg:b218858b97fa479094e08f063dee64de,The Charlestown Rathskeller,RI,2019-07-01T00:00:00-04:00,2019-08-01T00:00:00-04:00,2813,653,72.0,"{""<5"":5,""5-20"":72,""21-60"":201,""61-240"":355,"">240"":20}",67280.5,41.424076,-71.613175,722511.0,RI,44.0,44009.0,Washington County,440090511021.0
50387,sg:e3139e8498a84f13817eeba68a843544,Marcie's Pet Grooming,RI,2019-07-01T00:00:00-04:00,2019-08-01T00:00:00-04:00,2896,91,28.0,"{""<5"":1,""5-20"":30,""21-60"":45,""61-240"":11,"">240"":4}",4815.5,41.997706,-71.561952,812910.0,RI,44.0,44007.0,Providence County,440070128013.0
50505,sg:f02262ca908d4851966951842067c1b4,Village Collision Center,RI,2019-07-01T00:00:00-04:00,2019-08-01T00:00:00-04:00,2893,52,233.5,"{""<5"":0,""5-20"":9,""21-60"":4,""61-240"":19,"">240"":20}",7934.0,41.724552,-71.489756,811121.0,RI,44.0,44003.0,Kent County,440030205001.0
50516,sg:f12cf9a6ada848e79dc664614bec46bb,Supreme Cheese Pizzeria & Ristorante,RI,2019-07-01T00:00:00-04:00,2019-08-01T00:00:00-04:00,2891,219,11.0,"{""<5"":16,""5-20"":119,""21-60"":45,""61-240"":25,"">240"":14}",10472.5,41.368463,-71.819721,722511.0,RI,44.0,44009.0,Washington County,440090508021.0
50612,sg:facb2b40fcc248f18bc812d44137e4d4,The Mediator Fellowship,RI,2019-07-01T00:00:00-04:00,2019-08-01T00:00:00-04:00,2907,130,67.0,"{""<5"":2,""5-20"":34,""21-60"":23,""61-240"":37,"">240"":34}",15090.0,41.787516,-71.425111,813110.0,RI,44.0,44007.0,Providence County,440070015003.0
50960,sg:18de5d07045d4f87b00bb88915ee1ff0,Grey Sail Brewing Co LLC,RI,2019-07-01T00:00:00-04:00,2019-08-01T00:00:00-04:00,2891,213,46.0,"{""<5"":4,""5-20"":60,""21-60"":61,""61-240"":80,"">240"":8}",17190.5,41.384921999999996,-71.832284,312120.0,RI,44.0,44009.0,Washington County,440090508015.0
51293,sg:35008a48ac554aff96e6b8aae0921d21,O'Reilly Auto Parts,RI,2019-07-01T00:00:00-04:00,2019-08-01T00:00:00-04:00,2916,96,11.5,"{""<5"":5,""5-20"":61,""21-60"":18,""61-240"":11,"">240"":1}",3399.5,41.851476,-71.353812,441310.0,RI,44.0,44007.0,Providence County,440070101021.0
51696,sg:591e134098d74d4397f876a1787d0cb4,BioScrip Infusion Services,RI,2019-07-01T00:00:00-04:00,2019-08-01T00:00:00-04:00,2917,21,149.0,"{""<5"":0,""5-20"":5,""21-60"":3,""61-240"":3,"">240"":10}",3035.5,41.929159999999996,-71.49973100000001,621111.0,RI,44.0,44007.0,Providence County,440070126025.0
51869,sg:685160efdd9d4054a00c260421297a22,Mikes Auto Collision,RI,2019-07-01T00:00:00-04:00,2019-08-01T00:00:00-04:00,2905,23,11.0,"{""<5"":2,""5-20"":11,""21-60"":5,""61-240"":4,"">240"":1}",1187.0,41.771248,-71.40499799999999,811121.0,RI,44.0,44007.0,Providence County,440070134004.0
51974,sg:723e8a18ed394c80a663d03ef28e62f7,Domenico's Barber Shop,RI,2019-07-01T00:00:00-04:00,2019-08-01T00:00:00-04:00,2904,44,76.5,"{""<5"":0,""5-20"":4,""21-60"":14,""61-240"":14,"">240"":12}",5604.0,41.851915000000005,-71.423396,812112.0,RI,44.0,44007.0,Providence County,440070029005.0
52125,sg:80a7cfe34aa44cdd976f556fff675f8a,Quality Auto Reconditioning,RI,2019-07-01T00:00:00-04:00,2019-08-01T00:00:00-04:00,2907,1,206.0,"{""<5"":0,""5-20"":0,""21-60"":0,""61-240"":1,"">240"":0}",150.5,41.808764000000004,-71.43464399999999,811192.0,RI,44.0,44007.0,Providence County,440070014003.0
52770,sg:bf1e789aaf8a45e88f4c80e82d47f12d,Tong Chinese Restaurant Buffet,RI,2019-07-01T00:00:00-04:00,2019-08-01T00:00:00-04:00,2888,44,10.5,"{""<5"":1,""5-20"":27,""21-60"":4,""61-240"":10,"">240"":2}",2487.0,41.764976000000004,-71.403743,722511.0,RI,44.0,44003.0,Kent County,440030210022.0
53700,sg:12742ea4ced0480f9be0f51bf4167ac5,Sherwin-Williams,RI,2019-07-01T00:00:00-04:00,2019-08-01T00:00:00-04:00,2904,13,12.0,"{""<5"":0,""5-20"":9,""21-60"":2,""61-240"":2,"">240"":0}",494.5,41.836669,-71.408192,444120.0,RI,44.0,44007.0,Providence County,440070031003.0
53891,sg:22dafd54bdb34ce1aa39cbf6ade39e14,Hudson Street Deli,RI,2019-07-01T00:00:00-04:00,2019-08-01T00:00:00-04:00,2909,252,167.5,"{""<5"":1,""5-20"":53,""21-60"":32,""61-240"":51,"">240"":115}",37236.5,41.813105,-71.434722,722511.0,RI,44.0,44007.0,Providence County,440070013002.0
54137,sg:395d0082e7564fbbac65dfa53a4ee922,Panaderia El Quetzal,RI,2019-07-01T00:00:00-04:00,2019-08-01T00:00:00-04:00,2909,185,16.0,"{""<5"":5,""5-20"":98,""21-60"":32,""61-240"":27,"">240"":23}",12117.0,41.818785,-71.45848199999999,311811.0,RI,44.0,44007.0,Providence County,440070018002.0
54171,sg:3c14bb16a9ae4b139303f1e9424dd1b6,Sakonnet Veterinary Hospital,RI,2019-07-01T00:00:00-04:00,2019-08-01T00:00:00-04:00,2878,149,44.0,"{""<5"":1,""5-20"":46,""21-60"":45,""61-240"":26,"">240"":31}",13753.0,41.639183,-71.204154,541940.0,RI,44.0,44005.0,Newport County,440050416021.0
54353,sg:4d009019a07e4ff5b1bfd4fa86fc161e,Marian J Mohr Library,RI,2019-07-01T00:00:00-04:00,2019-08-01T00:00:00-04:00,2919,116,48.0,"{""<5"":3,""5-20"":35,""21-60"":29,""61-240"":36,"">240"":13}",10157.5,41.830504,-71.502386,519120.0,RI,44.0,44007.0,Providence County,440070124014.0
54634,sg:66cf66697a2849da8e3f44a2c14f8811,99 Restaurants,RI,2019-07-01T00:00:00-04:00,2019-08-01T00:00:00-04:00,2891,521,48.0,"{""<5"":6,""5-20"":104,""21-60"":229,""61-240"":167,"">240"":15}",39323.0,41.356491,-71.809237,722511.0,RI,44.0,44009.0,Washington County,440090508022.0
54840,sg:79431031cb104844884c4d7c320d9125,KFC,RI,2019-07-01T00:00:00-04:00,2019-08-01T00:00:00-04:00,2910,193,11.0,"{""<5"":7,""5-20"":110,""21-60"":36,""61-240"":17,"">240"":23}",10929.0,41.777893,-71.445301,722513.0,RI,44.0,44007.0,Providence County,440070137021.0
54890,sg:7e890a41e4bc4d968db7e0455b717e22,Bristol Medical Center Imaging,RI,2019-07-01T00:00:00-04:00,2019-08-01T00:00:00-04:00,2809,232,65.0,"{""<5"":2,""5-20"":31,""21-60"":76,""61-240"":64,"">240"":59}",27262.5,41.695254,-71.278529,621111.0,RI,44.0,44001.0,Bristol County,440010309021.0
55069,sg:8f8837d3afe948ada51f4b1662e253bd,Caliente Mexican Grill,RI,2019-07-01T00:00:00-04:00,2019-08-01T00:00:00-04:00,2906,102,27.0,"{""<5"":1,""5-20"":36,""21-60"":38,""61-240"":16,"">240"":11}",7039.5,41.829007,-71.400591,722511.0,RI,44.0,44007.0,Providence County,440070036011.0
55181,sg:9a8ef3a71b044240925c32996e10f502,Pep Boys,RI,2019-07-01T00:00:00-04:00,2019-08-01T00:00:00-04:00,2904,117,31.0,"{""<5"":2,""5-20"":46,""21-60"":22,""61-240"":29,"">240"":18}",10155.5,41.854499,-71.40116,441310.0,RI,44.0,44007.0,Providence County,440070033004.0
55430,sg:b3bc8ceeba1b4e4fbfc861902b5ffcd9,Jacky's Waterplace,RI,2019-07-01T00:00:00-04:00,2019-08-01T00:00:00-04:00,2903,501,61.0,"{""<5"":2,""5-20"":97,""21-60"":144,""61-240"":194,"">240"":64}",51606.5,41.827228000000005,-71.413178,722511.0,RI,44.0,44007.0,Providence County,440070008001.0
55688,sg:cd8754f3d6404e329096b0644bd2d224,Dahlia Shed,RI,2019-07-01T00:00:00-04:00,2019-08-01T00:00:00-04:00,2842,51,283.0,"{""<5"":1,""5-20"":10,""21-60"":3,""61-240"":11,"">240"":26}",8144.5,41.524547,-71.279103,453110.0,RI,44.0,44005.0,Newport County,440050403041.0
55902,sg:e497a04a7c56466e9bb1f28fa4089536,Nancy Jannitto RE MAX River's Edge,RI,2019-07-01T00:00:00-04:00,2019-08-01T00:00:00-04:00,2914,4,11.5,"{""<5"":0,""5-20"":4,""21-60"":0,""61-240"":0,"">240"":0}",50.0,41.810039,-71.355722,531210.0,RI,44.0,44007.0,Providence County,440070105011.0
56046,sg:f4396d5ee1b444a78657580139cf3ed1,Broadway Market,RI,2019-07-01T00:00:00-04:00,2019-08-01T00:00:00-04:00,2860,124,19.5,"{""<5"":8,""5-20"":55,""21-60"":28,""61-240"":13,"">240"":20}",8598.0,41.884291999999995,-71.376232,447110.0,RI,44.0,44007.0,Providence County,440070160003.0
56722,sg:2fa9eee8d3b142eebb51de6bdc5ade85,Royal Flush Havanese,RI,2019-07-01T00:00:00-04:00,2019-08-01T00:00:00-04:00,2813,4,56.5,"{""<5"":0,""5-20"":1,""21-60"":1,""61-240"":2,"">240"":0}",354.0,41.399901,-71.622485,812910.0,RI,44.0,44009.0,Washington County,440090511021.0
56846,sg:3b935f4ee7814733b835fd20bdbb695a,Ocean State Pain Management,RI,2019-07-01T00:00:00-04:00,2019-08-01T00:00:00-04:00,2895,71,42.0,"{""<5"":0,""5-20"":19,""21-60"":20,""61-240"":13,"">240"":19}",7564.0,42.005062,-71.494681,621111.0,RI,44.0,44007.0,Providence County,440070185001.0
57114,sg:53a0f7414c43407c93002986dffb14ac,Subway,RI,2019-07-01T00:00:00-04:00,2019-08-01T00:00:00-04:00,2886,145,21.0,"{""<5"":4,""5-20"":64,""21-60"":42,""61-240"":28,"">240"":7}",8405.0,41.718654,-71.486285,722513.0,RI,44.0,44003.0,Kent County,440030223002.0
57751,sg:916311f17bd74bb2b99b023831e0fafa,Pawtucket,RI,2019-07-01T00:00:00-04:00,2019-08-01T00:00:00-04:00,2861,181,210.0,"{""<5"":5,""5-20"":47,""21-60"":15,""61-240"":27,"">240"":87}",26151.0,41.893716999999995,-71.37197900000001,441110.0,RI,44.0,44007.0,Providence County,440070153001.0
57987,sg:a93c5112f00f413488fd273623552b84,Asian Gourmet,RI,2019-07-01T00:00:00-04:00,2019-08-01T00:00:00-04:00,2878,79,10.0,"{""<5"":3,""5-20"":56,""21-60"":16,""61-240"":4,"">240"":0}",1957.5,41.626503,-71.147374,722511.0,RI,44.0,44005.0,Newport County,440050417011.0
58158,sg:b7b2d501892144bcbd0411a5e9ce3cfc,Midville Golf Club,RI,2019-07-01T00:00:00-04:00,2019-08-01T00:00:00-04:00,2893,353,60.0,"{""<5"":10,""5-20"":87,""21-60"":82,""61-240"":97,"">240"":77}",37512.0,41.722849,-71.50104300000001,713910.0,RI,44.0,44003.0,Kent County,440030205002.0
58232,sg:bfead523b4e1440daaeef5725484b023,La Nuova Pizzeria,RI,2019-07-01T00:00:00-04:00,2019-08-01T00:00:00-04:00,2919,55,23.0,"{""<5"":4,""5-20"":21,""21-60"":25,""61-240"":5,"">240"":0}",2037.5,41.819219,-71.49699100000001,722511.0,RI,44.0,44007.0,Providence County,440070124015.0
58262,sg:c32fc6d5080d4ea8a8604b4397215659,Social Security,RI,2019-07-01T00:00:00-04:00,2019-08-01T00:00:00-04:00,2895,9,119.0,"{""<5"":0,""5-20"":3,""21-60"":1,""61-240"":2,"">240"":3}",1099.0,42.014839,-71.46564599999999,921190.0,RI,44.0,44007.0,Providence County,440070184003.0
58706,sg:ee2668883d0a447a86dcaa45c338e8ac,St Andrews School,RI,2019-07-01T00:00:00-04:00,2019-08-01T00:00:00-04:00,2806,286,59.5,"{""<5"":1,""5-20"":73,""21-60"":76,""61-240"":93,"">240"":43}",28309.5,41.749981,-71.324158,611110.0,RI,44.0,44001.0,Bristol County,440010302001.0
58745,sg:f260d6f8aedd4e2b8f3b86503e46419a,Hackman Edmund T Jr Optmtrst,RI,2019-07-01T00:00:00-04:00,2019-08-01T00:00:00-04:00,2888,51,51.0,"{""<5"":2,""5-20"":14,""21-60"":14,""61-240"":14,"">240"":7}",4534.0,41.738838,-71.40786700000001,446130.0,RI,44.0,44003.0,Kent County,440030213004.0
59070,sg:124c6ee3931d461cb55d6a2b83944015,Iggy's Doughboys & Chowder House,RI,2019-07-01T00:00:00-04:00,2019-08-01T00:00:00-04:00,2889,1129,41.0,"{""<5"":5,""5-20"":285,""21-60"":493,""61-240"":314,"">240"":32}",78478.5,41.684506,-71.398025,722511.0,RI,44.0,44003.0,Kent County,440030217002.0
59375,sg:3152ed8ab8f8448e85e5fd78128b78ec,Depetrillo's Pizza & Bakery,RI,2019-07-01T00:00:00-04:00,2019-08-01T00:00:00-04:00,2889,198,11.5,"{""<5"":6,""5-20"":103,""21-60"":29,""61-240"":27,"">240"":33}",14460.5,41.729341,-71.406565,722511.0,RI,44.0,44003.0,Kent County,440030214013.0
60033,sg:753f2a2af4d7443a972158f2ee433859,Murphy's Providence,RI,2019-07-01T00:00:00-04:00,2019-08-01T00:00:00-04:00,2903,274,66.0,"{""<5"":4,""5-20"":52,""21-60"":76,""61-240"":103,"">240"":39}",28599.5,41.823423999999996,-71.415705,722511.0,RI,44.0,44007.0,Providence County,440070008001.0
60075,sg:79050ad68a5f4b5eb6dcc78b5aa9987d,CVS,RI,2019-07-01T00:00:00-04:00,2019-08-01T00:00:00-04:00,2863,340,12.0,"{""<5"":17,""5-20"":205,""21-60"":52,""61-240"":25,"">240"":41}",18313.5,41.883686,-71.38656,446110.0,RI,44.0,44007.0,Providence County,440070108001.0
60157,sg:80c2d6fe293f4f779f96de9c5e9de0f3,First Baptist Church of Pawt,RI,2019-07-01T00:00:00-04:00,2019-08-01T00:00:00-04:00,2907,13,209.0,"{""<5"":0,""5-20"":0,""21-60"":1,""61-240"":6,"">240"":6}",2383.5,41.79138,-71.428021,813110.0,RI,44.0,44007.0,Providence County,440070015002.0
60278,sg:8cf94bbaf37e46bfb410fe63f1d4b1df,International Pocket Cafe Kingston,RI,2019-07-01T00:00:00-04:00,2019-08-01T00:00:00-04:00,2881,68,15.0,"{""<5"":4,""5-20"":41,""21-60"":19,""61-240"":3,"">240"":1}",1983.5,41.485749,-71.52439,722511.0,RI,44.0,44009.0,Washington County,440090514001.0
60373,sg:947373fd91c34ed6bd0ad7f3eb8c2343,Golden House,RI,2019-07-01T00:00:00-04:00,2019-08-01T00:00:00-04:00,2914,118,30.5,"{""<5"":3,""5-20"":44,""21-60"":29,""61-240"":33,"">240"":9}",8858.5,41.811598,-71.361866,722511.0,RI,44.0,44007.0,Providence County,440070105012.0
60618,sg:acdac4ec53924109b92e61f4563d130c,Dunkin',RI,2019-07-01T00:00:00-04:00,2019-08-01T00:00:00-04:00,2920,1096,19.5,"{""<5"":19,""5-20"":580,""21-60"":402,""61-240"":62,"">240"":33}",40829.5,41.754731,-71.461167,722515.0,RI,44.0,44007.0,Providence County,440070142002.0
60821,sg:c067a9b1bb3649e3971c2722db413749,Pointview Marina,RI,2019-07-01T00:00:00-04:00,2019-08-01T00:00:00-04:00,2879,154,27.0,"{""<5"":3,""5-20"":58,""21-60"":52,""61-240"":34,"">240"":7}",9635.5,41.388521000000004,-71.51769,441222.0,RI,44.0,44009.0,Washington County,440090513026.0
60982,sg:cf10227ce55c4cbb8cb094d17055c5e6,WellOne Primary Medical & Dental Care,RI,2019-07-01T00:00:00-04:00,2019-08-01T00:00:00-04:00,2859,92,45.0,"{""<5"":3,""5-20"":24,""21-60"":34,""61-240"":26,"">240"":5}",6797.5,41.956802,-71.702402,621330.0,RI,44.0,44007.0,Providence County,440070129004.0
61537,sg:030463e6c69e40f188db09329fb0009d,Abundance Coastal Designs,RI,2019-07-01T00:00:00-04:00,2019-08-01T00:00:00-04:00,2809,198,57.0,"{""<5"":1,""5-20"":55,""21-60"":46,""61-240"":62,"">240"":34}",20044.0,41.668405,-71.272577,453920.0,RI,44.0,44001.0,Bristol County,440010307003.0
61652,sg:0c952f610ee143c284d4d067b217abec,South Providence Library,RI,2019-07-01T00:00:00-04:00,2019-08-01T00:00:00-04:00,2905,92,39.5,"{""<5"":5,""5-20"":32,""21-60"":14,""61-240"":34,"">240"":7}",7776.5,41.801984999999995,-71.413684,519120.0,RI,44.0,44007.0,Providence County,440070004003.0
61688,sg:0ffa43d569c04e2f9af28e990b901943,Broaster House,RI,2019-07-01T00:00:00-04:00,2019-08-01T00:00:00-04:00,2895,224,59.5,"{""<5"":4,""5-20"":59,""21-60"":52,""61-240"":81,"">240"":28}",21764.0,42.00925,-71.51106,722511.0,RI,44.0,44007.0,Providence County,440070180001.0
61712,sg:124e9550c3d948cc93f86327b13e51e8,NAPA Auto Parts,RI,2019-07-01T00:00:00-04:00,2019-08-01T00:00:00-04:00,2898,22,8.0,"{""<5"":0,""5-20"":21,""21-60"":1,""61-240"":0,"">240"":0}",303.0,41.513762,-71.699522,441310.0,RI,44.0,44009.0,Washington County,440090506002.0
62284,sg:459090f040434926a482437fad4876e5,JP Van Regenmorter DDS,RI,2019-07-01T00:00:00-04:00,2019-08-01T00:00:00-04:00,2878,69,69.0,"{""<5"":1,""5-20"":10,""21-60"":20,""61-240"":22,"">240"":16}",8088.5,41.63779,-71.205528,621210.0,RI,44.0,44005.0,Newport County,440050416021.0
63192,sg:9b83b99fe1234810b9b6ab79c2f6f0d1,Fisher Auto Parts,RI,2019-07-01T00:00:00-04:00,2019-08-01T00:00:00-04:00,2864,46,20.5,"{""<5"":1,""5-20"":22,""21-60"":14,""61-240"":8,"">240"":1}",2288.5,41.90423,-71.39236600000001,441310.0,RI,44.0,44007.0,Providence County,440070112003.0
63311,sg:a670f262f6294b5a85b4d84485b95c05,Mt Hope Community Baptist Church,RI,2019-07-01T00:00:00-04:00,2019-08-01T00:00:00-04:00,2906,1,21.0,"{""<5"":0,""5-20"":0,""21-60"":1,""61-240"":0,"">240"":0}",40.5,41.84665,-71.396456,813110.0,RI,44.0,44007.0,Providence County,440070032003.0
63439,sg:b45112e523ee4899bc574e2e18ad7f92,West Greenwich Liquors,RI,2019-07-01T00:00:00-04:00,2019-08-01T00:00:00-04:00,2817,116,21.0,"{""<5"":2,""5-20"":54,""21-60"":28,""61-240"":14,"">240"":18}",8241.0,41.612435999999995,-71.665426,445310.0,RI,44.0,44003.0,Kent County,440030208002.0
63440,sg:b471202c22924c0fb21c09b371949839,Town Pizza II,RI,2019-07-01T00:00:00-04:00,2019-08-01T00:00:00-04:00,2898,101,18.0,"{""<5"":0,""5-20"":58,""21-60"":38,""61-240"":4,"">240"":1}",3106.0,41.511733,-71.687265,722511.0,RI,44.0,44009.0,Washington County,440090506001.0
63455,sg:b5937bd655bb4f23ad33a1f1e42c786a,Taunton Ave Bakery,RI,2019-07-01T00:00:00-04:00,2019-08-01T00:00:00-04:00,2914,25,9.0,"{""<5"":0,""5-20"":22,""21-60"":3,""61-240"":0,"">240"":0}",396.5,41.8195,-71.371565,311811.0,RI,44.0,44007.0,Providence County,440070102006.0
63849,sg:db5d7346884e491daf44eb7f48a3708d,Eli's,RI,2019-07-01T00:00:00-04:00,2019-08-01T00:00:00-04:00,2807,123,69.0,"{""<5"":2,""5-20"":31,""21-60"":22,""61-240"":33,"">240"":35}",14650.0,41.173162,-71.55905200000001,722511.0,RI,44.0,44009.0,Washington County,440090415001.0
64328,sg:0c46523b61be4777b5112b564c42a632,Eden Park School,RI,2019-07-01T00:00:00-04:00,2019-08-01T00:00:00-04:00,2910,249,176.0,"{""<5"":1,""5-20"":29,""21-60"":32,""61-240"":87,"">240"":100}",38754.5,41.772403000000004,-71.446072,611110.0,RI,44.0,44007.0,Providence County,440070137023.0
64943,sg:4467eea3ea964b73902c3075210f5681,Papi's Tacos,RI,2019-07-01T00:00:00-04:00,2019-08-01T00:00:00-04:00,2889,136,61.5,"{""<5"":2,""5-20"":25,""21-60"":39,""61-240"":41,"">240"":29}",15027.5,41.724138,-71.382548,722511.0,RI,44.0,44003.0,Kent County,440030215011.0
64979,sg:476ea91a5ac24515b556c360d5077e36,Sandy Lane Auto Sales & Repairs,RI,2019-07-01T00:00:00-04:00,2019-08-01T00:00:00-04:00,2889,17,10.0,"{""<5"":0,""5-20"":12,""21-60"":5,""61-240"":0,"">240"":0}",352.5,41.704776,-71.418227,441120.0,RI,44.0,44003.0,Kent County,440030219031.0
65198,sg:5bd1fa20a730401dba99beda14bb35cf,Sakonnet Greenway Trail,RI,2019-07-01T00:00:00-04:00,2019-08-01T00:00:00-04:00,2832,18,21.0,"{""<5"":0,""5-20"":9,""21-60"":6,""61-240"":2,"">240"":1}",896.5,41.541034,-71.696512,712190.0,RI,44.0,44009.0,Washington County,440090507001.0
65632,sg:84d70d937aa049eeb2959d2c53f0a89d,Dialysis Center Of Pawtucket,RI,2019-07-01T00:00:00-04:00,2019-08-01T00:00:00-04:00,2860,27,70.0,"{""<5"":0,""5-20"":6,""21-60"":6,""61-240"":6,"">240"":9}",3381.0,41.87975,-71.368375,621492.0,RI,44.0,44007.0,Providence County,440070171002.0
66000,sg:a78d909083e14ad2ad7e630263341901,Verizon Wireless,RI,2019-07-01T00:00:00-04:00,2019-08-01T00:00:00-04:00,2852,92,22.0,"{""<5"":1,""5-20"":40,""21-60"":37,""61-240"":14,"">240"":0}",4108.0,41.581185999999995,-71.500341,517312.0,RI,44.0,44009.0,Washington County,440090503011.0
66264,sg:c247e8921f4b4e98afa5ab9f3e12a3c8,3 Amigos Taqueria,RI,2019-07-01T00:00:00-04:00,2019-08-01T00:00:00-04:00,2863,165,73.0,"{""<5"":0,""5-20"":37,""21-60"":39,""61-240"":32,"">240"":57}",20538.0,41.887189,-71.39726800000001,722511.0,RI,44.0,44007.0,Providence County,440070110003.0
66871,sg:ff305bdb56184ac38531878e7f8d5e3d,Coventry Pines Country Club,RI,2019-07-01T00:00:00-04:00,2019-08-01T00:00:00-04:00,2816,85,34.0,"{""<5"":2,""5-20"":27,""21-60"":29,""61-240"":25,"">240"":2}",5759.5,41.669672,-71.630027,713910.0,RI,44.0,44003.0,Kent County,440030207022.0
66892,sg:013a120ca7a04af3a903d512ac3f1d8c,Cranston Pediatric Dentistry,RI,2019-07-01T00:00:00-04:00,2019-08-01T00:00:00-04:00,2920,41,41.0,"{""<5"":0,""5-20"":11,""21-60"":17,""61-240"":11,"">240"":2}",2961.5,41.782015,-71.467938,621210.0,RI,44.0,44007.0,Providence County,440070147005.0
67162,sg:1803f42aff76433f9e27055c56cb4ade,CVS,RI,2019-07-01T00:00:00-04:00,2019-08-01T00:00:00-04:00,2916,153,11.0,"{""<5"":2,""5-20"":110,""21-60"":29,""61-240"":10,"">240"":2}",4539.5,41.858026,-71.355496,446110.0,RI,44.0,44007.0,Providence County,440070101011.0
67688,sg:473b5326382149d1acb26a602cdc6362,Town Mart,RI,2019-07-01T00:00:00-04:00,2019-08-01T00:00:00-04:00,2861,96,20.5,"{""<5"":3,""5-20"":45,""21-60"":14,""61-240"":14,"">240"":20}",8044.0,41.879987,-71.353937,447110.0,RI,44.0,44007.0,Providence County,440070158002.0
68183,sg:7257810925e44e4e9229f379b04e5b5a,American Performance Petroleum,RI,2019-07-01T00:00:00-04:00,2019-08-01T00:00:00-04:00,2920,217,7.0,"{""<5"":20,""5-20"":145,""21-60"":17,""61-240"":22,"">240"":13}",8982.0,41.80046,-71.44605200000001,447110.0,RI,44.0,44007.0,Providence County,440070141003.0
68215,sg:742937d080d0461d9ca7f92a0b0d793a,Hopkins Manor,RI,2019-07-01T00:00:00-04:00,2019-08-01T00:00:00-04:00,2904,509,160.0,"{""<5"":4,""5-20"":62,""21-60"":79,""61-240"":151,"">240"":213}",77830.0,41.864282,-71.468108,621610.0,RI,44.0,44007.0,Providence County,440070121031.0
68330,sg:7eab24d7bcac4f9e9b9addcb12d815fd,Accurx,RI,2019-07-01T00:00:00-04:00,2019-08-01T00:00:00-04:00,2919,1,5.0,"{""<5"":0,""5-20"":1,""21-60"":0,""61-240"":0,"">240"":0}",12.5,41.82112,-71.506895,446130.0,RI,44.0,44007.0,Providence County,440070122001.0
69028,sg:c4451c37748f4bcb9663ee6794003fc3,Moretti Joseph & Sons Dental Lab,RI,2019-07-01T00:00:00-04:00,2019-08-01T00:00:00-04:00,2920,223,60.0,"{""<5"":2,""5-20"":56,""21-60"":56,""61-240"":55,"">240"":54}",24210.5,41.790124,-71.460868,621210.0,RI,44.0,44007.0,Providence County,440070147004.0
69401,sg:e796c861680541f0805459aa4ada1bdd,Hertz,RI,2019-07-01T00:00:00-04:00,2019-08-01T00:00:00-04:00,2842,1,53.0,"{""<5"":0,""5-20"":0,""21-60"":1,""61-240"":0,"">240"":0}",40.5,41.531617,-71.283982,532111.0,RI,44.0,44005.0,Newport County,440050403041.0
69561,sg:fa9fd9ed391a4037a2e7e84375e22bee,Ri Pipe Guys,RI,2019-07-01T00:00:00-04:00,2019-08-01T00:00:00-04:00,2889,182,54.5,"{""<5"":1,""5-20"":47,""21-60"":49,""61-240"":52,"">240"":33}",18320.5,41.688823,-71.39752800000001,444130.0,RI,44.0,44003.0,Kent County,440030217002.0
69598,sg:fd76daf460d04527aeab930c19d23518,Altered Images Tattoo,RI,2019-07-01T00:00:00-04:00,2019-08-01T00:00:00-04:00,2825,12,11.0,"{""<5"":0,""5-20"":7,""21-60"":1,""61-240"":4,"">240"":0}",730.0,41.814322,-71.73965600000001,812199.0,RI,44.0,44007.0,Providence County,440070133002.0
69609,sg:feacb42e77374701aed948b71baecf0c,Concrete Products,RI,2019-07-01T00:00:00-04:00,2019-08-01T00:00:00-04:00,2814,53,163.0,"{""<5"":0,""5-20"":13,""21-60"":11,""61-240"":8,"">240"":21}",6852.0,41.902619,-71.64532,444130.0,RI,44.0,44007.0,Providence County,440070131021.0
69807,sg:112c314a7a40465bb8eccd812af3f53c,Rangoon Chinese & Japanese Restaurant,RI,2019-07-01T00:00:00-04:00,2019-08-01T00:00:00-04:00,2917,53,93.0,"{""<5"":0,""5-20"":11,""21-60"":9,""61-240"":15,"">240"":18}",7079.5,41.873028999999995,-71.495144,722511.0,RI,44.0,44007.0,Providence County,440070126024.0
69937,sg:1c14b1dcd44c40b0a5610fcc258b42c8,Tot Lot,RI,2019-07-01T00:00:00-04:00,2019-08-01T00:00:00-04:00,2906,84,35.0,"{""<5"":1,""5-20"":24,""21-60"":30,""61-240"":10,"">240"":19}",7582.5,41.843709999999994,-71.396007,713940.0,RI,44.0,44007.0,Providence County,440070032001.0
70770,sg:67c7d74572e14d4c8acb418ca206e80a,Just Fabric,RI,2019-07-01T00:00:00-04:00,2019-08-01T00:00:00-04:00,2920,27,10.0,"{""<5"":2,""5-20"":19,""21-60"":5,""61-240"":0,"">240"":1}",685.0,41.784439,-71.473389,451130.0,RI,44.0,44007.0,Providence County,440070148003.0
70814,sg:6b98fdefdcc7403aa6dab8a3c6d4610b,NBX Bikes of Narragansett,RI,2019-07-01T00:00:00-04:00,2019-08-01T00:00:00-04:00,2882,373,20.0,"{""<5"":6,""5-20"":184,""21-60"":158,""61-240"":19,"">240"":6}",13013.5,41.476768,-71.435743,451110.0,RI,44.0,44009.0,Washington County,440090515024.0
70875,sg:723284e8c2f94968a5e1336ba83f6637,Agape,RI,2019-07-01T00:00:00-04:00,2019-08-01T00:00:00-04:00,2906,39,43.0,"{""<5"":0,""5-20"":8,""21-60"":17,""61-240"":5,"">240"":9}",3701.0,41.827319,-71.386422,621111.0,RI,44.0,44007.0,Providence County,440070035003.0
70939,sg:7999123275f444aa94b6b5fbd1744478,Sarto,RI,2019-07-01T00:00:00-04:00,2019-08-01T00:00:00-04:00,2903,449,61.0,"{""<5"":4,""5-20"":68,""21-60"":146,""61-240"":198,"">240"":33}",44492.0,41.823143,-71.410607,722511.0,RI,44.0,44007.0,Providence County,440070008003.0
71088,sg:89dca73cf89b4dafa4a1cd0877e35af3,Papa Sam's Pizza,RI,2019-07-01T00:00:00-04:00,2019-08-01T00:00:00-04:00,2914,50,57.5,"{""<5"":6,""5-20"":13,""21-60"":6,""61-240"":22,"">240"":3}",4451.5,41.813367,-71.370182,722511.0,RI,44.0,44007.0,Providence County,440070104001.0
71446,sg:ad0440644b5a4b4898d9e876a65ed3df,Boilermakers,RI,2019-07-01T00:00:00-04:00,2019-08-01T00:00:00-04:00,2895,100,71.0,"{""<5"":0,""5-20"":20,""21-60"":21,""61-240"":37,"">240"":22}",11949.0,42.001095,-71.513786,722511.0,RI,44.0,44007.0,Providence County,440070180003.0
71837,sg:d3fc77d0ab4046588d405c000a1b9a2b,Providence Jewelry Museum,RI,2019-07-01T00:00:00-04:00,2019-08-01T00:00:00-04:00,2904,219,110.0,"{""<5"":1,""5-20"":64,""21-60"":26,""61-240"":50,"">240"":78}",28100.5,41.851999,-71.414052,712110.0,RI,44.0,44007.0,Providence County,440070029003.0
72467,sg:0f412be98e7e4931a6f4d6f5ad70c1c6,Navigant Credit Union,RI,2019-07-01T00:00:00-04:00,2019-08-01T00:00:00-04:00,2916,1,497.0,"{""<5"":0,""5-20"":0,""21-60"":0,""61-240"":0,"">240"":1}",240.0,41.853124,-71.353818,522110.0,RI,44.0,44007.0,Providence County,440070101021.0
72595,sg:1ae919faac3749e3a426417ecf5f03c9,Public Storage,RI,2019-07-01T00:00:00-04:00,2019-08-01T00:00:00-04:00,2904,22,9.5,"{""<5"":2,""5-20"":15,""21-60"":5,""61-240"":0,"">240"":0}",395.0,41.865525,-71.428914,531130.0,RI,44.0,44007.0,Providence County,440070118003.0
72667,sg:2242cc9d0cc1477c8ef0b32dd3fb9bd2,Universal Cuts,RI,2019-07-01T00:00:00-04:00,2019-08-01T00:00:00-04:00,2895,95,30.0,"{""<5"":0,""5-20"":38,""21-60"":23,""61-240"":22,"">240"":12}",7597.5,42.013098,-71.51407900000001,812112.0,RI,44.0,44007.0,Providence County,440070173002.0
72707,sg:2508c396e2884461b0f113ea9cb460aa,Great Swamp Management Area,RI,2019-07-01T00:00:00-04:00,2019-08-01T00:00:00-04:00,2892,206,10.0,"{""<5"":14,""5-20"":135,""21-60"":47,""61-240"":10,"">240"":0}",5131.0,41.482682000000004,-71.551524,712190.0,RI,44.0,44009.0,Washington County,440090513061.0
73105,sg:4aa0900445a54181b7873733ff40b449,West Shore Collision,RI,2019-07-01T00:00:00-04:00,2019-08-01T00:00:00-04:00,2889,64,50.0,"{""<5"":0,""5-20"":23,""21-60"":11,""61-240"":9,"">240"":21}",7127.5,41.700859,-71.400438,811121.0,RI,44.0,44003.0,Kent County,440030217004.0
73169,sg:513953b11fea432bb96aba1bf3d00db3,Woodbury Union Church Presbyterian,RI,2019-07-01T00:00:00-04:00,2019-08-01T00:00:00-04:00,2886,4,34.0,"{""<5"":2,""5-20"":0,""21-60"":0,""61-240"":2,"">240"":0}",306.0,41.70554,-71.417858,813110.0,RI,44.0,44003.0,Kent County,440030219031.0
73193,sg:53c45d0d35e14157bf2bc14926cd9201,Bright Start Academy,RI,2019-07-01T00:00:00-04:00,2019-08-01T00:00:00-04:00,2828,27,197.0,"{""<5"":0,""5-20"":3,""21-60"":4,""61-240"":8,"">240"":12}",4283.5,41.876553,-71.56899399999999,624410.0,RI,44.0,44007.0,Providence County,440070127022.0
73918,sg:9379d5c9b3f3427ab43b1cd1ede4efce,Ronzio Pizza & Subs,RI,2019-07-01T00:00:00-04:00,2019-08-01T00:00:00-04:00,2920,173,32.0,"{""<5"":5,""5-20"":67,""21-60"":36,""61-240"":40,"">240"":25}",14328.0,41.782721,-71.463687,722511.0,RI,44.0,44007.0,Providence County,440070145023.0
74168,sg:aaeaa996c26141aebb6f49184d3df849,Hoskins Park,RI,2019-07-01T00:00:00-04:00,2019-08-01T00:00:00-04:00,2903,72,71.5,"{""<5"":3,""5-20"":17,""21-60"":14,""61-240"":18,"">240"":20}",8296.0,41.590501,-71.44469000000001,712190.0,RI,44.0,44009.0,Washington County,440090501021.0
74271,sg:b47e0cc957994282a3fb25764fd9a24a,Emerald Auto,RI,2019-07-01T00:00:00-04:00,2019-08-01T00:00:00-04:00,2809,13,147.0,"{""<5"":0,""5-20"":3,""21-60"":3,""61-240"":1,"">240"":6}",1749.5,41.691745000000004,-71.265096,811111.0,RI,44.0,44001.0,Bristol County,440010309024.0
75311,sg:1a812176c4614fe3ad93a8a12cb0f6e1,South County Nursing and Subacute Center,RI,2019-07-01T00:00:00-04:00,2019-08-01T00:00:00-04:00,2852,71,248.0,"{""<5"":1,""5-20"":6,""21-60"":13,""61-240"":15,"">240"":36}",11501.5,41.558822,-71.487905,621340.0,RI,44.0,44009.0,Washington County,440090503013.0
75758,sg:3eac9d1b77d64dc4a37c3ccf07f0cdd2,Shell Oil,RI,2019-07-01T00:00:00-04:00,2019-08-01T00:00:00-04:00,2905,78,6.0,"{""<5"":11,""5-20"":53,""21-60"":11,""61-240"":1,"">240"":2}",1766.0,41.786184999999996,-71.39474200000001,447110.0,RI,44.0,44007.0,Providence County,440070001011.0
76060,sg:59a4b39d412e4be49036add5e1b5142a,Slate Hill Park,RI,2019-07-01T00:00:00-04:00,2019-08-01T00:00:00-04:00,2920,240,40.0,"{""<5"":3,""5-20"":89,""21-60"":42,""61-240"":39,"">240"":67}",24770.5,41.756726,-71.463042,712190.0,RI,44.0,44007.0,Providence County,440070144001.0
76734,sg:9aa2e4ed9c6747378d95917afc66e3a6,Children's Dentistry of Westerly & Wakefield,RI,2019-07-01T00:00:00-04:00,2019-08-01T00:00:00-04:00,2891,6,542.5,"{""<5"":0,""5-20"":0,""21-60"":0,""61-240"":0,"">240"":6}",1440.0,41.370517,-71.819643,621210.0,RI,44.0,44009.0,Washington County,440090508021.0
77167,sg:c747d50dcdad444bab583656c4b2395b,Smithfield High School,RI,2019-07-01T00:00:00-04:00,2019-08-01T00:00:00-04:00,2917,365,41.0,"{""<5"":5,""5-20"":125,""21-60"":83,""61-240"":116,"">240"":36}",31034.5,41.880657,-71.543948,611110.0,RI,44.0,44007.0,Providence County,440070127013.0
78111,sg:1ed9763967634989bd7e0ad963663c4a,Cox Store,RI,2019-07-01T00:00:00-04:00,2019-08-01T00:00:00-04:00,2916,7,81.0,"{""<5"":0,""5-20"":1,""21-60"":2,""61-240"":4,"">240"":0}",695.5,41.858321999999994,-71.35570600000001,517312.0,RI,44.0,44007.0,Providence County,440070101011.0
78247,sg:2ad8b198a5f94e718009c8fe9c7f2a9a,Douglas Maiko Hypnosis Center,RI,2019-07-01T00:00:00-04:00,2019-08-01T00:00:00-04:00,2860,33,42.0,"{""<5"":2,""5-20"":10,""21-60"":7,""61-240"":9,"">240"":5}",2968.0,41.864391,-71.41766899999999,621330.0,RI,44.0,44007.0,Providence County,440070163002.0
78279,sg:2d5ed5fed3434e1c9a891d9128e03771,Tony T's,RI,2019-07-01T00:00:00-04:00,2019-08-01T00:00:00-04:00,2891,23,20.0,"{""<5"":0,""5-20"":12,""21-60"":6,""61-240"":5,"">240"":0}",1145.5,41.366074,-71.830462,722511.0,RI,44.0,44009.0,Washington County,440090508021.0
78600,sg:479c6bc62b0146b4a18696373d0be7ba,Raffa Yoga and Urban Sweat,RI,2019-07-01T00:00:00-04:00,2019-08-01T00:00:00-04:00,2920,211,82.0,"{""<5"":1,""5-20"":58,""21-60"":28,""61-240"":98,"">240"":26}",22850.5,41.738958000000004,-71.458359,713940.0,RI,44.0,44007.0,Providence County,440070142002.0
78691,sg:50f7c4b6aa9c48df8dc09d780146c659,Ocean State Chiropractic and Sports Rehabilitation,RI,2019-07-01T00:00:00-04:00,2019-08-01T00:00:00-04:00,2904,1,13.0,"{""<5"":0,""5-20"":1,""21-60"":0,""61-240"":0,"">240"":0}",12.5,41.859784000000005,-71.468671,621310.0,RI,44.0,44007.0,Providence County,440070120005.0
78831,sg:5db5a465d2a346348c436b0dccd32273,Mill Street Inn,RI,2019-07-01T00:00:00-04:00,2019-08-01T00:00:00-04:00,2840,243,85.0,"{""<5"":2,""5-20"":53,""21-60"":44,""61-240"":68,"">240"":76}",30923.5,41.486424,-71.312441,721110.0,RI,44.0,44005.0,Newport County,440050408002.0
79127,sg:76b3d402432b44f4a545730f76ecb7d4,Napolitano's Brooklyn Pizza,RI,2019-07-01T00:00:00-04:00,2019-08-01T00:00:00-04:00,2920,53,33.0,"{""<5"":2,""5-20"":23,""21-60"":10,""61-240"":16,"">240"":2}",3585.5,41.737527,-71.464439,722511.0,RI,44.0,44007.0,Providence County,440070142001.0
79826,sg:bcdbdf38cbc44e70b5299ce032295010,Apex Tire and Service Centers,RI,2019-07-01T00:00:00-04:00,2019-08-01T00:00:00-04:00,2860,228,34.0,"{""<5"":5,""5-20"":81,""21-60"":49,""61-240"":34,"">240"":59}",22286.5,41.876214000000004,-71.381033,441310.0,RI,44.0,44007.0,Providence County,440070167001.0
80040,sg:d3a7d3053bdd48b8ae20f9304976d0b2,Wicked Flowers & Design,RI,2019-07-01T00:00:00-04:00,2019-08-01T00:00:00-04:00,2860,395,97.0,"{""<5"":1,""5-20"":68,""21-60"":80,""61-240"":152,"">240"":94}",49528.5,41.873457,-71.373012,453110.0,RI,44.0,44007.0,Providence County,440070167002.0
80224,sg:e3b35faba0904888a5c31587b1a3f4f4,Partners In Obstetrics & Gynecology,RI,2019-07-01T00:00:00-04:00,2019-08-01T00:00:00-04:00,2860,16,68.0,"{""<5"":0,""5-20"":2,""21-60"":5,""61-240"":6,"">240"":3}",1850.5,41.867225,-71.377589,621111.0,RI,44.0,44007.0,Providence County,440070167002.0
80768,sg:185179de365e4f9eb36015f441395a45,Caterpillar,RI,2019-07-01T00:00:00-04:00,2019-08-01T00:00:00-04:00,2921,15,8.0,"{""<5"":1,""5-20"":13,""21-60"":0,""61-240"":1,"">240"":0}",315.5,41.788329,-71.513852,423810.0,,,,,
80916,sg:25b0743080ae4223b23b70362970940e,Dunkin',RI,2019-07-01T00:00:00-04:00,2019-08-01T00:00:00-04:00,2861,300,13.0,"{""<5"":5,""5-20"":170,""21-60"":32,""61-240"":46,"">240"":47}",21636.5,41.888865,-71.368724,722515.0,RI,44.0,44007.0,Providence County,440070155003.0
80941,sg:28050989dc4249f3afcf875e18c06047,Bayside Country Club Apts,RI,2019-07-01T00:00:00-04:00,2019-08-01T00:00:00-04:00,2889,99,41.0,"{""<5"":3,""5-20"":33,""21-60"":20,""61-240"":33,"">240"":10}",8596.5,41.707514,-71.38572099999999,451110.0,RI,44.0,44003.0,Kent County,440030218001.0
81040,sg:31836704f5d14fc58f2ce97fd9491524,Village Hearth Bakery,RI,2019-07-01T00:00:00-04:00,2019-08-01T00:00:00-04:00,2835,63,10.0,"{""<5"":6,""5-20"":37,""21-60"":17,""61-240"":1,"">240"":2}",1796.5,41.498265,-71.374995,311811.0,RI,44.0,44005.0,Newport County,440050413004.0
81045,sg:32564ec0aa344556abaae26970988843,Best Eastern Restaurant,RI,2019-07-01T00:00:00-04:00,2019-08-01T00:00:00-04:00,2863,53,15.0,"{""<5"":3,""5-20"":30,""21-60"":10,""61-240"":8,"">240"":2}",2471.5,41.887186,-71.401335,722511.0,RI,44.0,44007.0,Providence County,440070111002.0
81117,sg:38b753c59ee84909a68f528d2eddbcec,Sakonnet Grooming & Pet Wellness,RI,2019-07-01T00:00:00-04:00,2019-08-01T00:00:00-04:00,2878,101,21.0,"{""<5"":3,""5-20"":46,""21-60"":28,""61-240"":8,"">240"":16}",6760.5,41.658714,-71.192357,453910.0,RI,44.0,44005.0,Newport County,440050416022.0
81212,sg:40cd393f9b0e437d86eb3c7838002460,Nancy's Hair Salon,RI,2019-07-01T00:00:00-04:00,2019-08-01T00:00:00-04:00,2860,189,150.0,"{""<5"":3,""5-20"":17,""21-60"":30,""61-240"":53,"">240"":86}",30051.5,41.858859,-71.364277,812112.0,RI,44.0,44007.0,Providence County,440070171003.0
81337,sg:4c034b5d60c34a3da8d02e611d66f3c8,City Limit Auto,RI,2019-07-01T00:00:00-04:00,2019-08-01T00:00:00-04:00,2919,21,44.0,"{""<5"":2,""5-20"":1,""21-60"":9,""61-240"":7,"">240"":2}",1915.5,41.819338,-71.470213,,RI,44.0,44007.0,Providence County,440070018006.0
81364,sg:4e0b72dad3464beaa1be6a3fa4e03ad2,Diversified Global Technologies,RI,2019-07-01T00:00:00-04:00,2019-08-01T00:00:00-04:00,2895,162,131.5,"{""<5"":0,""5-20"":43,""21-60"":22,""61-240"":54,"">240"":43}",19875.5,42.011289,-71.528997,446110.0,RI,44.0,44007.0,Providence County,440070173003.0
81514,sg:5bc2d7e52c364be6b540d213a99870bb,Newport Ambassador Inn,RI,2019-07-01T00:00:00-04:00,2019-08-01T00:00:00-04:00,2842,156,52.0,"{""<5"":1,""5-20"":45,""21-60"":35,""61-240"":30,"">240"":45}",17297.5,41.536206,-71.291472,721110.0,RI,44.0,44005.0,Newport County,440050403041.0
81798,sg:7741ffed4a314913a59b15294c10cfc4,Providence Fire Department Engine Company 10 Rescue 2,RI,2019-07-01T00:00:00-04:00,2019-08-01T00:00:00-04:00,2909,60,534.5,"{""<5"":0,""5-20"":8,""21-60"":7,""61-240"":9,"">240"":36}",10378.0,41.818977000000004,-71.460059,922160.0,RI,44.0,44007.0,Providence County,440070018002.0
81842,sg:7be3ce607ae94fbd9e83861c75f8b648,Alcohol & Drug Program,RI,2019-07-01T00:00:00-04:00,2019-08-01T00:00:00-04:00,2906,139,18.0,"{""<5"":4,""5-20"":70,""21-60"":37,""61-240"":20,"">240"":8}",7313.5,41.843395,-71.38103000000001,621111.0,RI,44.0,44007.0,Providence County,440070034002.0
82470,sg:b84d14e3522745738366ab39f59c3581,MidiCi Neopolitan Pizza,RI,2019-07-01T00:00:00-04:00,2019-08-01T00:00:00-04:00,2914,141,40.0,"{""<5"":1,""5-20"":34,""21-60"":75,""61-240"":30,"">240"":1}",8220.0,41.805149,-71.341391,722511.0,RI,44.0,44007.0,Providence County,440070105011.0
82588,sg:c2a24bbef46f47028d02acfd7659eab7,Prior Service,RI,2019-07-01T00:00:00-04:00,2019-08-01T00:00:00-04:00,2904,3,128.0,"{""<5"":0,""5-20"":0,""21-60"":0,""61-240"":2,"">240"":1}",541.0,41.857642,-71.42160200000001,811111.0,RI,44.0,44007.0,Providence County,440070029005.0
83241,sg:05c5b6ce93e4439787b2017e94c95acc,Northeast Sports Training and Rehabilitation,RI,2019-07-01T00:00:00-04:00,2019-08-01T00:00:00-04:00,2886,7,16.0,"{""<5"":0,""5-20"":5,""21-60"":2,""61-240"":0,"">240"":0}",143.5,41.727745,-71.439669,713940.0,RI,44.0,44003.0,Kent County,440030211004.0
83758,sg:308397aff7cc4342b8f1eaecca58cb92,Veterans Memorial Auditorium,RI,2019-07-01T00:00:00-04:00,2019-08-01T00:00:00-04:00,2903,260,16.5,"{""<5"":20,""5-20"":119,""21-60"":27,""61-240"":60,"">240"":34}",19821.0,41.829825,-71.417174,512131.0,RI,44.0,44007.0,Providence County,440070008001.0
84214,sg:5a6cdb44dcd2461bb8dcf6bae40f65c0,West Bay Periodontics,RI,2019-07-01T00:00:00-04:00,2019-08-01T00:00:00-04:00,2907,2,509.5,"{""<5"":0,""5-20"":0,""21-60"":0,""61-240"":0,"">240"":2}",480.0,41.786972999999996,-71.432501,621210.0,RI,44.0,44007.0,Providence County,440070015001.0
84426,sg:6f1d7a46572f425f8b44780909e48a75,Triton Fleet Services,RI,2019-07-01T00:00:00-04:00,2019-08-01T00:00:00-04:00,2860,89,76.0,"{""<5"":0,""5-20"":24,""21-60"":19,""61-240"":14,"">240"":32}",10856.5,41.878854,-71.368353,441310.0,RI,44.0,44007.0,Providence County,440070171002.0
84511,sg:781c681b1bb843759214759d90498a6a,De Clasico Hair Salon,RI,2019-07-01T00:00:00-04:00,2019-08-01T00:00:00-04:00,2907,18,87.0,"{""<5"":0,""5-20"":6,""21-60"":2,""61-240"":4,"">240"":6}",2198.0,41.805451,-71.437023,812112.0,RI,44.0,44007.0,Providence County,440070014004.0
84827,sg:98a0c97efefb449cb515f4fd3bdef685,Bristol's Lil Angels Child Care Ll,RI,2019-07-01T00:00:00-04:00,2019-08-01T00:00:00-04:00,2809,214,50.0,"{""<5"":3,""5-20"":49,""21-60"":67,""61-240"":85,"">240"":10}",18526.0,41.67042,-71.260849,624410.0,RI,44.0,44001.0,Bristol County,440010308002.0
85220,sg:c035405920f2437796c755573eb0daf9,Ju Sushi,RI,2019-07-01T00:00:00-04:00,2019-08-01T00:00:00-04:00,2891,12,584.5,"{""<5"":0,""5-20"":3,""21-60"":1,""61-240"":0,"">240"":8}",1998.0,41.372038,-71.817985,722511.0,RI,44.0,44009.0,Washington County,440090509012.0
85599,sg:e832bf787b5f41faab9e5916e3369238,Edgewood Cafe,RI,2019-07-01T00:00:00-04:00,2019-08-01T00:00:00-04:00,2905,29,247.0,"{""<5"":2,""5-20"":9,""21-60"":1,""61-240"":2,"">240"":15}",4059.0,41.774906,-71.398288,722511.0,RI,44.0,44007.0,Providence County,440070134001.0
85822,sg:fc2f434e18084605ac9b91c704dab570,Domino's Pizza,RI,2019-07-01T00:00:00-04:00,2019-08-01T00:00:00-04:00,2842,59,52.0,"{""<5"":1,""5-20"":23,""21-60"":7,""61-240"":8,"">240"":20}",6577.5,41.537251,-71.291099,722513.0,RI,44.0,44005.0,Newport County,440050403041.0
85831,sg:fd433b79f71e4ea49a8e770d5330accf,Kirkbrae Country Club,RI,2019-07-01T00:00:00-04:00,2019-08-01T00:00:00-04:00,2865,1659,76.0,"{""<5"":35,""5-20"":364,""21-60"":329,""61-240"":681,"">240"":250}",180452.5,41.94697,-71.457785,713910.0,RI,44.0,44007.0,Providence County,440070115001.0
85854,sg:ffa507cefab14a0e8c2f5279c7945110,DeCrescenzo Chiropractic,RI,2019-07-01T00:00:00-04:00,2019-08-01T00:00:00-04:00,2861,34,318.5,"{""<5"":0,""5-20"":7,""21-60"":3,""61-240"":6,"">240"":18}",5432.0,41.885993,-71.353909,621310.0,RI,44.0,44007.0,Providence County,440070158005.0
86282,sg:230f4109dbc4487fa3e49928b7786804,Staples,RI,2019-07-01T00:00:00-04:00,2019-08-01T00:00:00-04:00,2842,199,11.0,"{""<5"":8,""5-20"":148,""21-60"":40,""61-240"":2,"">240"":1}",4031.0,41.527201,-71.297618,453210.0,RI,44.0,44005.0,Newport County,440050403032.0
86630,sg:44b85e80b79d48a898830151d3b255a5,Consultants In Urology,RI,2019-07-01T00:00:00-04:00,2019-08-01T00:00:00-04:00,2919,43,214.0,"{""<5"":0,""5-20"":2,""21-60"":6,""61-240"":15,"">240"":20}",7325.5,41.827391999999996,-71.501663,621111.0,RI,44.0,44007.0,Providence County,440070124014.0
86730,sg:4d1aa62122744745987e9d6bcb39b762,Dusty's Ice Cream Weekapaug,RI,2019-07-01T00:00:00-04:00,2019-08-01T00:00:00-04:00,2891,196,14.0,"{""<5"":9,""5-20"":113,""21-60"":37,""61-240"":22,"">240"":15}",9844.5,41.330562,-71.764888,722515.0,RI,44.0,44009.0,Washington County,440090510004.0
86908,sg:5e39d4365a7b46cf926014b92474608e,Godavari,RI,2019-07-01T00:00:00-04:00,2019-08-01T00:00:00-04:00,2864,30,55.5,"{""<5"":1,""5-20"":8,""21-60"":7,""61-240"":13,"">240"":1}",2582.5,41.918926,-71.407585,722511.0,RI,44.0,44007.0,Providence County,440070113012.0
87139,sg:754d00187ad9447b982d9c3afc4ac1f4,Joshua's top notch,RI,2019-07-01T00:00:00-04:00,2019-08-01T00:00:00-04:00,2860,32,65.5,"{""<5"":0,""5-20"":3,""21-60"":13,""61-240"":15,"">240"":1}",3061.5,41.863125,-71.41287,812320.0,RI,44.0,44007.0,Providence County,440070163001.0
87207,sg:7c2b2feaec044df6aea2bd08ae9cd085,Taqueria,RI,2019-07-01T00:00:00-04:00,2019-08-01T00:00:00-04:00,2904,730,26.0,"{""<5"":12,""5-20"":237,""21-60"":280,""61-240"":129,"">240"":72}",51027.0,41.837222,-71.408268,722511.0,RI,44.0,44007.0,Providence County,440070031003.0
87335,sg:87908e5a2c164473a78f80469924b40a,G & S Automotive Repair,RI,2019-07-01T00:00:00-04:00,2019-08-01T00:00:00-04:00,2871,52,125.0,"{""<5"":1,""5-20"":14,""21-60"":3,""61-240"":15,"">240"":19}",7116.5,41.560931,-71.28705500000001,811111.0,RI,44.0,44005.0,Newport County,440050401032.0
87449,sg:93e4e60295434c67a10f962cd007f3a8,YMCA,RI,2019-07-01T00:00:00-04:00,2019-08-01T00:00:00-04:00,2865,276,14.0,"{""<5"":18,""5-20"":139,""21-60"":58,""61-240"":52,"">240"":9}",14117.5,41.903775,-71.44391,624190.0,RI,44.0,44007.0,Providence County,440070116003.0
88938,sg:22b1847f1192428ba5f7a86f3b435a57,Dragonfly Studio,RI,2019-07-01T00:00:00-04:00,2019-08-01T00:00:00-04:00,2921,30,51.0,"{""<5"":1,""5-20"":10,""21-60"":7,""61-240"":12,"">240"":0}",2217.0,41.765401000000004,-71.525062,713940.0,RI,44.0,44007.0,Providence County,440070146002.0
88981,sg:2667760be58c414984412fd0afb67a00,Warwick Mall,RI,2019-07-01T00:00:00-04:00,2019-08-01T00:00:00-04:00,2886,16288,27.0,"{""<5"":290,""5-20"":5886,""21-60"":6158,""61-240"":3240,"">240"":714}",982679.0,41.724237,-71.476057,531120.0,RI,44.0,44003.0,Kent County,440030223003.0
89364,sg:4ae4621afc7045f5b43b3f32f6f7894e,Monro,RI,2019-07-01T00:00:00-04:00,2019-08-01T00:00:00-04:00,2885,1,10.0,"{""<5"":0,""5-20"":1,""21-60"":0,""61-240"":0,"">240"":0}",12.5,41.715043,-71.26838000000001,811198.0,RI,44.0,44001.0,Bristol County,440010306023.0
89395,sg:4d791b5bf75d40c3897885f00c55b57c,Subway,RI,2019-07-01T00:00:00-04:00,2019-08-01T00:00:00-04:00,2886,165,18.0,"{""<5"":3,""5-20"":93,""21-60"":22,""61-240"":24,"">240"":23}",11193.0,41.691718,-71.456007,722513.0,RI,44.0,44003.0,Kent County,440030220003.0
89489,sg:55180da9b43749a887953598e235da0a,Marylou's Coffee,RI,2019-07-01T00:00:00-04:00,2019-08-01T00:00:00-04:00,2914,220,7.0,"{""<5"":22,""5-20"":160,""21-60"":21,""61-240"":12,"">240"":5}",5911.5,41.815796999999996,-71.35647,722515.0,RI,44.0,44007.0,Providence County,440070103003.0
89633,sg:634b5f4234964cc1839be6b0b7839c62,Ideal Auto Body Inc,RI,2019-07-01T00:00:00-04:00,2019-08-01T00:00:00-04:00,2920,10,6.0,"{""<5"":1,""5-20"":7,""21-60"":1,""61-240"":1,"">240"":0}",281.0,41.783417,-71.45979,811121.0,RI,44.0,44007.0,Providence County,440070143002.0
89860,sg:7988f997a53240e28a0dbf3207812b01,Broadway Diner,RI,2019-07-01T00:00:00-04:00,2019-08-01T00:00:00-04:00,2914,92,27.0,"{""<5"":2,""5-20"":32,""21-60"":45,""61-240"":8,"">240"":5}",4631.5,41.830442,-71.36170899999999,722511.0,RI,44.0,44007.0,Providence County,440070103001.0
89901,sg:7dc6e30380a745788290860bf0b35319,Speedway,RI,2019-07-01T00:00:00-04:00,2019-08-01T00:00:00-04:00,2920,456,6.0,"{""<5"":71,""5-20"":304,""21-60"":15,""61-240"":35,"">240"":31}",17292.5,41.778772,-71.47725200000001,447110.0,RI,44.0,44007.0,Providence County,440070145021.0
90218,sg:9e722f2f41b846da934ca825e10a464d,Meldgie's Diner,RI,2019-07-01T00:00:00-04:00,2019-08-01T00:00:00-04:00,2882,217,21.0,"{""<5"":1,""5-20"":101,""21-60"":92,""61-240"":16,"">240"":7}",9079.0,41.47602,-71.434635,722511.0,RI,44.0,44009.0,Washington County,440090515022.0
90228,sg:9f632206531c4e4cbed8ba1706cee757,Iyengar Yoga Source,RI,2019-07-01T00:00:00-04:00,2019-08-01T00:00:00-04:00,2909,464,60.0,"{""<5"":6,""5-20"":90,""21-60"":139,""61-240"":182,"">240"":47}",45440.5,41.817325,-71.427656,713940.0,RI,44.0,44007.0,Providence County,440070011002.0
90491,sg:b7bd680212ca45958eed8860ffd97a26,Sweet Peas Village,RI,2019-07-01T00:00:00-04:00,2019-08-01T00:00:00-04:00,2818,94,6.0,"{""<5"":6,""5-20"":60,""21-60"":3,""61-240"":8,"">240"":17}",6170.5,41.645483,-71.49027199999999,624410.0,RI,44.0,44003.0,Kent County,440030209032.0
90781,sg:d58591ca90034d8c97208c628f6f7dc6,Dunkin',RI,2019-07-01T00:00:00-04:00,2019-08-01T00:00:00-04:00,2864,259,7.0,"{""<5"":26,""5-20"":168,""21-60"":23,""61-240"":11,"">240"":31}",12192.0,41.942559,-71.435441,722515.0,RI,44.0,44007.0,Providence County,440070114034.0
90830,sg:da85deba9d224f3f97ceb4535225738b,Buford's Family Restaurant,RI,2019-07-01T00:00:00-04:00,2019-08-01T00:00:00-04:00,2860,135,42.0,"{""<5"":9,""5-20"":44,""21-60"":24,""61-240"":32,"">240"":26}",12600.5,41.861441,-71.394275,722511.0,RI,44.0,44007.0,Providence County,440070165003.0
90922,sg:e405d2331f064b22bd2d9e5d3c6028ca,Waterford Playground,RI,2019-07-01T00:00:00-04:00,2019-08-01T00:00:00-04:00,2896,32,97.0,"{""<5"":0,""5-20"":6,""21-60"":6,""61-240"":8,"">240"":12}",4402.0,42.013979,-71.540625,713990.0,RI,44.0,44007.0,Providence County,440070128012.0
90926,sg:e4c4e46a6f7b46e681f1184396862a1d,Griswolds Tavern,RI,2019-07-01T00:00:00-04:00,2019-08-01T00:00:00-04:00,2840,186,53.0,"{""<5"":5,""5-20"":32,""21-60"":65,""61-240"":64,"">240"":20}",17477.0,41.484671,-71.308852,722511.0,RI,44.0,44005.0,Newport County,440050408002.0
91078,sg:f3252606d1bf4c96b3e1a9021c764aa5,Jackson Hewitt Tax Service,RI,2019-07-01T00:00:00-04:00,2019-08-01T00:00:00-04:00,2904,1,69.0,"{""<5"":0,""5-20"":0,""21-60"":0,""61-240"":1,"">240"":0}",150.5,41.844910999999996,-71.416713,541213.0,RI,44.0,44007.0,Providence County,440070029004.0
91138,sg:f7fb83afdc6e4fbbac8b7c9a7414e6a8,Iacono Vincent R Phys,RI,2019-07-01T00:00:00-04:00,2019-08-01T00:00:00-04:00,2886,2,9.0,"{""<5"":0,""5-20"":2,""21-60"":0,""61-240"":0,"">240"":0}",25.0,41.705899,-71.48114,621111.0,RI,44.0,44003.0,Kent County,440030222021.0
91520,sg:16205d0e74134e6eab2389af73e57a2d,Lang's Bowlarama,RI,2019-07-01T00:00:00-04:00,2019-08-01T00:00:00-04:00,2907,531,77.0,"{""<5"":3,""5-20"":73,""21-60"":141,""61-240"":276,"">240"":38}",57288.5,41.796871,-71.440236,713950.0,RI,44.0,44007.0,Providence County,440070141003.0
92156,sg:4a1062175c514446a4085d99c1ccbc39,Warren Cider Works,RI,2019-07-01T00:00:00-04:00,2019-08-01T00:00:00-04:00,2885,15,14.0,"{""<5"":1,""5-20"":8,""21-60"":4,""61-240"":1,"">240"":1}",655.0,41.730261,-71.279108,312130.0,RI,44.0,44001.0,Bristol County,440010305001.0
92491,sg:6923bcc222b94da696e2dcd3bf9b4ec6,J H Breakell & Co,RI,2019-07-01T00:00:00-04:00,2019-08-01T00:00:00-04:00,2840,43,21.0,"{""<5"":1,""5-20"":20,""21-60"":10,""61-240"":10,"">240"":2}",2642.5,41.487778000000006,-71.31272299999999,448310.0,RI,44.0,44005.0,Newport County,440050407003.0
92557,sg:6fab82afc36c4989bb9f68af57fa98cd,Rego's Auto Body,RI,2019-07-01T00:00:00-04:00,2019-08-01T00:00:00-04:00,2908,32,16.5,"{""<5"":2,""5-20"":16,""21-60"":3,""61-240"":6,"">240"":5}",2429.5,41.835834000000006,-71.416475,811121.0,RI,44.0,44007.0,Providence County,440070026002.0
92659,sg:7913f73a3cb549868e03a742a0d45757,Fairfield Playground,RI,2019-07-01T00:00:00-04:00,2019-08-01T00:00:00-04:00,2818,15,9.0,"{""<5"":1,""5-20"":7,""21-60"":2,""61-240"":3,"">240"":2}",1102.5,41.645777,-71.465684,713990.0,RI,44.0,44003.0,Kent County,440030209014.0
92685,sg:7bad855c89a84c0b8b4e8823dd9ce29d,Quisqueya Liquors,RI,2019-07-01T00:00:00-04:00,2019-08-01T00:00:00-04:00,2905,205,11.0,"{""<5"":11,""5-20"":121,""21-60"":26,""61-240"":39,"">240"":8}",10382.5,41.792045,-71.405904,445310.0,RI,44.0,44007.0,Providence County,440070001021.0
92792,sg:85c26e30856545b8b4347cbe36be56bb,Brenton Point State Park,RI,2019-07-01T00:00:00-04:00,2019-08-01T00:00:00-04:00,2840,14,64.0,"{""<5"":1,""5-20"":3,""21-60"":3,""61-240"":7,"">240"":0}",1215.0,41.454645,-71.335065,712190.0,RI,44.0,44005.0,Newport County,
93243,sg:b4b07744e7a94e168853d0be2896e350,Compassionate Care Veterinary Clinic,RI,2019-07-01T00:00:00-04:00,2019-08-01T00:00:00-04:00,2864,70,57.0,"{""<5"":2,""5-20"":16,""21-60"":22,""61-240"":19,"">240"":11}",6595.5,41.938553999999996,-71.430072,541940.0,RI,44.0,44007.0,Providence County,440070114012.0
93424,sg:c879d92b99034bf79794404a993b7523,Calcutt Middle School,RI,2019-07-01T00:00:00-04:00,2019-08-01T00:00:00-04:00,2863,407,130.0,"{""<5"":10,""5-20"":77,""21-60"":55,""61-240"":122,"">240"":143}",55896.0,41.889829,-71.392011,611110.0,RI,44.0,44007.0,Providence County,440070110002.0
93628,sg:de1775f60adc46b69ee526417cfd2196,Victoria's Secret,RI,2019-07-01T00:00:00-04:00,2019-08-01T00:00:00-04:00,2920,176,24.0,"{""<5"":3,""5-20"":65,""21-60"":63,""61-240"":10,"">240"":35}",13276.5,41.763896,-71.45881800000001,448120.0,RI,44.0,44007.0,Providence County,440070139003.0
93724,sg:e968b1483b884fdeaea7268a7f1a15b4,GT3 Creative,RI,2019-07-01T00:00:00-04:00,2019-08-01T00:00:00-04:00,2835,20,22.5,"{""<5"":3,""5-20"":6,""21-60"":5,""61-240"":0,"">240"":6}",1725.0,41.494358,-71.375715,339950.0,RI,44.0,44005.0,Newport County,440050413005.0
