,safegraph_place_id,location_name,region,date_range_start,date_range_end,postal_code,raw_visit_counts,median_dwell,bucketed_dwell_times,est_total_dwell,latitude,longitude,naics_code,state,stateFIPS,countyFIPS,countyName,CBGFIPS
68,sg:06a19079f4014ce2abcf38ff4c0f67f7,Visiting Angels,CT,2019-07-01T00:00:00-04:00,2019-08-01T00:00:00-04:00,6084,97,39.0,"{""<5"":0,""5-20"":31,""21-60"":27,""61-240"":30,"">240"":9}",8156.0,41.869941,-72.410457,624120.0,CT,9.0,9013.0,Tolland County,90135331013.0
88,sg:08d0ce9caba6462cb3d21497615f9bde,The Landing of Farmington,CT,2019-07-01T00:00:00-04:00,2019-08-01T00:00:00-04:00,6032,252,262.0,"{""<5"":2,""5-20"":39,""21-60"":32,""61-240"":50,"">240"":129}",40273.5,41.703143,-72.857249,623312.0,CT,9.0,9003.0,Hartford County,90034602043.0
452,sg:29df870418424a72a5cb7de68481f97e,VIP Auto Sales,CT,2019-07-01T00:00:00-04:00,2019-08-01T00:00:00-04:00,6354,2,167.5,"{""<5"":0,""5-20"":0,""21-60"":0,""61-240"":2,"">240"":0}",301.0,41.713595,-71.88136999999999,811192.0,CT,9.0,9015.0,Windham County,90159072002.0
536,sg:332caa61766a4aeb8a8f54d9b3622e8e,LIA NISSAN OF ENFIELD,CT,2019-07-01T00:00:00-04:00,2019-08-01T00:00:00-04:00,6082,157,39.0,"{""<5"":3,""5-20"":52,""21-60"":47,""61-240"":35,"">240"":20}",12628.5,41.997714,-72.57467199999999,441110.0,CT,9.0,9003.0,Hartford County,90034808004.0
690,sg:400d096c7f2f494287dbdc588a361bcb,First United Methodist Church,CT,2019-07-01T00:00:00-04:00,2019-08-01T00:00:00-04:00,6378,11,120.0,"{""<5"":0,""5-20"":2,""21-60"":1,""61-240"":6,"">240"":2}",1448.5,41.340203,-71.944149,813110.0,CT,9.0,9011.0,New London County,90117053003.0
945,sg:5845c045431f4411a2f5ad3b57dbfa50,Cng Employees Federal Credit Union,CT,2019-07-01T00:00:00-04:00,2019-08-01T00:00:00-04:00,6108,271,227.0,"{""<5"":1,""5-20"":27,""21-60"":18,""61-240"":101,"">240"":124}",46029.5,41.761844,-72.657324,522110.0,CT,9.0,9003.0,Hartford County,90035102002.0
966,sg:5a6a87423e8f4a15ac4c88e4eb65211a,Shapiro Abraham Dr Optomtrst,CT,2019-07-01T00:00:00-04:00,2019-08-01T00:00:00-04:00,6013,3,18.0,"{""<5"":0,""5-20"":2,""21-60"":1,""61-240"":0,"">240"":0}",65.5,41.758371999999994,-72.999491,446130.0,CT,9.0,9003.0,Hartford County,90034101011.0
971,sg:5af7c4abedb14ff39026354f4b8363ef,Mark's Automotive,CT,2019-07-01T00:00:00-04:00,2019-08-01T00:00:00-04:00,6906,77,15.0,"{""<5"":2,""5-20"":41,""21-60"":10,""61-240"":19,"">240"":5}",4982.0,41.071745,-73.523556,447110.0,CT,9.0,9001.0,Fairfield County,90010211001.0
1098,sg:66ac0504ac06457dac61721154442daf,Federal Hairstylists 1,CT,2019-07-01T00:00:00-04:00,2019-08-01T00:00:00-04:00,6901,1,462.0,"{""<5"":0,""5-20"":0,""21-60"":0,""61-240"":0,"">240"":1}",240.0,41.051234,-73.535133,812112.0,CT,9.0,9001.0,Fairfield County,90010217002.0
1145,sg:6b01c92ea09e424da478641032a7afa0,Little Salad Shop,CT,2019-07-01T00:00:00-04:00,2019-08-01T00:00:00-04:00,6510,47,35.0,"{""<5"":2,""5-20"":18,""21-60"":10,""61-240"":10,"">240"":7}",3820.0,41.307767999999996,-72.930305,722511.0,CT,9.0,9009.0,New Haven County,90091401001.0
1240,sg:7404570f75fd4ca0a86776e2406afab0,Earthplace Preschool,CT,2019-07-01T00:00:00-04:00,2019-08-01T00:00:00-04:00,6880,3,164.0,"{""<5"":0,""5-20"":1,""21-60"":0,""61-240"":1,"">240"":1}",403.0,41.146044,-73.38314100000001,624410.0,CT,9.0,9001.0,Fairfield County,90010501003.0
1261,sg:7616a19b92254f06bc13e8b8106d3e18,Pep Boys,CT,2019-07-01T00:00:00-04:00,2019-08-01T00:00:00-04:00,6705,165,11.0,"{""<5"":7,""5-20"":99,""21-60"":35,""61-240"":20,"">240"":4}",6642.5,41.56131,-73.012376,441310.0,CT,9.0,9009.0,New Haven County,90093512001.0
1420,sg:862db0f7abb746f9bb7e7527093edcca,A Secret Garden Floral,CT,2019-07-01T00:00:00-04:00,2019-08-01T00:00:00-04:00,6706,235,33.0,"{""<5"":7,""5-20"":86,""21-60"":42,""61-240"":64,"">240"":36}",21065.5,41.531411,-73.03570400000001,453110.0,CT,9.0,9009.0,New Haven County,90093515002.0
1501,sg:8dbbd4e5d1cc4f069e670aa5bc7097e4,Yale New Haven Hospital Dietetic Internship Saint Raphael Campus,CT,2019-07-01T00:00:00-04:00,2019-08-01T00:00:00-04:00,6511,7124,91.0,"{""<5"":90,""5-20"":1396,""21-60"":1471,""61-240"":2035,"">240"":2132}",895198.0,41.310217,-72.943321,611519.0,CT,9.0,9009.0,New Haven County,90091408001.0
1513,sg:8ec987366dd84715871b99e4a085e8c5,Ferguson Library Harry Bennet Branch,CT,2019-07-01T00:00:00-04:00,2019-08-01T00:00:00-04:00,6905,200,23.5,"{""<5"":9,""5-20"":79,""21-60"":66,""61-240"":37,"">240"":9}",11411.5,41.099455,-73.543849,519120.0,CT,9.0,9001.0,Fairfield County,90010208001.0
1526,sg:9040b768f89140ddbe6af90b0d402c5f,Julie's Barks and Bubbles,CT,2019-07-01T00:00:00-04:00,2019-08-01T00:00:00-04:00,6074,168,24.0,"{""<5"":4,""5-20"":65,""21-60"":58,""61-240"":30,"">240"":11}",10326.5,41.827179,-72.558093,453910.0,CT,9.0,9003.0,Hartford County,90034874002.0
1713,sg:a1871b9d23c84a2a89114239c65cb35b,Gasoline Alley Tattoo,CT,2019-07-01T00:00:00-04:00,2019-08-01T00:00:00-04:00,6492,2,97.0,"{""<5"":0,""5-20"":1,""21-60"":0,""61-240"":1,"">240"":0}",163.0,41.456665,-72.82722199999999,812199.0,CT,9.0,9009.0,New Haven County,90091754001.0
1805,sg:aa5c19624ff94112aa612876e2e69f3a,Allstate Insurance,CT,2019-07-01T00:00:00-04:00,2019-08-01T00:00:00-04:00,6475,4,100.5,"{""<5"":0,""5-20"":2,""21-60"":0,""61-240"":1,"">240"":1}",415.5,41.286293,-72.409269,524210.0,CT,9.0,9007.0,Middlesex County,90076701001.0
1984,sg:bc0e7229f9594e309b6295d2a2c25eb2,J & M Variety Grocery,CT,2019-07-01T00:00:00-04:00,2019-08-01T00:00:00-04:00,6850,22,61.0,"{""<5"":0,""5-20"":5,""21-60"":6,""61-240"":9,"">240"":2}",2140.0,41.112333,-73.41650899999999,445110.0,CT,9.0,9001.0,Fairfield County,90010437001.0
2080,sg:c670b248239940fdb444f304a08a49e3,Shell Oil,CT,2019-07-01T00:00:00-04:00,2019-08-01T00:00:00-04:00,6247,82,5.0,"{""<5"":15,""5-20"":64,""21-60"":3,""61-240"":0,"">240"":0}",959.0,41.77086,-72.08783299999999,447110.0,CT,9.0,9015.0,Windham County,90158200001.0
2115,sg:c8f67b5aa08743549baf8d28189201b6,Longbrook Park,CT,2019-07-01T00:00:00-04:00,2019-08-01T00:00:00-04:00,6614,1239,51.0,"{""<5"":30,""5-20"":362,""21-60"":275,""61-240"":426,"">240"":146}",114890.5,41.205672,-73.124023,712190.0,CT,9.0,9001.0,Fairfield County,90010808002.0
2164,sg:cdf986b2d2e747c99797e2fa8b38bca2,Dunkin',CT,2019-07-01T00:00:00-04:00,2019-08-01T00:00:00-04:00,6513,446,7.0,"{""<5"":37,""5-20"":333,""21-60"":35,""61-240"":25,"">240"":16}",13275.0,41.321815,-72.875633,722515.0,CT,9.0,9009.0,New Haven County,90091426014.0
2226,sg:d3d85c294ec24aefa07423d66cbe852c,Jeralyn R Fantarella D M D,CT,2019-07-01T00:00:00-04:00,2019-08-01T00:00:00-04:00,6473,12,435.0,"{""<5"":0,""5-20"":0,""21-60"":2,""61-240"":2,"">240"":8}",2302.0,41.396236,-72.856439,621210.0,CT,9.0,9009.0,New Haven County,90091672022.0
2363,sg:e0d410bc48564c4cadfcb955f956fcc0,Gulf Shrimp Co,CT,2019-07-01T00:00:00-04:00,2019-08-01T00:00:00-04:00,6479,10,374.5,"{""<5"":0,""5-20"":2,""21-60"":0,""61-240"":1,"">240"":7}",1855.5,41.581263,-72.89841899999999,722511.0,CT,9.0,9003.0,Hartford County,90034304001.0
2426,sg:e70b6a802f184e2f9b7715a88ec310cc,Don's Dock Marina,CT,2019-07-01T00:00:00-04:00,2019-08-01T00:00:00-04:00,6378,16,9.0,"{""<5"":0,""5-20"":16,""21-60"":0,""61-240"":0,"">240"":0}",200.0,41.342286,-71.908436,441222.0,CT,9.0,9011.0,New London County,90117052003.0
2434,sg:e835c24148064040b9ed768ae989af16,Oak Lane Country Club,CT,2019-07-01T00:00:00-04:00,2019-08-01T00:00:00-04:00,6525,7,66.0,"{""<5"":0,""5-20"":3,""21-60"":0,""61-240"":1,"">240"":3}",908.0,41.319112,-73.02259000000001,713940.0,CT,9.0,9009.0,New Haven County,90091601002.0
2468,sg:eb1011e412284ec48024a6bbee6eecbd,Relax The Back,CT,2019-07-01T00:00:00-04:00,2019-08-01T00:00:00-04:00,6001,14,13.0,"{""<5"":0,""5-20"":11,""21-60"":3,""61-240"":0,"">240"":0}",259.0,41.817378000000005,-72.863197,442110.0,CT,9.0,9003.0,Hartford County,90034661021.0
2651,sg:ff5057bd92664cb2968272a759417764,Stop & Shop,CT,2019-07-01T00:00:00-04:00,2019-08-01T00:00:00-04:00,6468,1509,20.0,"{""<5"":40,""5-20"":790,""21-60"":574,""61-240"":67,"">240"":38}",52425.5,41.314632,-73.216521,445110.0,CT,9.0,9001.0,Fairfield County,90011002002.0
2748,sg:087ab09375e24707bc14dad3908c20f3,University Pizza &Grill,CT,2019-07-01T00:00:00-04:00,2019-08-01T00:00:00-04:00,6051,151,48.0,"{""<5"":1,""5-20"":45,""21-60"":38,""61-240"":40,"">240"":27}",14604.0,41.674077000000004,-72.773758,722511.0,CT,9.0,9003.0,Hartford County,90034162002.0
2843,sg:0fd937265b9e4c37b484d5ce6f8ca775,Curcio Bail Bonds,CT,2019-07-01T00:00:00-04:00,2019-08-01T00:00:00-04:00,6604,852,42.0,"{""<5"":13,""5-20"":241,""21-60"":247,""61-240"":285,"">240"":66}",71781.0,41.181194,-73.192572,451211.0,,,,,
2857,sg:1151c8e0effe4c7a9ce4a480913bf199,Sharon Pharmacy,CT,2019-07-01T00:00:00-04:00,2019-08-01T00:00:00-04:00,6069,7,17.0,"{""<5"":0,""5-20"":7,""21-60"":0,""61-240"":0,"">240"":0}",87.5,41.884828000000006,-73.469323,446110.0,CT,9.0,9005.0,Litchfield County,90052621002.0
2911,sg:1662a58baeb747288bb8542d09bfdaa1,Greathouse Dog Training,CT,2019-07-01T00:00:00-04:00,2019-08-01T00:00:00-04:00,6033,6,27.5,"{""<5"":0,""5-20"":3,""21-60"":1,""61-240"":1,"">240"":1}",468.5,41.6996,-72.475799,812910.0,CT,9.0,9003.0,Hartford County,90035202012.0
2924,sg:1768e8bbf8554f3890fc4d4f559b7b36,Thomaston Physical Therapy,CT,2019-07-01T00:00:00-04:00,2019-08-01T00:00:00-04:00,6787,41,53.0,"{""<5"":0,""5-20"":9,""21-60"":13,""61-240"":13,"">240"":6}",4035.5,41.670809000000006,-73.082309,621340.0,CT,9.0,9005.0,Litchfield County,90053491002.0
3132,sg:29594738297748f2b0243c3bea64068a,Mobil,CT,2019-07-01T00:00:00-04:00,2019-08-01T00:00:00-04:00,6451,167,8.0,"{""<5"":10,""5-20"":112,""21-60"":23,""61-240"":13,"">240"":9}",6473.0,41.540015000000004,-72.8167,447110.0,CT,9.0,9009.0,New Haven County,90091703002.0
3149,sg:2a8bf5e4c4804ad097587a224526981b,Fairmont Park,CT,2019-07-01T00:00:00-04:00,2019-08-01T00:00:00-04:00,6513,500,78.0,"{""<5"":6,""5-20"":128,""21-60"":85,""61-240"":137,"">240"":144}",60236.0,41.310517,-72.88008,712190.0,CT,9.0,9009.0,New Haven County,90091426032.0
3169,sg:2ca7f8ad23934b7bae987420c7389d52,Killingworth Animal Hospital,CT,2019-07-01T00:00:00-04:00,2019-08-01T00:00:00-04:00,6419,59,25.0,"{""<5"":3,""5-20"":22,""21-60"":21,""61-240"":11,"">240"":2}",3268.5,41.353603,-72.563366,541940.0,CT,9.0,9007.0,Middlesex County,90076401005.0
3213,sg:31cbd2fe241e402fa9b2990089c6452b,Boost Mobile,CT,2019-07-01T00:00:00-04:00,2019-08-01T00:00:00-04:00,6854,1,4.0,"{""<5"":1,""5-20"":0,""21-60"":0,""61-240"":0,"">240"":0}",2.5,41.101553,-73.419501,517312.0,CT,9.0,9001.0,Fairfield County,90010441001.0
3267,sg:36d383f7d75043bfb7ff662f0f1540cf,AT&T,CT,2019-07-01T00:00:00-04:00,2019-08-01T00:00:00-04:00,6450,3,518.0,"{""<5"":0,""5-20"":0,""21-60"":0,""61-240"":0,"">240"":3}",720.0,41.509085999999996,-72.808923,517312.0,CT,9.0,9009.0,New Haven County,90091711003.0
3360,sg:3ed1e36af2824498ab0e21302cc022ed,Hair Kissed,CT,2019-07-01T00:00:00-04:00,2019-08-01T00:00:00-04:00,6042,1,64.0,"{""<5"":0,""5-20"":0,""21-60"":0,""61-240"":1,"">240"":0}",150.5,41.810052,-72.52839200000001,812112.0,CT,9.0,9003.0,Hartford County,90035141021.0
3429,sg:44ec22d3cdb54ee9aaa749570d9659c8,Little Learners At Three Rivers,CT,2019-07-01T00:00:00-04:00,2019-08-01T00:00:00-04:00,6360,188,60.5,"{""<5"":10,""5-20"":35,""21-60"":49,""61-240"":66,"">240"":28}",19100.0,41.509739,-72.103081,624410.0,CT,9.0,9011.0,New London County,90116967003.0
3540,sg:4f7bacf1da314757871d864589c8784a,Subway,CT,2019-07-01T00:00:00-04:00,2019-08-01T00:00:00-04:00,6082,8,7.5,"{""<5"":2,""5-20"":4,""21-60"":0,""61-240"":2,"">240"":0}",356.0,42.000192,-72.571826,722513.0,CT,9.0,9003.0,Hartford County,90034804002.0
3541,sg:4f860cfdc73d40d18cc81043d2f7e5f2,Wasp Archery Products,CT,2019-07-01T00:00:00-04:00,2019-08-01T00:00:00-04:00,6782,31,10.0,"{""<5"":0,""5-20"":22,""21-60"":6,""61-240"":0,"">240"":3}",1238.0,41.674401,-73.072294,451110.0,CT,9.0,9005.0,Litchfield County,90053492002.0
3670,sg:5b75154f779c4de8980ed63f7c7975a3,Baltic United Methodist Church,CT,2019-07-01T00:00:00-04:00,2019-08-01T00:00:00-04:00,6330,8,76.0,"{""<5"":0,""5-20"":2,""21-60"":0,""61-240"":5,"">240"":1}",1017.5,41.616575,-72.090288,813110.0,CT,9.0,9011.0,New London County,90117111002.0
3694,sg:5def7d09df644bca97f4680a10332506,Nourish Nosh Nutrition,CT,2019-07-01T00:00:00-04:00,2019-08-01T00:00:00-04:00,6443,29,10.0,"{""<5"":1,""5-20"":17,""21-60"":4,""61-240"":3,"">240"":4}",1788.5,41.278871,-72.594312,621330.0,CT,9.0,9009.0,New Haven County,90091941005.0
3742,sg:6231caae0e2d46428c14b22af8b77cf0,The Reynolds Clinic,CT,2019-07-01T00:00:00-04:00,2019-08-01T00:00:00-04:00,6457,31,35.0,"{""<5"":1,""5-20"":8,""21-60"":13,""61-240"":9,"">240"":0}",1983.5,41.53713,-72.615499,621330.0,CT,9.0,9007.0,Middlesex County,90076802001.0
3772,sg:649449ae066c44deaf1b767cf8527849,Country Kids Cc & Elc Ctr Llc Of The Quiet,CT,2019-07-01T00:00:00-04:00,2019-08-01T00:00:00-04:00,6260,18,43.5,"{""<5"":0,""5-20"":4,""21-60"":6,""61-240"":5,"">240"":3}",1765.5,41.908317,-71.90557,624410.0,CT,9.0,9015.0,Windham County,90159031007.0
3835,sg:69e8490d1b9542d7a144679d808a3545,Greenwich Gynecology,CT,2019-07-01T00:00:00-04:00,2019-08-01T00:00:00-04:00,6830,23,25.0,"{""<5"":0,""5-20"":11,""21-60"":2,""61-240"":6,"">240"":4}",2081.5,41.034571,-73.629248,621111.0,CT,9.0,9001.0,Fairfield County,90010103002.0
4018,sg:7ce3d8e31457466686c7f62c11d499d1,Torrington Savings Bank,CT,2019-07-01T00:00:00-04:00,2019-08-01T00:00:00-04:00,6073,2,7.0,"{""<5"":0,""5-20"":2,""21-60"":0,""61-240"":0,"">240"":0}",25.0,41.878468,-72.97890100000001,522110.0,CT,9.0,9005.0,Litchfield County,90053061001.0
4137,sg:8abf0c01d7c04af8b327e415a19f3a85,Hertz,CT,2019-07-01T00:00:00-04:00,2019-08-01T00:00:00-04:00,6096,29,32.0,"{""<5"":0,""5-20"":13,""21-60"":5,""61-240"":6,"">240"":5}",2468.0,41.925857,-72.650992,532111.0,CT,9.0,9003.0,Hartford County,90039800001.0
4149,sg:8be4bc886f584513b484a1f3da2f0b21,Dillion's Florist,CT,2019-07-01T00:00:00-04:00,2019-08-01T00:00:00-04:00,6460,272,25.0,"{""<5"":2,""5-20"":99,""21-60"":107,""61-240"":34,"">240"":30}",17893.0,41.221121999999994,-73.074655,453110.0,CT,9.0,9009.0,New Haven County,90091506002.0
4340,sg:9ee8bdba089543d8b269be64b01e91d7,R J Kinsella Magnet School Of Performing Arts,CT,2019-07-01T00:00:00-04:00,2019-08-01T00:00:00-04:00,6106,235,66.0,"{""<5"":6,""5-20"":71,""21-60"":38,""61-240"":53,"">240"":67}",26498.0,41.754785999999996,-72.665499,611110.0,CT,9.0,9003.0,Hartford County,90035004001.0
4349,sg:9f98fbdd30b44a869061868cd63f1240,Total Wine & More,CT,2019-07-01T00:00:00-04:00,2019-08-01T00:00:00-04:00,6851,567,19.0,"{""<5"":9,""5-20"":290,""21-60"":190,""61-240"":58,"">240"":20}",24871.5,41.14013,-73.42355699999999,445310.0,CT,9.0,9001.0,Fairfield County,90010427002.0
4355,sg:a08cbb5c29ad414497a0a85c9ea8a04a,Tolland Imaging Center,CT,2019-07-01T00:00:00-04:00,2019-08-01T00:00:00-04:00,6084,125,31.0,"{""<5"":2,""5-20"":46,""21-60"":51,""61-240"":14,"">240"":12}",7632.5,41.861204,-72.358874,621511.0,CT,9.0,9013.0,Tolland County,90135331022.0
4484,sg:ae01dfb34f0f416fbcd13be52aab0ce9,Queen's Nails Salon,CT,2019-07-01T00:00:00-04:00,2019-08-01T00:00:00-04:00,6410,49,60.0,"{""<5"":1,""5-20"":5,""21-60"":19,""61-240"":17,"">240"":7}",5073.0,41.50695,-72.89973499999999,812113.0,CT,9.0,9009.0,New Haven County,90093431022.0
4544,sg:b39f9a7aaf704e95a7993caf0812d1a1,Sweet Cream's Ice Cream Parlor,CT,2019-07-01T00:00:00-04:00,2019-08-01T00:00:00-04:00,6492,193,10.0,"{""<5"":10,""5-20"":129,""21-60"":40,""61-240"":9,"">240"":5}",5812.0,41.451777,-72.813064,722515.0,CT,9.0,9009.0,New Haven County,90091759004.0
4588,sg:b781634af1dd4cce855c03427dd2816d,Doogie's,CT,2019-07-01T00:00:00-04:00,2019-08-01T00:00:00-04:00,6111,124,25.5,"{""<5"":2,""5-20"":45,""21-60"":65,""61-240"":7,"">240"":5}",5453.5,41.682407,-72.711179,722511.0,CT,9.0,9003.0,Hartford County,90034941004.0
5005,sg:e1d8a092b4ae45fd97c0142e4d31216b,Ray's Autobody of Milford,CT,2019-07-01T00:00:00-04:00,2019-08-01T00:00:00-04:00,6460,6,102.5,"{""<5"":0,""5-20"":0,""21-60"":3,""61-240"":1,"">240"":2}",752.0,41.229411999999996,-73.065772,811121.0,CT,9.0,9009.0,New Haven County,90091501001.0
5045,sg:e590db36beda4f21a2812f5fbdfc70bd,Trumbull Elite Sports Training,CT,2019-07-01T00:00:00-04:00,2019-08-01T00:00:00-04:00,6611,90,42.0,"{""<5"":1,""5-20"":30,""21-60"":18,""61-240"":40,"">240"":1}",7366.5,41.293661,-73.237786,713940.0,CT,9.0,9001.0,Fairfield County,90010901002.0
5112,sg:eccbace187594c679c77881ff71fb509,Underground Fitness,CT,2019-07-01T00:00:00-04:00,2019-08-01T00:00:00-04:00,6906,766,32.0,"{""<5"":7,""5-20"":191,""21-60"":381,""61-240"":167,"">240"":20}",47769.0,41.076549,-73.521592,713940.0,CT,9.0,9001.0,Fairfield County,90010211001.0
5307,sg:004f772f1929443dbd72229c956a9471,Sebastianelli Jewelers,CT,2019-07-01T00:00:00-04:00,2019-08-01T00:00:00-04:00,6109,134,14.5,"{""<5"":5,""5-20"":83,""21-60"":38,""61-240"":7,"">240"":1}",3882.5,41.693762,-72.656705,448310.0,CT,9.0,9003.0,Hartford County,90034926001.0
5371,sg:03eb459f741444febbc0ec11044bea7d,Poe's Kitchen,CT,2019-07-01T00:00:00-04:00,2019-08-01T00:00:00-04:00,6607,243,41.0,"{""<5"":6,""5-20"":83,""21-60"":45,""61-240"":55,"">240"":54}",24112.5,41.172365,-73.169388,722511.0,CT,9.0,9001.0,Fairfield County,90010744003.0
5421,sg:08c2fc7755784d4dac61e6cbe16a68e1,Living Well Primary care,CT,2019-07-01T00:00:00-04:00,2019-08-01T00:00:00-04:00,6002,32,35.5,"{""<5"":0,""5-20"":12,""21-60"":9,""61-240"":8,"">240"":3}",2438.5,41.816389,-72.734516,621111.0,CT,9.0,9003.0,Hartford County,90034713002.0
5497,sg:10b9c29b1d394ffdb9f36855ad359d1d,Contois Tavern,CT,2019-07-01T00:00:00-04:00,2019-08-01T00:00:00-04:00,6511,218,49.5,"{""<5"":5,""5-20"":57,""21-60"":55,""61-240"":56,"">240"":45}",22180.5,41.319419,-72.909554,722511.0,CT,9.0,9009.0,New Haven County,90091419003.0
5520,sg:12b50463b67049dfa6971d27b249031e,Fairfield Inn & Suites by Marriott,CT,2019-07-01T00:00:00-04:00,2019-08-01T00:00:00-04:00,6082,8,33.5,"{""<5"":1,""5-20"":1,""21-60"":3,""61-240"":1,"">240"":2}",767.0,42.020163000000004,-72.584781,721110.0,CT,9.0,9003.0,Hartford County,90034803002.0
5582,sg:18cc7893e8b144b6855644709c94a859,Bright Horizons Children's Center,CT,2019-07-01T00:00:00-04:00,2019-08-01T00:00:00-04:00,6033,79,174.0,"{""<5"":1,""5-20"":18,""21-60"":6,""61-240"":33,"">240"":21}",10477.0,41.718456,-72.574217,624410.0,CT,9.0,9003.0,Hartford County,90035201002.0
5812,sg:2daa604dc89f4585beb25330c2c18c39,Torrington Child Care Center Inc,CT,2019-07-01T00:00:00-04:00,2019-08-01T00:00:00-04:00,6790,34,178.0,"{""<5"":0,""5-20"":8,""21-60"":4,""61-240"":14,"">240"":8}",4289.0,41.824721999999994,-73.10266,624410.0,CT,9.0,9005.0,Litchfield County,90053101001.0
6035,sg:446600904ad34468b3989c4dd156b9d0,United States Postal Service (USPS),CT,2019-07-01T00:00:00-04:00,2019-08-01T00:00:00-04:00,6079,42,242.0,"{""<5"":1,""5-20"":6,""21-60"":4,""61-240"":9,"">240"":22}",6874.0,42.035861,-73.407912,491110.0,CT,9.0,9005.0,Litchfield County,90052611002.0
6109,sg:4a6addb8e9db44ffa058addbeaf1c968,KFC,CT,2019-07-01T00:00:00-04:00,2019-08-01T00:00:00-04:00,6514,156,11.5,"{""<5"":10,""5-20"":98,""21-60"":35,""61-240"":9,"">240"":4}",4982.0,41.353442,-72.929724,722513.0,CT,9.0,9009.0,New Haven County,90091656002.0
6249,sg:5846582ff9c340d6b07ce1a786f1e448,Automotive Connection,CT,2019-07-01T00:00:00-04:00,2019-08-01T00:00:00-04:00,6051,9,34.0,"{""<5"":0,""5-20"":3,""21-60"":5,""61-240"":1,"">240"":0}",390.5,41.671482,-72.757614,811111.0,CT,9.0,9003.0,Hartford County,90034154001.0
6286,sg:5c22d4e8a5744f91a1bb54485fc0b055,National Wholesale Florist,CT,2019-07-01T00:00:00-04:00,2019-08-01T00:00:00-04:00,6477,217,21.0,"{""<5"":14,""5-20"":93,""21-60"":49,""61-240"":55,"">240"":6}",12899.5,41.251053000000006,-73.00048000000001,453110.0,CT,9.0,9009.0,New Haven County,90091571001.0
6288,sg:5c668786b0054dc187d017803300d027,Computer Sciences Corporation Eastern Data Center,CT,2019-07-01T00:00:00-04:00,2019-08-01T00:00:00-04:00,6360,59,81.0,"{""<5"":0,""5-20"":15,""21-60"":11,""61-240"":17,"">240"":16}",7031.5,41.574611,-72.119427,443142.0,CT,9.0,9011.0,New London County,90117121001.0
6329,sg:61367be7503742089d75a2e2fa1c0af0,CT Self Stor Bloomfield,CT,2019-07-01T00:00:00-04:00,2019-08-01T00:00:00-04:00,6002,8,18.5,"{""<5"":0,""5-20"":5,""21-60"":3,""61-240"":0,"">240"":0}",184.0,41.860175,-72.690827,531130.0,CT,9.0,9003.0,Hartford County,90034715002.0
6556,sg:780267652e3c4b1e90b069899419885a,Bill's Service South Of Stamford,CT,2019-07-01T00:00:00-04:00,2019-08-01T00:00:00-04:00,6902,115,25.0,"{""<5"":3,""5-20"":45,""21-60"":31,""61-240"":31,"">240"":5}",7691.0,41.047714,-73.527408,441310.0,CT,9.0,9001.0,Fairfield County,90010221002.0
6631,sg:7f35a598c5174f0b8cc6916f99c2baf9,Extreme Paintball,CT,2019-07-01T00:00:00-04:00,2019-08-01T00:00:00-04:00,6704,93,82.0,"{""<5"":2,""5-20"":20,""21-60"":18,""61-240"":37,"">240"":16}",10392.5,41.591629,-73.039733,713950.0,CT,9.0,9009.0,New Haven County,90093525002.0
6708,sg:86343860576b4e12b5d3df42ea03c2b8,Manchester Memorial Hospital,CT,2019-07-01T00:00:00-04:00,2019-08-01T00:00:00-04:00,6040,542,83.0,"{""<5"":7,""5-20"":105,""21-60"":118,""61-240"":153,"">240"":159}",67295.5,41.781684999999996,-72.525747,622110.0,CT,9.0,9003.0,Hartford County,90035144003.0
6815,sg:917746a87e974adda9d105e348139901,Balance Hair Studio,CT,2019-07-01T00:00:00-04:00,2019-08-01T00:00:00-04:00,6380,54,112.0,"{""<5"":1,""5-20"":6,""21-60"":10,""61-240"":16,"">240"":21}",7930.5,41.569309999999994,-72.053229,812112.0,CT,9.0,9011.0,New London County,90116961001.0
6840,sg:94381bda51e541deb72756f093f58498,Fred Astaire Franchised Dance Studios,CT,2019-07-01T00:00:00-04:00,2019-08-01T00:00:00-04:00,6890,85,44.0,"{""<5"":1,""5-20"":23,""21-60"":25,""61-240"":31,"">240"":5}",7168.0,41.138859000000004,-73.290288,713940.0,CT,9.0,9001.0,Fairfield County,90010606001.0
7011,sg:a67537f7db3b4e7490b7872826616ea9,Bluff Point State Park,CT,2019-07-01T00:00:00-04:00,2019-08-01T00:00:00-04:00,6340,499,21.0,"{""<5"":9,""5-20"":238,""21-60"":132,""61-240"":106,"">240"":14}",27656.5,41.337112,-72.030855,712190.0,CT,9.0,9011.0,New London County,90117029002.0
7236,sg:bcda82803a354c279ff1044faac7b9f8,Madison Health Foods,CT,2019-07-01T00:00:00-04:00,2019-08-01T00:00:00-04:00,6443,5,30.0,"{""<5"":0,""5-20"":1,""21-60"":3,""61-240"":1,"">240"":0}",284.5,41.281721000000005,-72.594187,446191.0,CT,9.0,9009.0,New Haven County,90091941003.0
7359,sg:c8744c45694b46d0bdfcc967052b2729,Dickinson Memorial Park,CT,2019-07-01T00:00:00-04:00,2019-08-01T00:00:00-04:00,6810,481,43.0,"{""<5"":12,""5-20"":135,""21-60"":148,""61-240"":173,"">240"":13}",36868.0,41.399297999999995,-73.302062,712190.0,CT,9.0,9001.0,Fairfield County,90012303003.0
7896,sg:fff5753e493143099f5204f35bc7a768,UBS,CT,2019-07-01T00:00:00-04:00,2019-08-01T00:00:00-04:00,6320,15,514.0,"{""<5"":0,""5-20"":1,""21-60"":0,""61-240"":0,"">240"":14}",3372.5,41.354588,-72.094365,522110.0,CT,9.0,9011.0,New London County,90116905002.0
7963,sg:06518a46a3ff446cbd9f202ab3cebc6b,Hook &amp Reel Cajun Seafood &amp Bar,CT,2019-07-01T00:00:00-04:00,2019-08-01T00:00:00-04:00,6477,46,6.5,"{""<5"":4,""5-20"":40,""21-60"":1,""61-240"":0,"">240"":1}",790.5,41.261255,-73.008884,722511.0,CT,9.0,9009.0,New Haven County,90091571001.0
7992,sg:08fe2f2adaba4ddd953f5c827dfed9da,Benjamin Franklin School,CT,2019-07-01T00:00:00-04:00,2019-08-01T00:00:00-04:00,6451,40,122.5,"{""<5"":0,""5-20"":3,""21-60"":6,""61-240"":19,"">240"":12}",6020.0,41.539004999999996,-72.81818299999999,611110.0,CT,9.0,9009.0,New Haven County,90091706001.0
8120,sg:13de25d68d55477e88b5b0c43b6d5991,Golden Pizza Restaurant,CT,2019-07-01T00:00:00-04:00,2019-08-01T00:00:00-04:00,6365,51,82.0,"{""<5"":3,""5-20"":10,""21-60"":10,""61-240"":26,"">240"":2}",4930.5,41.474618,-72.06473100000001,722511.0,CT,9.0,9011.0,New London County,90117001003.0
8330,sg:26699b7c868f40b9a68725eface7e38a,Mystic Manor Convalescent Center,CT,2019-07-01T00:00:00-04:00,2019-08-01T00:00:00-04:00,6355,235,151.0,"{""<5"":1,""5-20"":37,""21-60"":37,""61-240"":58,"">240"":102}",35172.5,41.364211,-71.975748,623312.0,CT,9.0,9011.0,New London County,90117030003.0
8514,sg:382b437ca04848c99fff212f54dda1df,Antoinet Hair Braiding,CT,2019-07-01T00:00:00-04:00,2019-08-01T00:00:00-04:00,6705,37,80.0,"{""<5"":0,""5-20"":9,""21-60"":3,""61-240"":23,"">240"":2}",4175.5,41.5504,-73.009214,812112.0,CT,9.0,9009.0,New Haven County,90093513003.0
8572,sg:3d6f1bef3a1c4a77baa619bd3ec52be9,Laskara's Restaurant,CT,2019-07-01T00:00:00-04:00,2019-08-01T00:00:00-04:00,6492,81,62.0,"{""<5"":0,""5-20"":21,""21-60"":19,""61-240"":41,"">240"":0}",7202.5,41.468435,-72.852232,722511.0,CT,9.0,9009.0,New Haven County,90091756005.0
8635,sg:433c76126a26414a849391c42524ab02,Ameico,CT,2019-07-01T00:00:00-04:00,2019-08-01T00:00:00-04:00,6776,85,76.0,"{""<5"":2,""5-20"":24,""21-60"":14,""61-240"":24,"">240"":21}",9524.0,41.578356,-73.409464,448310.0,CT,9.0,9005.0,Litchfield County,90052536002.0
8686,sg:48e2fe2e8ccf4d7fb92ec5fe5a509463,S New China,CT,2019-07-01T00:00:00-04:00,2019-08-01T00:00:00-04:00,6096,93,25.0,"{""<5"":4,""5-20"":36,""21-60"":22,""61-240"":22,"">240"":9}",6822.0,41.92973,-72.627886,722511.0,CT,9.0,9003.0,Hartford County,90034761002.0
8784,sg:525503de6f88463793492c10b7a08507,Annex pizza,CT,2019-07-01T00:00:00-04:00,2019-08-01T00:00:00-04:00,6512,69,38.0,"{""<5"":0,""5-20"":19,""21-60"":29,""61-240"":20,"">240"":1}",4662.0,41.288304,-72.891237,722511.0,CT,9.0,9009.0,New Haven County,90091427002.0
8788,sg:52755fe5b591436bbb1cd61949ff9eaa,Package Store,CT,2019-07-01T00:00:00-04:00,2019-08-01T00:00:00-04:00,6248,79,21.0,"{""<5"":4,""5-20"":35,""21-60"":4,""61-240"":10,"">240"":26}",8354.5,41.720141,-72.272811,445310.0,CT,9.0,9013.0,Tolland County,90138601002.0
8814,sg:550d4d5d69d449e494513ef85a3b04be,Dent Wizard,CT,2019-07-01T00:00:00-04:00,2019-08-01T00:00:00-04:00,6114,4,50.5,"{""<5"":0,""5-20"":1,""21-60"":2,""61-240"":1,"">240"":0}",244.0,41.739356,-72.666604,811121.0,CT,9.0,9003.0,Hartford County,90035025002.0
8867,sg:59c5d4a9ff0646228fcef1cb834634b3,Mclean,CT,2019-07-01T00:00:00-04:00,2019-08-01T00:00:00-04:00,6070,245,151.0,"{""<5"":0,""5-20"":35,""21-60"":47,""61-240"":81,"">240"":82}",34211.5,41.882559,-72.828025,623312.0,CT,9.0,9003.0,Hartford County,90034662021.0
8984,sg:655d5fa742e54e6889ecbd1c8b9b4481,The Edge Fitness Clubs,CT,2019-07-01T00:00:00-04:00,2019-08-01T00:00:00-04:00,6824,1899,47.0,"{""<5"":16,""5-20"":273,""21-60"":928,""61-240"":674,"">240"":8}",144393.5,41.159865,-73.24242199999999,713940.0,CT,9.0,9001.0,Fairfield County,90010614001.0
9017,sg:691aea9edfce4da68e5722b6c7c61745,Xtreme Cheer Ct,CT,2019-07-01T00:00:00-04:00,2019-08-01T00:00:00-04:00,6854,111,86.0,"{""<5"":0,""5-20"":19,""21-60"":22,""61-240"":33,"">240"":37}",14975.0,41.09409,-73.427724,713940.0,CT,9.0,9001.0,Fairfield County,90010440005.0
9157,sg:75ad8b6518b5431ea0dcd514fea7fdc9,Michael J Reynolds DDS,CT,2019-07-01T00:00:00-04:00,2019-08-01T00:00:00-04:00,6890,4,500.0,"{""<5"":0,""5-20"":0,""21-60"":0,""61-240"":0,"">240"":4}",960.0,41.140095,-73.27817399999999,621210.0,CT,9.0,9001.0,Fairfield County,90010606001.0
9216,sg:7b1be2ba19cd4e558232592a2fd06001,Dunkin',CT,2019-07-01T00:00:00-04:00,2019-08-01T00:00:00-04:00,6026,44,6.0,"{""<5"":10,""5-20"":29,""21-60"":4,""61-240"":0,"">240"":1}",789.5,41.927498,-72.708246,722515.0,CT,9.0,9003.0,Hartford County,90034701004.0
9222,sg:7bb3c9b0654c4cf987e840522f65ccb4,Manchester Transmissions,CT,2019-07-01T00:00:00-04:00,2019-08-01T00:00:00-04:00,6042,58,34.0,"{""<5"":1,""5-20"":19,""21-60"":12,""61-240"":13,"">240"":13}",5802.5,41.79785,-72.519406,811111.0,CT,9.0,9003.0,Hartford County,90035141024.0
9307,sg:843c177bc1ce43c38a6c130bb897be57,Putnam Bank,CT,2019-07-01T00:00:00-04:00,2019-08-01T00:00:00-04:00,6374,18,6.5,"{""<5"":2,""5-20"":13,""21-60"":3,""61-240"":0,"">240"":0}",289.0,41.663638,-71.911855,522110.0,CT,9.0,9015.0,Windham County,90159073002.0
9386,sg:8b2d7ea0a7094d92b1ab302f672fdac6,Pet Valu,CT,2019-07-01T00:00:00-04:00,2019-08-01T00:00:00-04:00,6437,170,6.0,"{""<5"":20,""5-20"":129,""21-60"":15,""61-240"":3,"">240"":3}",3441.5,41.287671,-72.684551,453910.0,CT,9.0,9009.0,New Haven County,90091901001.0
9523,sg:9a125cef31ea4611b67800a0036148a7,Feldman Richard B DPM FACFAS,CT,2019-07-01T00:00:00-04:00,2019-08-01T00:00:00-04:00,6516,84,31.0,"{""<5"":1,""5-20"":28,""21-60"":37,""61-240"":18,"">240"":0}",4560.0,41.267967999999996,-72.97864399999999,621111.0,CT,9.0,9009.0,New Haven County,90091542005.0
9602,sg:a170d1c54b0547009196e7259d0502e8,Cumberland Farms,CT,2019-07-01T00:00:00-04:00,2019-08-01T00:00:00-04:00,6360,512,8.0,"{""<5"":29,""5-20"":364,""21-60"":51,""61-240"":27,"">240"":41}",20591.5,41.509474,-72.074802,447110.0,CT,9.0,9011.0,New London County,90116970002.0
9717,sg:abcd13aa4732446d8de7cafbb49475aa,E N I Motorsports,CT,2019-07-01T00:00:00-04:00,2019-08-01T00:00:00-04:00,6804,71,11.0,"{""<5"":4,""5-20"":41,""21-60"":11,""61-240"":6,"">240"":9}",4031.0,41.437871,-73.408703,441310.0,CT,9.0,9001.0,Fairfield County,90012053003.0
9858,sg:b92b1e8d90724cb2983d0663df1c9408,St John The Evangelist School,CT,2019-07-01T00:00:00-04:00,2019-08-01T00:00:00-04:00,6795,12,27.5,"{""<5"":0,""5-20"":3,""21-60"":7,""61-240"":1,"">240"":1}",711.5,41.600023,-73.115066,611110.0,CT,9.0,9005.0,Litchfield County,90053601003.0
9893,sg:bd2e448003214cffaa05132f9fb249ca,St Mary St Joseph School,CT,2019-07-01T00:00:00-04:00,2019-08-01T00:00:00-04:00,6226,287,241.0,"{""<5"":3,""5-20"":58,""21-60"":31,""61-240"":51,"">240"":144}",44223.5,41.713547,-72.209213,611110.0,CT,9.0,9015.0,Windham County,90158006003.0
9927,sg:c198e067f0914a2691a852207dc2b428,Sopheakthana's Beauty Salon,CT,2019-07-01T00:00:00-04:00,2019-08-01T00:00:00-04:00,6705,98,227.0,"{""<5"":3,""5-20"":29,""21-60"":7,""61-240"":14,"">240"":45}",13560.5,41.540156,-73.00833,446120.0,CT,9.0,9009.0,New Haven County,90093527011.0
9930,sg:c1d71883a95e49f5a04d8dea81d53627,Simsbury 1820 House,CT,2019-07-01T00:00:00-04:00,2019-08-01T00:00:00-04:00,6070,220,86.0,"{""<5"":2,""5-20"":32,""21-60"":49,""61-240"":102,"">240"":35}",26140.5,41.873226,-72.803351,721110.0,CT,9.0,9003.0,Hartford County,90034663002.0
10035,sg:cc19a6288cd947b5a581ea877f705e01,Landmark Partners,CT,2019-07-01T00:00:00-04:00,2019-08-01T00:00:00-04:00,6070,2,125.5,"{""<5"":0,""5-20"":1,""21-60"":0,""61-240"":0,"">240"":1}",252.5,41.869673999999996,-72.81098,523930.0,CT,9.0,9003.0,Hartford County,90034661012.0
10123,sg:d5e63fbc590b46d79a4161fb66c2d742,Panda House Chinese Restaurant,CT,2019-07-01T00:00:00-04:00,2019-08-01T00:00:00-04:00,6614,393,23.0,"{""<5"":15,""5-20"":163,""21-60"":86,""61-240"":82,"">240"":47}",29179.0,41.243337,-73.10198100000001,722511.0,CT,9.0,9001.0,Fairfield County,90010812001.0
10134,sg:d79a9f86234e4a4c90ec3642d872eb12,Associated Painting and Power Washing,CT,2019-07-01T00:00:00-04:00,2019-08-01T00:00:00-04:00,6424,98,226.0,"{""<5"":0,""5-20"":15,""21-60"":10,""61-240"":25,"">240"":48}",15875.0,41.602068,-72.48937,811121.0,CT,9.0,9007.0,Middlesex County,90075501001.0
10266,sg:e48397eff5b04f0d87a199d2e8ae0887,7-Eleven,CT,2019-07-01T00:00:00-04:00,2019-08-01T00:00:00-04:00,6109,136,8.0,"{""<5"":4,""5-20"":111,""21-60"":15,""61-240"":6,"">240"":0}",2908.0,41.702773,-72.704562,445120.0,CT,9.0,9003.0,Hartford County,90034924002.0
10312,sg:e8ee702b0f974144869582a933f041f4,Joshua Center,CT,2019-07-01T00:00:00-04:00,2019-08-01T00:00:00-04:00,6250,162,252.0,"{""<5"":0,""5-20"":7,""21-60"":21,""61-240"":49,"">240"":85}",28712.5,41.741251,-72.19799599999999,621610.0,CT,9.0,9013.0,Tolland County,90138815004.0
10343,sg:ecf887ee5f7142c58fe8907464358212,Yale Fertility Center of Stamford,CT,2019-07-01T00:00:00-04:00,2019-08-01T00:00:00-04:00,6902,73,165.0,"{""<5"":0,""5-20"":15,""21-60"":8,""61-240"":22,"">240"":28}",10542.5,41.054955,-73.552456,621111.0,CT,9.0,9001.0,Fairfield County,90010214001.0
10355,sg:edba1a3bb44f424da3205bfc622af93d,Academy Of Art & Learning Child Care Center,CT,2019-07-01T00:00:00-04:00,2019-08-01T00:00:00-04:00,6066,7,120.0,"{""<5"":0,""5-20"":3,""21-60"":0,""61-240"":1,"">240"":3}",908.0,41.839683,-72.490071,624410.0,CT,9.0,9013.0,Tolland County,90135303023.0
10377,sg:eff339d2b8fc470ab9ce38596fcb8add,Conard,CT,2019-07-01T00:00:00-04:00,2019-08-01T00:00:00-04:00,6033,104,63.0,"{""<5"":0,""5-20"":28,""21-60"":24,""61-240"":16,"">240"":36}",12370.0,41.710336,-72.58827600000001,541921.0,CT,9.0,9003.0,Hartford County,90035203023.0
10435,sg:f5513dd5dd734c3d867f663747656022,Preferred Automotive Service Center,CT,2019-07-01T00:00:00-04:00,2019-08-01T00:00:00-04:00,6830,18,289.5,"{""<5"":0,""5-20"":3,""21-60"":1,""61-240"":4,"">240"":10}",3080.0,41.021885,-73.632561,811111.0,CT,9.0,9001.0,Fairfield County,90010105001.0
10480,sg:fa377f76b7374a67b341b96190055457,Hilltop Restaurant,CT,2019-07-01T00:00:00-04:00,2019-08-01T00:00:00-04:00,6786,1,816.0,"{""<5"":0,""5-20"":0,""21-60"":0,""61-240"":0,"">240"":1}",240.0,41.652699,-73.007324,722511.0,CT,9.0,9005.0,Litchfield County,90054254003.0
10520,sg:fe636653e8b44bceb9220965f920dfd2,Exxon Mobil,CT,2019-07-01T00:00:00-04:00,2019-08-01T00:00:00-04:00,6426,97,5.0,"{""<5"":11,""5-20"":80,""21-60"":4,""61-240"":1,"">240"":1}",1580.0,41.342642,-72.411664,447110.0,CT,9.0,9007.0,Middlesex County,90076301004.0
10522,sg:fe77bf409c374363b75c5923b84bda1b,Tucci Design,CT,2019-07-01T00:00:00-04:00,2019-08-01T00:00:00-04:00,6378,135,22.0,"{""<5"":4,""5-20"":52,""21-60"":46,""61-240"":24,"">240"":9}",8295.0,41.334309999999995,-71.90694599999999,453220.0,CT,9.0,9011.0,New London County,90117052002.0
10540,sg:005e0d46e67d4bddb5ccd4cd9463a5d3,Nichols United Methodist Church,CT,2019-07-01T00:00:00-04:00,2019-08-01T00:00:00-04:00,6611,46,75.5,"{""<5"":3,""5-20"":13,""21-60"":4,""61-240"":19,"">240"":7}",4871.5,41.242166999999995,-73.161291,813110.0,CT,9.0,9001.0,Fairfield County,90010905001.0
10559,sg:021d5dc9aa1e4a3ea7e51f88943f030a,Grassmere Country Club,CT,2019-07-01T00:00:00-04:00,2019-08-01T00:00:00-04:00,6082,130,29.5,"{""<5"":2,""5-20"":48,""21-60"":41,""61-240"":32,"">240"":7}",8761.5,41.953887,-72.53079,713910.0,CT,9.0,9003.0,Hartford County,90034810002.0
10647,sg:0a87966335944cb5bb6a7fee8a9e7a74,G By GUESS,CT,2019-07-01T00:00:00-04:00,2019-08-01T00:00:00-04:00,6338,5,13.0,"{""<5"":0,""5-20"":3,""21-60"":2,""61-240"":0,"">240"":0}",118.5,41.476133000000004,-71.96161,448140.0,CT,9.0,9011.0,New London County,90117011005.0
10708,sg:0e9132bc8264432d9b3614f3cbf8a3e1,ABC Supply,CT,2019-07-01T00:00:00-04:00,2019-08-01T00:00:00-04:00,6120,288,136.0,"{""<5"":3,""5-20"":74,""21-60"":38,""61-240"":59,"">240"":114}",38711.0,41.797155,-72.659842,423330.0,CT,9.0,9003.0,Hartford County,90035007001.0
10816,sg:19d66d70adde48a78aee837b611861ff,85 Main,CT,2019-07-01T00:00:00-04:00,2019-08-01T00:00:00-04:00,6260,511,47.0,"{""<5"":10,""5-20"":107,""21-60"":199,""61-240"":179,"">240"":16}",40201.5,41.915124,-71.908785,722511.0,CT,9.0,9015.0,Windham County,90159031007.0
10817,sg:19f125fed75e4cd8994a4ceac65910c8,Genesis HealthCare,CT,2019-07-01T00:00:00-04:00,2019-08-01T00:00:00-04:00,6070,61,224.0,"{""<5"":0,""5-20"":0,""21-60"":4,""61-240"":28,"">240"":29}",11336.0,41.874093,-72.812026,621498.0,CT,9.0,9003.0,Hartford County,90034663002.0
10829,sg:1b79ba4a87d94e788522a7efc4e0a8f0,Suibian,CT,2019-07-01T00:00:00-04:00,2019-08-01T00:00:00-04:00,6510,146,19.0,"{""<5"":6,""5-20"":72,""21-60"":23,""61-240"":29,"">240"":16}",10051.0,41.305112,-72.92791,722511.0,CT,9.0,9009.0,New Haven County,90091401001.0
10899,sg:23544fb282034458acfa10b012fe3037,Hotel Zero Degrees Danbury,CT,2019-07-01T00:00:00-04:00,2019-08-01T00:00:00-04:00,6810,364,104.0,"{""<5"":1,""5-20"":35,""21-60"":75,""61-240"":152,"">240"":101}",50593.5,41.387003,-73.518247,721110.0,CT,9.0,9001.0,Fairfield County,90012105003.0
10944,sg:2891e8390a4d4877a35d261399285460,Hearing Care Centers,CT,2019-07-01T00:00:00-04:00,2019-08-01T00:00:00-04:00,6790,4,43.0,"{""<5"":1,""5-20"":1,""21-60"":0,""61-240"":2,"">240"":0}",316.0,41.818577000000005,-73.14555,621399.0,CT,9.0,9005.0,Litchfield County,90053107001.0
10988,sg:2c45d00a994a47bd9d288ec4b1234b3c,Norton Cheshire Southington School,CT,2019-07-01T00:00:00-04:00,2019-08-01T00:00:00-04:00,6410,55,22.0,"{""<5"":3,""5-20"":20,""21-60"":18,""61-240"":9,"">240"":5}",3541.0,41.479103,-72.918622,624410.0,CT,9.0,9009.0,New Haven County,90093434001.0
11048,sg:31f37f08c30b495e861240c7c7703d4f,Keating Bros Motors,CT,2019-07-01T00:00:00-04:00,2019-08-01T00:00:00-04:00,6518,2,116.5,"{""<5"":0,""5-20"":0,""21-60"":0,""61-240"":2,"">240"":0}",301.0,41.391212,-72.897903,811111.0,CT,9.0,9009.0,New Haven County,90091660014.0
11110,sg:378901ec024f415d8956c035b984379e,Hair & Nail Gallery by Darlene D G Bead Designs,CT,2019-07-01T00:00:00-04:00,2019-08-01T00:00:00-04:00,6095,107,82.0,"{""<5"":0,""5-20"":13,""21-60"":23,""61-240"":48,"">240"":23}",13838.0,41.851653000000006,-72.645546,812112.0,CT,9.0,9003.0,Hartford County,90034734001.0
11230,sg:418c91b1c3da411582295c8d59c4446e,NAPA Auto Parts,CT,2019-07-01T00:00:00-04:00,2019-08-01T00:00:00-04:00,6018,20,7.5,"{""<5"":0,""5-20"":13,""21-60"":4,""61-240"":2,"">240"":1}",865.5,42.025923999999996,-73.323944,441310.0,CT,9.0,9005.0,Litchfield County,90052602001.0
11269,sg:459366c1746f4492be77b096ad3f7c5c,Talbot's Outlet,CT,2019-07-01T00:00:00-04:00,2019-08-01T00:00:00-04:00,6413,413,26.0,"{""<5"":1,""5-20"":161,""21-60"":177,""61-240"":70,"">240"":4}",20678.5,41.291767,-72.533723,448120.0,CT,9.0,9007.0,Middlesex County,90076104001.0
11303,sg:4961fcd0ce4b424ba7d90ac798c9ae45,Pandas Playmates,CT,2019-07-01T00:00:00-04:00,2019-08-01T00:00:00-04:00,6897,14,49.0,"{""<5"":0,""5-20"":3,""21-60"":6,""61-240"":4,"">240"":1}",1122.5,41.211616,-73.429076,624410.0,CT,9.0,9001.0,Fairfield County,90010451022.0
11374,sg:4fc6c936de3c45558277ef0e627c3c88,All Saints Catholic School,CT,2019-07-01T00:00:00-04:00,2019-08-01T00:00:00-04:00,6851,71,30.0,"{""<5"":4,""5-20"":22,""21-60"":25,""61-240"":11,"">240"":9}",5113.0,41.137651,-73.417037,611110.0,CT,9.0,9001.0,Fairfield County,90010427002.0
11439,sg:5571b3a4db724dc7928152d70c2885f2,Northern Nurseries,CT,2019-07-01T00:00:00-04:00,2019-08-01T00:00:00-04:00,6096,5,18.0,"{""<5"":0,""5-20"":3,""21-60"":0,""61-240"":0,"">240"":2}",517.5,41.938188000000004,-72.60333100000001,811411.0,CT,9.0,9003.0,Hartford County,90034813002.0
11456,sg:569f041fac254e878b1ceb3520eb1339,Candlewood Valley Health & Rehabilitation Center,CT,2019-07-01T00:00:00-04:00,2019-08-01T00:00:00-04:00,6776,357,189.0,"{""<5"":4,""5-20"":38,""21-60"":54,""61-240"":112,"">240"":149}",55288.0,41.597955,-73.401534,621330.0,CT,9.0,9005.0,Litchfield County,90052532001.0
11498,sg:5b6d956e965946bbad0c66c4cb4c8718,Home Deep Cleaning,CT,2019-07-01T00:00:00-04:00,2019-08-01T00:00:00-04:00,6604,321,111.0,"{""<5"":3,""5-20"":53,""21-60"":67,""61-240"":117,"">240"":81}",40432.0,41.193988,-73.21525600000001,561740.0,CT,9.0,9001.0,Fairfield County,90010722003.0
11533,sg:5d8190b7c3f04f17a5219a8bbc2eedf5,West Elm,CT,2019-07-01T00:00:00-04:00,2019-08-01T00:00:00-04:00,6107,164,20.0,"{""<5"":8,""5-20"":76,""21-60"":39,""61-240"":30,"">240"":11}",9704.5,41.759434000000006,-72.74060899999999,442299.0,CT,9.0,9003.0,Hartford County,90034969006.0
11605,sg:64509863272446e9ba5005d8f26ebee9,Salisbury Artisans,CT,2019-07-01T00:00:00-04:00,2019-08-01T00:00:00-04:00,6068,8,33.0,"{""<5"":0,""5-20"":4,""21-60"":1,""61-240"":2,"">240"":1}",631.5,41.98527,-73.427501,442110.0,CT,9.0,9005.0,Litchfield County,90052611001.0
11628,sg:670cadc8ebd8415eb22924a86f29113c,Jared Eliot School,CT,2019-07-01T00:00:00-04:00,2019-08-01T00:00:00-04:00,6413,126,36.5,"{""<5"":0,""5-20"":48,""21-60"":27,""61-240"":38,"">240"":13}",10532.5,41.297218,-72.51994499999999,611110.0,CT,9.0,9007.0,Middlesex County,90076103001.0
11667,sg:6b7c86cb26eb45efbb24c172250e8ef0,Masters Table Ministries,CT,2019-07-01T00:00:00-04:00,2019-08-01T00:00:00-04:00,6114,69,290.0,"{""<5"":0,""5-20"":8,""21-60"":9,""61-240"":15,"">240"":37}",11602.0,41.740595,-72.672519,813110.0,CT,9.0,9003.0,Hartford County,90035024002.0
11795,sg:78e3236e8c394e5683af36ff9b991428,Westfair TV Audio,CT,2019-07-01T00:00:00-04:00,2019-08-01T00:00:00-04:00,6824,10,196.0,"{""<5"":0,""5-20"":0,""21-60"":0,""61-240"":6,"">240"":4}",1863.0,41.140631,-73.266079,517312.0,CT,9.0,9001.0,Fairfield County,90010616001.0
11810,sg:7aece148ead348538d4256096f82f47e,Muse Milford,CT,2019-07-01T00:00:00-04:00,2019-08-01T00:00:00-04:00,6461,40,11.0,"{""<5"":4,""5-20"":22,""21-60"":6,""61-240"":8,"">240"":0}",1732.0,41.244977,-73.074775,522110.0,CT,9.0,9009.0,New Haven County,90091507002.0
11906,sg:833f3c851f0b49baa8f8edd7ed43cde9,Family First Chiropractic Center,CT,2019-07-01T00:00:00-04:00,2019-08-01T00:00:00-04:00,6776,5,14.0,"{""<5"":0,""5-20"":3,""21-60"":1,""61-240"":0,"">240"":1}",318.0,41.555484,-73.416496,621310.0,CT,9.0,9005.0,Litchfield County,90052536001.0
12163,sg:9a1587e35b7c44f692268aa86ed56de3,Wesco Sports Center,CT,2019-07-01T00:00:00-04:00,2019-08-01T00:00:00-04:00,6804,53,15.0,"{""<5"":0,""5-20"":42,""21-60"":8,""61-240"":1,"">240"":2}",1479.5,41.44681,-73.404595,451110.0,CT,9.0,9001.0,Fairfield County,90012053003.0
12200,sg:9d9f29cdec554389ae19940f9f20f7ca,Starling Physicians,CT,2019-07-01T00:00:00-04:00,2019-08-01T00:00:00-04:00,6002,21,34.0,"{""<5"":0,""5-20"":6,""21-60"":9,""61-240"":6,"">240"":0}",1342.5,41.816774,-72.724703,621111.0,CT,9.0,9003.0,Hartford County,90034713002.0
12201,sg:9da7690189df4763b4da100e119a683b,New Kitchen,CT,2019-07-01T00:00:00-04:00,2019-08-01T00:00:00-04:00,6604,87,14.0,"{""<5"":9,""5-20"":41,""21-60"":10,""61-240"":11,"">240"":16}",6435.5,41.178329999999995,-73.19575400000001,722511.0,CT,9.0,9001.0,Fairfield County,90010706001.0
12229,sg:a0cb01066b0d4125964ef92111f1e2d7,The Honey Bee Florist and More,CT,2019-07-01T00:00:00-04:00,2019-08-01T00:00:00-04:00,6790,154,34.0,"{""<5"":3,""5-20"":53,""21-60"":42,""61-240"":43,"">240"":13}",11962.5,41.801207,-73.120851,453110.0,CT,9.0,9005.0,Litchfield County,90053103001.0
12495,sg:bbc57294a8ef487baae679d138a0f2b7,D & M Recovery & Towing,CT,2019-07-01T00:00:00-04:00,2019-08-01T00:00:00-04:00,6457,4,6.5,"{""<5"":0,""5-20"":4,""21-60"":0,""61-240"":0,"">240"":0}",50.0,41.551578000000006,-72.643733,488410.0,CT,9.0,9007.0,Middlesex County,90075417002.0
12578,sg:c5be9f2afe67433a97ae49afcb3ea362,Chuck E. Cheese's,CT,2019-07-01T00:00:00-04:00,2019-08-01T00:00:00-04:00,6042,231,81.0,"{""<5"":3,""5-20"":49,""21-60"":46,""61-240"":114,"">240"":19}",24200.0,41.79914,-72.553635,722513.0,CT,9.0,9003.0,Hartford County,90035141021.0
12647,sg:cbf8f3648c5f45d7a0dd5ca9a91810de,Lincoln Technical Institute,CT,2019-07-01T00:00:00-04:00,2019-08-01T00:00:00-04:00,6088,122,29.0,"{""<5"":0,""5-20"":46,""21-60"":31,""61-240"":31,"">240"":14}",9856.0,41.92416,-72.597158,611310.0,CT,9.0,9003.0,Hartford County,90034841002.0
13031,sg:f2d36bb5198b46fb8580817e878ff499,Consignment Originals,CT,2019-07-01T00:00:00-04:00,2019-08-01T00:00:00-04:00,6042,317,23.0,"{""<5"":12,""5-20"":113,""21-60"":128,""61-240"":48,"">240"":16}",17690.5,41.808197,-72.536338,453310.0,CT,9.0,9003.0,Hartford County,90035141021.0
13048,sg:f416e7b8dcbf4c9c958f24081e6406d7,Neil Salesky DMD MAGD,CT,2019-07-01T00:00:00-04:00,2019-08-01T00:00:00-04:00,6479,18,24.0,"{""<5"":0,""5-20"":8,""21-60"":5,""61-240"":4,"">240"":1}",1144.5,41.588113,-72.888276,621210.0,CT,9.0,9003.0,Hartford County,90034301002.0
13337,sg:1010d25127b2467bb64271420e18459a,Papercraft Clubhouse,CT,2019-07-01T00:00:00-04:00,2019-08-01T00:00:00-04:00,6498,41,45.0,"{""<5"":0,""5-20"":14,""21-60"":8,""61-240"":16,"">240"":3}",3627.0,41.281563,-72.43650799999999,451120.0,CT,9.0,9007.0,Middlesex County,90076801005.0
13386,sg:1495dde060234ad2bdf97ea49ce43f96,Empire State K9 Training,CT,2019-07-01T00:00:00-04:00,2019-08-01T00:00:00-04:00,6907,55,103.0,"{""<5"":1,""5-20"":10,""21-60"":10,""61-240"":12,"">240"":22}",7618.5,41.096958,-73.528828,812910.0,CT,9.0,9001.0,Fairfield County,90010209003.0
13565,sg:227f80b1db4c406cad21bd687022701d,Hartford HealthCare Medical Group,CT,2019-07-01T00:00:00-04:00,2019-08-01T00:00:00-04:00,6374,9,47.0,"{""<5"":0,""5-20"":3,""21-60"":2,""61-240"":2,"">240"":2}",899.5,41.681071,-71.91379599999999,621111.0,CT,9.0,9015.0,Windham County,90159073001.0
13589,sg:24062a1fbc9247f0b6385ef6abdd21b6,Glastonbury Jewelers,CT,2019-07-01T00:00:00-04:00,2019-08-01T00:00:00-04:00,6033,81,11.0,"{""<5"":2,""5-20"":53,""21-60"":16,""61-240"":9,"">240"":1}",2910.0,41.720807,-72.61381300000001,448310.0,CT,9.0,9003.0,Hartford County,90035203022.0
13685,sg:2cb0ab607be343e3b7533d63892b5422,New York Sports Club,CT,2019-07-01T00:00:00-04:00,2019-08-01T00:00:00-04:00,6830,197,61.0,"{""<5"":3,""5-20"":20,""21-60"":71,""61-240"":61,"">240"":42}",22393.5,41.023140999999995,-73.624399,713940.0,CT,9.0,9001.0,Fairfield County,90010106002.0
13813,sg:376384d1ce544976a5954f80abf64476,Stop & Drive Auto sales,CT,2019-07-01T00:00:00-04:00,2019-08-01T00:00:00-04:00,6088,47,7.0,"{""<5"":1,""5-20"":39,""21-60"":5,""61-240"":2,"">240"":0}",993.5,41.883189,-72.606548,441120.0,CT,9.0,9003.0,Hartford County,90034841003.0
14011,sg:4b54aae5929248e08f4b62458518bc48,Kennedy Family Dental,CT,2019-07-01T00:00:00-04:00,2019-08-01T00:00:00-04:00,6790,293,309.0,"{""<5"":2,""5-20"":23,""21-60"":26,""61-240"":66,"">240"":176}",53518.5,41.825496,-73.103756,621210.0,CT,9.0,9005.0,Litchfield County,90053101001.0
14183,sg:5ceef11f70ae4f0bb93d63339e80228c,Subway,CT,2019-07-01T00:00:00-04:00,2019-08-01T00:00:00-04:00,6110,137,11.0,"{""<5"":8,""5-20"":72,""21-60"":21,""61-240"":12,"">240"":24}",9336.5,41.742999,-72.715936,722513.0,CT,9.0,9003.0,Hartford County,90034961001.0
14250,sg:644d8546b2b34618b06beb0fa7f4ecd0,JT Farms,CT,2019-07-01T00:00:00-04:00,2019-08-01T00:00:00-04:00,6029,11,6.0,"{""<5"":1,""5-20"":9,""21-60"":0,""61-240"":1,"">240"":0}",265.5,41.889815999999996,-72.463587,445230.0,CT,9.0,9013.0,Tolland County,90135351004.0
14544,sg:82ce83dbbf964738aa73fe2e5f1ea9c8,First Class Nails,CT,2019-07-01T00:00:00-04:00,2019-08-01T00:00:00-04:00,6333,17,48.0,"{""<5"":0,""5-20"":4,""21-60"":7,""61-240"":4,"">240"":2}",1415.5,41.361375,-72.227997,812113.0,CT,9.0,9011.0,New London County,90117161021.0
14612,sg:8a45637046cf465bba31424d76517c16,Branford Building Supplies,CT,2019-07-01T00:00:00-04:00,2019-08-01T00:00:00-04:00,6405,35,15.0,"{""<5"":1,""5-20"":19,""21-60"":7,""61-240"":2,"">240"":6}",2264.5,41.282928999999996,-72.809071,444130.0,CT,9.0,9009.0,New Haven County,90091841001.0
14634,sg:8d2dcdb177cc4ba69d606cae71087001,T Swirl Crepe,CT,2019-07-01T00:00:00-04:00,2019-08-01T00:00:00-04:00,6510,155,89.0,"{""<5"":2,""5-20"":37,""21-60"":29,""61-240"":38,"">240"":49}",19121.0,41.305914,-72.930001,722515.0,CT,9.0,9009.0,New Haven County,90091401001.0
14697,sg:92f7dd1b702f4d2db926e5432f8627d8,Waterford Veterinary Hospital PC,CT,2019-07-01T00:00:00-04:00,2019-08-01T00:00:00-04:00,6385,28,67.0,"{""<5"":0,""5-20"":7,""21-60"":7,""61-240"":7,"">240"":7}",3104.5,41.34021,-72.12378100000001,541940.0,CT,9.0,9011.0,New London County,90116934003.0
14822,sg:9ee272cd3aef414596be8e47b8d84a8a,Bruce Park,CT,2019-07-01T00:00:00-04:00,2019-08-01T00:00:00-04:00,6830,606,16.0,"{""<5"":22,""5-20"":332,""21-60"":145,""61-240"":81,"">240"":26}",28508.0,41.023026,-73.61169699999999,712190.0,CT,9.0,9001.0,Fairfield County,90010112001.0
14885,sg:a64524c44a9444159ef28b8213d4f94d,Eagle K 9 Academy,CT,2019-07-01T00:00:00-04:00,2019-08-01T00:00:00-04:00,6524,10,14.5,"{""<5"":0,""5-20"":6,""21-60"":2,""61-240"":2,"">240"":0}",457.0,41.461549,-72.966489,812910.0,CT,9.0,9009.0,New Haven County,90091611002.0
14917,sg:a9c57c0c41ec4c8d8e9ca2099fcc2bf8,St Michael School,CT,2019-07-01T00:00:00-04:00,2019-08-01T00:00:00-04:00,6379,56,41.0,"{""<5"":1,""5-20"":15,""21-60"":20,""61-240"":14,"">240"":6}",4547.0,41.380765000000004,-71.83720500000001,611110.0,CT,9.0,9011.0,New London County,90117051024.0
15042,sg:b5634dc3d9f44c0faface8b01190d048,White House Black Market,CT,2019-07-01T00:00:00-04:00,2019-08-01T00:00:00-04:00,6019,5,20.0,"{""<5"":0,""5-20"":4,""21-60"":1,""61-240"":0,"">240"":0}",90.5,41.822256,-72.881312,448120.0,CT,9.0,9003.0,Hartford County,90034641023.0
15068,sg:b799518ae7cd419e80831e4ed28001a9,Plancher Orthopaedics & Sports Medicine,CT,2019-07-01T00:00:00-04:00,2019-08-01T00:00:00-04:00,6807,12,28.5,"{""<5"":0,""5-20"":3,""21-60"":9,""61-240"":0,"">240"":0}",402.0,41.035891,-73.59479499999999,621111.0,CT,9.0,9001.0,Fairfield County,90010108001.0
15111,sg:bba2d7cb548743a384d78f5f27c711fb,Arby's,CT,2019-07-01T00:00:00-04:00,2019-08-01T00:00:00-04:00,6479,255,11.0,"{""<5"":13,""5-20"":146,""21-60"":80,""61-240"":14,"">240"":2}",7684.5,41.563194,-72.87338299999999,722513.0,CT,9.0,9003.0,Hartford County,90034303011.0
15183,sg:c18b4f6ca0784e69ac5d805bd78fb853,Murphy's Auto Service,CT,2019-07-01T00:00:00-04:00,2019-08-01T00:00:00-04:00,6712,1,6.0,"{""<5"":0,""5-20"":1,""21-60"":0,""61-240"":0,"">240"":0}",12.5,41.500268,-72.969363,811111.0,CT,9.0,9009.0,New Haven County,90093471002.0
15240,sg:c78df955a2434e629d33dd75b4fbad7c,Natalie Radoslovich DC Chiropractic & Wellness Center,CT,2019-07-01T00:00:00-04:00,2019-08-01T00:00:00-04:00,6902,54,32.5,"{""<5"":4,""5-20"":17,""21-60"":13,""61-240"":10,"">240"":10}",4654.0,41.059943,-73.53333,621310.0,CT,9.0,9001.0,Fairfield County,90010217004.0
15424,sg:d836659191864a96b13e5f614045c007,Rye Ridge Deli,CT,2019-07-01T00:00:00-04:00,2019-08-01T00:00:00-04:00,6905,100,20.0,"{""<5"":4,""5-20"":47,""21-60"":27,""61-240"":15,"">240"":7}",5628.5,41.108046,-73.546835,722511.0,CT,9.0,9001.0,Fairfield County,90010207003.0
15654,sg:eee36c108b2d42469459418caff0782c,West Nails Studio,CT,2019-07-01T00:00:00-04:00,2019-08-01T00:00:00-04:00,6106,2,425.0,"{""<5"":0,""5-20"":0,""21-60"":0,""61-240"":0,"">240"":2}",480.0,41.747060999999995,-72.68425400000001,812113.0,CT,9.0,9003.0,Hartford County,90035027002.0
15818,sg:01d8212cd7ad42f3b798f279ebf4316e,Thai Sawasdee,CT,2019-07-01T00:00:00-04:00,2019-08-01T00:00:00-04:00,6340,101,12.0,"{""<5"":8,""5-20"":53,""21-60"":17,""61-240"":18,"">240"":5}",5280.0,41.348471999999994,-72.052952,722511.0,CT,9.0,9011.0,New London County,90117027001.0
15911,sg:09bcaa8bcd664e049bd7c6e73549a2b8,Sherman's Taphouse,CT,2019-07-01T00:00:00-04:00,2019-08-01T00:00:00-04:00,6489,38,39.5,"{""<5"":0,""5-20"":4,""21-60"":23,""61-240"":10,"">240"":1}",2726.5,41.601997,-72.878922,445310.0,CT,9.0,9003.0,Hartford County,90034306021.0
15987,sg:114a05f53ab646ee91c27020b348e4bd,St Peter & Paul Orthodox Church,CT,2019-07-01T00:00:00-04:00,2019-08-01T00:00:00-04:00,6450,182,122.0,"{""<5"":3,""5-20"":34,""21-60"":32,""61-240"":57,"">240"":56}",23747.0,41.545640999999996,-72.79128399999999,813110.0,CT,9.0,9009.0,New Haven County,90091715003.0
16101,sg:1a7b600021b44670ba02bd4a94f82023,Five Guys,CT,2019-07-01T00:00:00-04:00,2019-08-01T00:00:00-04:00,6804,330,22.0,"{""<5"":4,""5-20"":133,""21-60"":106,""61-240"":46,"">240"":41}",22728.5,41.435216,-73.41104200000001,722513.0,CT,9.0,9001.0,Fairfield County,90012053003.0
16150,sg:1eac2b884894475b9db9a9e93d5159ee,Modzelewski's Auto Body Works,CT,2019-07-01T00:00:00-04:00,2019-08-01T00:00:00-04:00,6810,42,19.5,"{""<5"":2,""5-20"":20,""21-60"":6,""61-240"":8,"">240"":6}",3142.0,41.408626,-73.429449,811121.0,CT,9.0,9001.0,Fairfield County,90012103002.0
16282,sg:2bacfc2679eb43408062fb1573685dee,Bais Yaakov Of Waterbury High School,CT,2019-07-01T00:00:00-04:00,2019-08-01T00:00:00-04:00,6710,55,64.0,"{""<5"":0,""5-20"":6,""21-60"":20,""61-240"":11,"">240"":18}",6860.5,41.563016999999995,-73.041507,611110.0,CT,9.0,9009.0,New Haven County,90093508001.0
16488,sg:3e262d2fdce84d9b8f2e24b3c4caab8f,New England Hypnosis & Weight Loss,CT,2019-07-01T00:00:00-04:00,2019-08-01T00:00:00-04:00,6037,77,76.0,"{""<5"":3,""5-20"":14,""21-60"":17,""61-240"":26,"">240"":17}",8864.0,41.612043,-72.74691,713940.0,CT,9.0,9003.0,Hartford County,90034001002.0
16841,sg:5e37336549a64eac827ff16f87344386,Saw Mill Package Store,CT,2019-07-01T00:00:00-04:00,2019-08-01T00:00:00-04:00,6516,60,10.0,"{""<5"":6,""5-20"":41,""21-60"":9,""61-240"":4,"">240"":0}",1494.0,41.274296,-72.96491999999999,445310.0,CT,9.0,9009.0,New Haven County,90091546004.0
17731,sg:b857e21c2fde43f8ba233cc0fe5cd535,Richter Asset Management,CT,2019-07-01T00:00:00-04:00,2019-08-01T00:00:00-04:00,6831,15,462.0,"{""<5"":0,""5-20"":2,""21-60"":0,""61-240"":2,"">240"":11}",2966.0,41.01979,-73.648219,523930.0,CT,9.0,9001.0,Fairfield County,90010103005.0
17736,sg:b89dd6bb981048aeae6e435ce170716f,Unlimited RV,CT,2019-07-01T00:00:00-04:00,2019-08-01T00:00:00-04:00,6712,92,23.5,"{""<5"":3,""5-20"":34,""21-60"":39,""61-240"":12,"">240"":4}",4778.0,41.505253,-73.00183100000001,451110.0,CT,9.0,9009.0,New Haven County,90093472002.0
17776,sg:be0ef333242647b392ccdb8dc10278ce,Burger King,CT,2019-07-01T00:00:00-04:00,2019-08-01T00:00:00-04:00,6516,671,11.0,"{""<5"":39,""5-20"":399,""21-60"":124,""61-240"":53,"">240"":56}",31523.5,41.275236,-72.95289100000001,722513.0,CT,9.0,9009.0,New Haven County,90091546003.0
17868,sg:c68ef5252f8146039b233db963d83105,Phillips 66,CT,2019-07-01T00:00:00-04:00,2019-08-01T00:00:00-04:00,6111,146,11.0,"{""<5"":8,""5-20"":87,""21-60"":33,""61-240"":14,"">240"":4}",5511.0,41.716959,-72.737954,447110.0,CT,9.0,9003.0,Hartford County,90034946001.0
17882,sg:c7f58ffb7ede4b11b3366c2cfb6e8a53,Camp Newhoca,CT,2019-07-01T00:00:00-04:00,2019-08-01T00:00:00-04:00,6066,13,21.0,"{""<5"":2,""5-20"":4,""21-60"":5,""61-240"":1,"">240"":1}",648.0,41.81228,-72.42403399999999,712190.0,CT,9.0,9013.0,Tolland County,90135306002.0
17890,sg:c8463aac51fb4689ac1227c53841f5bf,Subway,CT,2019-07-01T00:00:00-04:00,2019-08-01T00:00:00-04:00,6226,127,27.0,"{""<5"":4,""5-20"":48,""21-60"":24,""61-240"":24,"">240"":27}",11674.0,41.713823,-72.21699,722513.0,CT,9.0,9015.0,Windham County,90158006003.0
18056,sg:d79387e321aa4ef79924e76c1dac7d77,Freshwater Commons,CT,2019-07-01T00:00:00-04:00,2019-08-01T00:00:00-04:00,6082,2589,21.0,"{""<5"":37,""5-20"":1229,""21-60"":905,""61-240"":239,"">240"":179}",131037.0,41.990725,-72.5702,531120.0,CT,9.0,9003.0,Hartford County,90034808002.0
18253,sg:ead346116b134dd5919f047398578b9c,Epic Driving School Ridgefield,CT,2019-07-01T00:00:00-04:00,2019-08-01T00:00:00-04:00,6877,173,32.0,"{""<5"":4,""5-20"":62,""21-60"":56,""61-240"":36,"">240"":15}",12071.0,41.27952,-73.49761099999999,453310.0,CT,9.0,9001.0,Fairfield County,90012453003.0
18290,sg:ef38a4a050c046b18cff4d61ad58f270,Sunrise Market,CT,2019-07-01T00:00:00-04:00,2019-08-01T00:00:00-04:00,6782,368,10.0,"{""<5"":14,""5-20"":224,""21-60"":39,""61-240"":63,"">240"":28}",20616.0,41.673967,-73.073934,722511.0,CT,9.0,9005.0,Litchfield County,90053492002.0
18362,sg:f5775f044fd8448db74231f00e841c5f,Cat Hospital of Canterbury,CT,2019-07-01T00:00:00-04:00,2019-08-01T00:00:00-04:00,6331,19,19.0,"{""<5"":0,""5-20"":10,""21-60"":5,""61-240"":4,"">240"":0}",929.5,41.694138,-71.97120100000001,541940.0,CT,9.0,9015.0,Windham County,90159061001.0
18377,sg:f6fb811041dd44e394953e9420d41896,Abbott Appliance Service & Repair,CT,2019-07-01T00:00:00-04:00,2019-08-01T00:00:00-04:00,6611,55,130.0,"{""<5"":0,""5-20"":8,""21-60"":8,""61-240"":20,"">240"":19}",7994.0,41.24628,-73.207274,811412.0,CT,9.0,9001.0,Fairfield County,90010904002.0
18399,sg:fa722ae23a984ea19f3ca77cfaf3e961,CO Sports Academy,CT,2019-07-01T00:00:00-04:00,2019-08-01T00:00:00-04:00,6704,53,82.0,"{""<5"":3,""5-20"":4,""21-60"":10,""61-240"":30,"">240"":6}",6417.5,41.607442,-73.0323,623312.0,CT,9.0,9009.0,New Haven County,90093524002.0
18424,sg:fc925acab5af486b9ceac39b5f3513bb,Connecticut Eye Physicians,CT,2019-07-01T00:00:00-04:00,2019-08-01T00:00:00-04:00,6457,120,24.0,"{""<5"":2,""5-20"":40,""21-60"":40,""61-240"":23,"">240"":15}",9186.5,41.539953999999994,-72.62248000000001,446130.0,CT,9.0,9007.0,Middlesex County,90076802001.0
18615,sg:0e3b57f2e8554d5d97c6478f50aa87af,Frank's Package Store,CT,2019-07-01T00:00:00-04:00,2019-08-01T00:00:00-04:00,6437,61,10.0,"{""<5"":5,""5-20"":45,""21-60"":8,""61-240"":1,"">240"":2}",1529.5,41.281364,-72.681146,445310.0,CT,9.0,9009.0,New Haven County,90091901002.0
18617,sg:0e9c77741b35439f9ac01c272a4c9fd0,Squillace Steven Dr,CT,2019-07-01T00:00:00-04:00,2019-08-01T00:00:00-04:00,6071,75,60.0,"{""<5"":0,""5-20"":20,""21-60"":18,""61-240"":11,"">240"":26}",8874.5,41.981565,-72.448428,446130.0,CT,9.0,9013.0,Tolland County,90135382013.0
18978,sg:2f1e7b038ac543aa99c7a91bf1ad9ab2,Mitchell's Restaurant,CT,2019-07-01T00:00:00-04:00,2019-08-01T00:00:00-04:00,6066,249,40.0,"{""<5"":4,""5-20"":52,""21-60"":137,""61-240"":34,"">240"":22}",16605.5,41.858222999999995,-72.435785,722511.0,CT,9.0,9013.0,Tolland County,90135301002.0
19060,sg:36b934c7b53d431fbe991ed6e6630614,Yale New Haven Hospital,CT,2019-07-01T00:00:00-04:00,2019-08-01T00:00:00-04:00,6511,591,120.0,"{""<5"":5,""5-20"":112,""21-60"":108,""61-240"":144,"">240"":222}",80738.5,41.292722999999995,-72.92204,622110.0,CT,9.0,9009.0,New Haven County,90091402001.0
19084,sg:38aeb3cf8dfc4a8dbbaef95312c3a4c7,Ace Hardware,CT,2019-07-01T00:00:00-04:00,2019-08-01T00:00:00-04:00,6475,15,8.0,"{""<5"":0,""5-20"":14,""21-60"":1,""61-240"":0,"">240"":0}",215.5,41.294087,-72.37617,444130.0,CT,9.0,9007.0,Middlesex County,90076702001.0
19299,sg:4a3251e74ef14d47946c38f6bb089795,Amanda's Deli & Grill,CT,2019-07-01T00:00:00-04:00,2019-08-01T00:00:00-04:00,6472,140,61.0,"{""<5"":4,""5-20"":37,""21-60"":28,""61-240"":43,"">240"":28}",14798.0,41.391199,-72.791251,722511.0,CT,9.0,9009.0,New Haven County,90091862001.0
19372,sg:509779a2f08d4dfba0f01a9d3545b4f1,Hollings Automotive,CT,2019-07-01T00:00:00-04:00,2019-08-01T00:00:00-04:00,6790,5,21.0,"{""<5"":0,""5-20"":2,""21-60"":1,""61-240"":2,"">240"":0}",366.5,41.788884,-73.11832,811111.0,CT,9.0,9005.0,Litchfield County,90053108012.0
19528,sg:600453b8223b449fb94820ccfc86c49c,Bareskin Medspa,CT,2019-07-01T00:00:00-04:00,2019-08-01T00:00:00-04:00,6902,18,81.0,"{""<5"":0,""5-20"":0,""21-60"":6,""61-240"":7,"">240"":5}",2496.5,41.064510999999996,-73.535022,812199.0,CT,9.0,9001.0,Fairfield County,90010216004.0
19558,sg:637241aa3e684a659b8c60cf38622f6e,Nye Insurance Agency,CT,2019-07-01T00:00:00-04:00,2019-08-01T00:00:00-04:00,6010,16,10.0,"{""<5"":1,""5-20"":9,""21-60"":1,""61-240"":5,"">240"":0}",908.0,41.67644,-72.89887,524210.0,CT,9.0,9003.0,Hartford County,90034052003.0
19587,sg:65cf8028bf3e4dc8b8c5ef5010998c19,Green Paradise Landscaping,CT,2019-07-01T00:00:00-04:00,2019-08-01T00:00:00-04:00,6851,81,14.0,"{""<5"":6,""5-20"":41,""21-60"":4,""61-240"":12,"">240"":18}",6815.5,41.11019,-73.404124,444130.0,CT,9.0,9001.0,Fairfield County,90010436002.0
19621,sg:69fbbee43c524e05b2fd52fe4ac20842,Yara Motors,CT,2019-07-01T00:00:00-04:00,2019-08-01T00:00:00-04:00,6040,71,76.0,"{""<5"":2,""5-20"":16,""21-60"":13,""61-240"":23,"">240"":17}",8273.0,41.773221,-72.541012,441120.0,CT,9.0,9003.0,Hartford County,90035146003.0
19743,sg:768fc8bb78f84b98a058444fd6492ebb,Milford Cooperative Preschool Learning Ctr,CT,2019-07-01T00:00:00-04:00,2019-08-01T00:00:00-04:00,6460,34,37.0,"{""<5"":0,""5-20"":10,""21-60"":12,""61-240"":10,"">240"":2}",2596.0,41.228084,-73.013091,624410.0,CT,9.0,9009.0,New Haven County,90091511004.0
19804,sg:7c453db871e14d5c92013a3259e7a210,Salmon Brook Center,CT,2019-07-01T00:00:00-04:00,2019-08-01T00:00:00-04:00,6033,195,157.0,"{""<5"":2,""5-20"":29,""21-60"":32,""61-240"":62,"">240"":70}",27794.5,41.715862,-72.603562,621340.0,CT,9.0,9003.0,Hartford County,90035203022.0
19855,sg:801a3b9cb8004aa28f56aa17cd76a004,Demas Alexandra C,CT,2019-07-01T00:00:00-04:00,2019-08-01T00:00:00-04:00,6825,2,15.5,"{""<5"":0,""5-20"":1,""21-60"":1,""61-240"":0,"">240"":0}",53.0,41.182055,-73.252167,621330.0,CT,9.0,9001.0,Fairfield County,90010610003.0
19931,sg:86ad65a11f764cb28f9f4fb2a64a5ad0,Columbus Magnet School,CT,2019-07-01T00:00:00-04:00,2019-08-01T00:00:00-04:00,6854,25,18.0,"{""<5"":1,""5-20"":14,""21-60"":5,""61-240"":2,"">240"":3}",1401.0,41.093790999999996,-73.420845,624410.0,CT,9.0,9001.0,Fairfield County,90010441001.0
20162,sg:9f66a5a4cb5840889161dc1f1ffabee7,Stork Club Inc,CT,2019-07-01T00:00:00-04:00,2019-08-01T00:00:00-04:00,6067,3,30.0,"{""<5"":0,""5-20"":1,""21-60"":1,""61-240"":0,"">240"":1}",293.0,41.655241,-72.67897099999999,624410.0,CT,9.0,9003.0,Hartford County,90035242005.0
20321,sg:af32da86b2204bafaff47cc965d88498,Trumbull Loves Children Inc Tashua,CT,2019-07-01T00:00:00-04:00,2019-08-01T00:00:00-04:00,6611,53,26.0,"{""<5"":2,""5-20"":20,""21-60"":14,""61-240"":5,"">240"":12}",4454.5,41.274928,-73.242976,624410.0,CT,9.0,9001.0,Fairfield County,90010902003.0
20328,sg:af9eff668492494ab50e7b7e5f28ab24,Quest Diagnostics,CT,2019-07-01T00:00:00-04:00,2019-08-01T00:00:00-04:00,6611,237,69.0,"{""<5"":0,""5-20"":32,""21-60"":75,""61-240"":64,"">240"":66}",28909.5,41.296588,-73.231145,621511.0,CT,9.0,9001.0,Fairfield County,90010901002.0
20341,sg:b08ac951549f4a8f9104a425bd93407f,In & Out Market Dada Deli Mobile Gas Station,CT,2019-07-01T00:00:00-04:00,2019-08-01T00:00:00-04:00,6473,103,25.0,"{""<5"":5,""5-20"":43,""21-60"":15,""61-240"":18,"">240"":22}",9146.5,41.34108,-72.86354399999999,445110.0,CT,9.0,9009.0,New Haven County,90091673003.0
20363,sg:b230e318da97482598dc8a04ac1da103,Boost Mobile,CT,2019-07-01T00:00:00-04:00,2019-08-01T00:00:00-04:00,6705,248,44.5,"{""<5"":5,""5-20"":89,""21-60"":43,""61-240"":66,"">240"":45}",23599.5,41.563657,-73.007263,517312.0,CT,9.0,9009.0,New Haven County,90093511002.0
20365,sg:b254def40d5f424b85b17938939265e6,Amici's Cafe,CT,2019-07-01T00:00:00-04:00,2019-08-01T00:00:00-04:00,6460,33,16.0,"{""<5"":3,""5-20"":16,""21-60"":6,""61-240"":1,"">240"":7}",2281.0,41.23274,-73.055716,722511.0,CT,9.0,9009.0,New Haven County,90091507001.0
20548,sg:c56181fe650e4da9aa0a155a3bb9f221,Coach Stop,CT,2019-07-01T00:00:00-04:00,2019-08-01T00:00:00-04:00,6027,71,41.0,"{""<5"":2,""5-20"":19,""21-60"":24,""61-240"":25,"">240"":1}",5217.0,41.998665,-72.904664,722511.0,CT,9.0,9003.0,Hartford County,90033301001.0
20720,sg:d5c5956fbc8c45009427eb5c5b37a93b,Upward Hartford,CT,2019-07-01T00:00:00-04:00,2019-08-01T00:00:00-04:00,6103,11,21.0,"{""<5"":1,""5-20"":4,""21-60"":5,""61-240"":0,"">240"":1}",495.0,41.769009000000004,-72.673574,532120.0,CT,9.0,9003.0,Hartford County,90035021002.0
20787,sg:dbcd53a7bc2b47ab92e5b6c8634d22fd,Petco,CT,2019-07-01T00:00:00-04:00,2019-08-01T00:00:00-04:00,6473,347,18.0,"{""<5"":6,""5-20"":197,""21-60"":120,""61-240"":24,"">240"":0}",10949.5,41.354457000000004,-72.874009,453910.0,CT,9.0,9009.0,New Haven County,90091672012.0
20794,sg:dca157c16b584fc4b0f8ff7901c89edf,Albert I Prince Technical High School,CT,2019-07-01T00:00:00-04:00,2019-08-01T00:00:00-04:00,6106,600,74.0,"{""<5"":9,""5-20"":146,""21-60"":116,""61-240"":210,"">240"":119}",66710.5,41.74125,-72.705663,611519.0,CT,9.0,9003.0,Hartford County,90035247003.0
20819,sg:df4134b553d648d8a9f62c2909acc209,E Volve Computer,CT,2019-07-01T00:00:00-04:00,2019-08-01T00:00:00-04:00,6484,9,120.0,"{""<5"":0,""5-20"":1,""21-60"":1,""61-240"":7,"">240"":0}",1106.5,41.317901,-73.094514,443142.0,CT,9.0,9001.0,Fairfield County,90011101001.0
20858,sg:e4204955c9c447058bb844de3180827d,Subway,CT,2019-07-01T00:00:00-04:00,2019-08-01T00:00:00-04:00,6905,48,7.0,"{""<5"":4,""5-20"":40,""21-60"":1,""61-240"":0,"">240"":3}",1270.5,41.072027,-73.548774,722513.0,CT,9.0,9001.0,Fairfield County,90010212002.0
20896,sg:e8d9a84fa0444ebbbd4a961689c33bad,Ching's Table,CT,2019-07-01T00:00:00-04:00,2019-08-01T00:00:00-04:00,6840,25,42.0,"{""<5"":0,""5-20"":4,""21-60"":17,""61-240"":2,"">240"":2}",1519.5,41.148343,-73.492807,722511.0,CT,9.0,9001.0,Fairfield County,90010351001.0
20916,sg:eadb0336d7b241baa881ff2ce8ff643c,McDonald's,CT,2019-07-01T00:00:00-04:00,2019-08-01T00:00:00-04:00,6513,725,10.0,"{""<5"":33,""5-20"":502,""21-60"":125,""61-240"":49,"">240"":16}",22634.5,41.308238,-72.895624,722513.0,CT,9.0,9009.0,New Haven County,90091423004.0
20932,sg:ebfc88a1f71442e7b3b4574a1575ad4f,Manchester Chinese Cuisine,CT,2019-07-01T00:00:00-04:00,2019-08-01T00:00:00-04:00,6040,86,21.0,"{""<5"":2,""5-20"":41,""21-60"":26,""61-240"":15,"">240"":2}",4308.0,41.769147,-72.521041,722511.0,CT,9.0,9003.0,Hartford County,90035147004.0
20987,sg:f1bc6b84f05f4362b9dc59c8d9f29569,K'tanim Nursery School At Temple Beth,CT,2019-07-01T00:00:00-04:00,2019-08-01T00:00:00-04:00,6517,7,28.0,"{""<5"":0,""5-20"":2,""21-60"":4,""61-240"":1,"">240"":0}",337.5,41.364855,-72.908185,624410.0,CT,9.0,9009.0,New Haven County,90091652001.0
21009,sg:f34b74b6fb2a4a8786bddda470529d12,Northwest Corner Classic Car,CT,2019-07-01T00:00:00-04:00,2019-08-01T00:00:00-04:00,6039,6,27.0,"{""<5"":0,""5-20"":3,""21-60"":1,""61-240"":0,"">240"":2}",558.0,41.932459,-73.383883,441120.0,CT,9.0,9005.0,Litchfield County,90052611004.0
21047,sg:f6f2c0ae416c443abbbab62c2199ee70,Diva Threading & Jewelry,CT,2019-07-01T00:00:00-04:00,2019-08-01T00:00:00-04:00,6042,22,8.0,"{""<5"":1,""5-20"":21,""21-60"":0,""61-240"":0,"">240"":0}",265.0,41.796993,-72.553124,446120.0,CT,9.0,9003.0,Hartford County,90035141021.0
21073,sg:f9aa1ca6b8d54a53877bb002d060e967,Wee Care Day Care,CT,2019-07-01T00:00:00-04:00,2019-08-01T00:00:00-04:00,6042,39,26.0,"{""<5"":4,""5-20"":14,""21-60"":4,""61-240"":6,"">240"":11}",3890.0,41.795495,-72.543994,624410.0,CT,9.0,9003.0,Hartford County,90035142002.0
21226,sg:07c85c38213f418dab5427ca8d0c638b,TYCO Print Promo,CT,2019-07-01T00:00:00-04:00,2019-08-01T00:00:00-04:00,6511,55,22.0,"{""<5"":1,""5-20"":24,""21-60"":13,""61-240"":10,"">240"":7}",4014.0,41.310741,-72.93037,323113.0,CT,9.0,9009.0,New Haven County,90093614013.0
21246,sg:09cd93dd984f4c31b7a91bc58d42c842,Campus Field,CT,2019-07-01T00:00:00-04:00,2019-08-01T00:00:00-04:00,6825,162,60.0,"{""<5"":1,""5-20"":35,""21-60"":48,""61-240"":75,"">240"":3}",14391.5,41.219313,-73.24591600000001,711211.0,CT,9.0,9001.0,Fairfield County,90010601001.0
21254,sg:0ae0b41ccfbb4ce0a53f0725f2d1e343,Hanger Prosthetics & Orthotics,CT,2019-07-01T00:00:00-04:00,2019-08-01T00:00:00-04:00,6790,44,53.0,"{""<5"":2,""5-20"":11,""21-60"":11,""61-240"":7,"">240"":13}",4761.5,41.809792,-73.10766600000001,423450.0,CT,9.0,9005.0,Litchfield County,90053101003.0
21267,sg:0bffac4e9b3347a988629b67816151de,Denvir Tire Shop,CT,2019-07-01T00:00:00-04:00,2019-08-01T00:00:00-04:00,6475,73,80.0,"{""<5"":0,""5-20"":15,""21-60"":16,""61-240"":21,"">240"":21}",9036.0,41.292947,-72.381562,811111.0,CT,9.0,9007.0,Middlesex County,90076702004.0
21368,sg:15a370acb3b94d1b8db081f3bbe5006f,The Painted Cookie,CT,2019-07-01T00:00:00-04:00,2019-08-01T00:00:00-04:00,6897,4,7.0,"{""<5"":0,""5-20"":3,""21-60"":0,""61-240"":1,"">240"":0}",188.0,41.185628,-73.420907,722511.0,CT,9.0,9001.0,Fairfield County,90010451023.0
21524,sg:227ad4dca7334597a180a0e4e48dd7ca,Orthopaedic Specialty Group,CT,2019-07-01T00:00:00-04:00,2019-08-01T00:00:00-04:00,6484,26,261.0,"{""<5"":0,""5-20"":5,""21-60"":4,""61-240"":4,"">240"":13}",3946.5,41.277335,-73.12517199999999,621111.0,CT,9.0,9001.0,Fairfield County,90011103022.0
22202,sg:609945f7152d4a76aef9705fc4c21ce8,Lower Naugatuck Valley School Early Ch Ed,CT,2019-07-01T00:00:00-04:00,2019-08-01T00:00:00-04:00,6401,74,21.5,"{""<5"":1,""5-20"":35,""21-60"":10,""61-240"":15,"">240"":13}",6222.5,41.338648,-73.08335,624410.0,CT,9.0,9009.0,New Haven County,90091253002.0
22277,sg:6774f11bda954e6580d2fc77e3a6aca0,Bielonko Farms,CT,2019-07-01T00:00:00-04:00,2019-08-01T00:00:00-04:00,6078,71,19.0,"{""<5"":4,""5-20"":32,""21-60"":11,""61-240"":5,"">240"":19}",6168.0,42.006332,-72.61555,445230.0,CT,9.0,9003.0,Hartford County,90034771022.0
22342,sg:6e57064b232b4bbab6586acb4d34e194,Skin by Kataryna,CT,2019-07-01T00:00:00-04:00,2019-08-01T00:00:00-04:00,6880,13,8.0,"{""<5"":2,""5-20"":9,""21-60"":2,""61-240"":0,"">240"":0}",198.5,41.122147999999996,-73.322551,446120.0,CT,9.0,9001.0,Fairfield County,90010506002.0
22483,sg:7bd8d7815a5a4ddc9f3ca4d7f4d7d045,H&L Paving & Sealcoating,CT,2019-07-01T00:00:00-04:00,2019-08-01T00:00:00-04:00,6880,31,12.0,"{""<5"":1,""5-20"":16,""21-60"":9,""61-240"":4,"">240"":1}",1409.0,41.119838,-73.370126,444130.0,CT,9.0,9001.0,Fairfield County,90010504002.0
22627,sg:887a7c7895a7428dbec9dc87ebf5f4a2,East Coast Battery,CT,2019-07-01T00:00:00-04:00,2019-08-01T00:00:00-04:00,6704,1,8.0,"{""<5"":0,""5-20"":1,""21-60"":0,""61-240"":0,"">240"":0}",12.5,41.589,-73.051726,811118.0,CT,9.0,9009.0,New Haven County,90093523002.0
22677,sg:8d93e47dd45f4599a51c15d50cfeb22e,United Cash and Capital,CT,2019-07-01T00:00:00-04:00,2019-08-01T00:00:00-04:00,6106,16,428.5,"{""<5"":0,""5-20"":0,""21-60"":1,""61-240"":3,"">240"":12}",3372.0,41.759832,-72.674362,541213.0,CT,9.0,9003.0,Hartford County,90035005001.0
22700,sg:8fa8102978884705be873e51992119a1,Genji Ramen and Sushi Bar,CT,2019-07-01T00:00:00-04:00,2019-08-01T00:00:00-04:00,6033,949,21.0,"{""<5"":13,""5-20"":417,""21-60"":405,""61-240"":86,"">240"":28}",41310.5,41.714853000000005,-72.607712,722511.0,CT,9.0,9003.0,Hartford County,90035203022.0
22922,sg:a45acdfb3e184868be38605a4fa11b5e,Papis Liquors,CT,2019-07-01T00:00:00-04:00,2019-08-01T00:00:00-04:00,6810,59,22.0,"{""<5"":3,""5-20"":26,""21-60"":6,""61-240"":17,"">240"":7}",4814.0,41.388948,-73.469933,445310.0,CT,9.0,9001.0,Fairfield County,90012107022.0
22933,sg:a5aeb3bbc3074530812487f6113283ab,Inspired Bridal,CT,2019-07-01T00:00:00-04:00,2019-08-01T00:00:00-04:00,6510,10,14.0,"{""<5"":0,""5-20"":9,""21-60"":0,""61-240"":1,"">240"":0}",263.0,41.304103999999995,-72.925701,448120.0,CT,9.0,9009.0,New Haven County,90091401001.0
22936,sg:a5ce81b1165e4fdb8ca8feef2171fcb8,US Lawns Madison,CT,2019-07-01T00:00:00-04:00,2019-08-01T00:00:00-04:00,6037,69,79.0,"{""<5"":1,""5-20"":16,""21-60"":10,""61-240"":32,"">240"":10}",7823.5,41.617284000000005,-72.76763000000001,444130.0,CT,9.0,9003.0,Hartford County,90034001001.0
22986,sg:aa332b8e043d4dcab3318accebc2930e,Fresenius Kidney Care,CT,2019-07-01T00:00:00-04:00,2019-08-01T00:00:00-04:00,6108,87,116.0,"{""<5"":1,""5-20"":14,""21-60"":18,""61-240"":20,"">240"":34}",12076.5,41.763923,-72.655825,621492.0,CT,9.0,9003.0,Hartford County,90035102002.0
23038,sg:aee7ada845f54aed85ee020e561e58b5,Insurance Benefits,CT,2019-07-01T00:00:00-04:00,2019-08-01T00:00:00-04:00,6114,1052,38.0,"{""<5"":26,""5-20"":392,""21-60"":195,""61-240"":241,"">240"":198}",96653.0,41.746911,-72.66761899999999,524210.0,CT,9.0,9003.0,Hartford County,90035025002.0
23161,sg:bc44b552475947f0be4e9f91aa5bae36,Reach,CT,2019-07-01T00:00:00-04:00,2019-08-01T00:00:00-04:00,6107,104,38.0,"{""<5"":1,""5-20"":37,""21-60"":17,""61-240"":34,"">240"":15}",9870.5,41.736292999999996,-72.75185400000001,611110.0,CT,9.0,9003.0,Hartford County,90034964002.0
23229,sg:c3997fc931d24abcb6720239557071e2,Greenknoll Children's Center Annex,CT,2019-07-01T00:00:00-04:00,2019-08-01T00:00:00-04:00,6804,1,489.0,"{""<5"":0,""5-20"":0,""21-60"":0,""61-240"":0,"">240"":1}",240.0,41.453941,-73.403696,624410.0,CT,9.0,9001.0,Fairfield County,90012053003.0
23263,sg:c70cc4256764460fb1fbee67ad2ae8f7,Northeast Connecticut Dental Associates,CT,2019-07-01T00:00:00-04:00,2019-08-01T00:00:00-04:00,6260,121,29.0,"{""<5"":4,""5-20"":38,""21-60"":46,""61-240"":26,"">240"":7}",7941.0,41.910897999999996,-71.915575,621210.0,CT,9.0,9015.0,Windham County,90159032001.0
23266,sg:c760a7f5ff164a88b68798a52abf18a7,Montauk Av Baptist Church,CT,2019-07-01T00:00:00-04:00,2019-08-01T00:00:00-04:00,6320,57,82.0,"{""<5"":1,""5-20"":10,""21-60"":10,""61-240"":23,"">240"":13}",7114.0,41.341089000000004,-72.104957,813110.0,CT,9.0,9011.0,New London County,90116908002.0
23379,sg:d175d545077c43b48180e49f40f1d252,Tong Sing Restaurant,CT,2019-07-01T00:00:00-04:00,2019-08-01T00:00:00-04:00,6516,178,25.0,"{""<5"":6,""5-20"":73,""21-60"":50,""61-240"":40,"">240"":9}",11132.5,41.281883,-72.981719,722511.0,CT,9.0,9009.0,New Haven County,90091542001.0
23491,sg:dbc1b20e74474311a459682ec4bc0fa9,Henry K Danziger DDS,CT,2019-07-01T00:00:00-04:00,2019-08-01T00:00:00-04:00,6770,38,10.0,"{""<5"":1,""5-20"":27,""21-60"":10,""61-240"":0,"">240"":0}",745.0,41.492676,-73.054383,621210.0,CT,9.0,9009.0,New Haven County,90093453001.0
23560,sg:e31d67801d594f61a747e0b5d8804995,Babcock Hill Horses Naturally,CT,2019-07-01T00:00:00-04:00,2019-08-01T00:00:00-04:00,6238,55,74.0,"{""<5"":0,""5-20"":11,""21-60"":11,""61-240"":27,"">240"":6}",6086.5,41.727939,-72.274136,453220.0,CT,9.0,9013.0,Tolland County,90138502004.0
23565,sg:e35e86eb3a7d4a0ca0b724d4d9dc244c,Macy's,CT,2019-07-01T00:00:00-04:00,2019-08-01T00:00:00-04:00,6901,1603,40.0,"{""<5"":25,""5-20"":526,""21-60"":390,""61-240"":366,"">240"":296}",148555.5,41.054516,-73.53669599999999,452210.0,CT,9.0,9001.0,Fairfield County,90010201002.0
23704,sg:f3c51c5259084173942be0ea35d68dd6,New Brite Plaza,CT,2019-07-01T00:00:00-04:00,2019-08-01T00:00:00-04:00,6051,3339,20.0,"{""<5"":72,""5-20"":1634,""21-60"":930,""61-240"":504,"">240"":199}",181882.0,41.671459999999996,-72.7789,531120.0,CT,9.0,9003.0,Hartford County,90034171001.0
23775,sg:fa7f75bbf848481d93fc73e124c7d419,Byram Sushi Teriyaki,CT,2019-07-01T00:00:00-04:00,2019-08-01T00:00:00-04:00,6830,41,21.0,"{""<5"":6,""5-20"":12,""21-60"":15,""61-240"":5,"">240"":3}",2245.0,41.004084999999996,-73.658248,722511.0,CT,9.0,9001.0,Fairfield County,90010113002.0
23863,sg:03c2728240f341cab92be4cbadbdb782,New Haven Pizza,CT,2019-07-01T00:00:00-04:00,2019-08-01T00:00:00-04:00,6511,216,47.0,"{""<5"":3,""5-20"":72,""21-60"":37,""61-240"":73,"">240"":31}",20832.5,41.310497999999995,-72.949671,722511.0,CT,9.0,9009.0,New Haven County,90091408004.0
23896,sg:075d8c52e3f848ec92911026dc1f5ab0,Sbarro,CT,2019-07-01T00:00:00-04:00,2019-08-01T00:00:00-04:00,6042,420,39.0,"{""<5"":11,""5-20"":101,""21-60"":187,""61-240"":103,"">240"":18}",28685.0,41.806255,-72.545461,722513.0,CT,9.0,9003.0,Hartford County,90035141021.0
24166,sg:1e1e2441e42a441d88aea24ad9d11483,First & Summerfield United Methodist Church,CT,2019-07-01T00:00:00-04:00,2019-08-01T00:00:00-04:00,6511,28,107.5,"{""<5"":0,""5-20"":3,""21-60"":5,""61-240"":12,"">240"":8}",3966.0,41.309718,-72.926559,813110.0,CT,9.0,9009.0,New Haven County,90093614022.0
24231,sg:2429fc1a9c59480baf4081be020b5481,Wendy's,CT,2019-07-01T00:00:00-04:00,2019-08-01T00:00:00-04:00,6088,452,9.0,"{""<5"":22,""5-20"":336,""21-60"":79,""61-240"":11,"">240"":4}",10070.0,41.918819,-72.610334,722513.0,CT,9.0,9003.0,Hartford County,90034841001.0
24372,sg:2f5c97b26d70439e8da3c84e84c92122,Colonial Grocery Store,CT,2019-07-01T00:00:00-04:00,2019-08-01T00:00:00-04:00,6704,116,23.0,"{""<5"":6,""5-20"":51,""21-60"":15,""61-240"":14,"">240"":30}",10567.0,41.585514,-73.056374,445110.0,CT,9.0,9009.0,New Haven County,90093522001.0
24405,sg:3307946c95664f80ab50bd5c84e1334d,WinWholesale,CT,2019-07-01T00:00:00-04:00,2019-08-01T00:00:00-04:00,6457,57,56.0,"{""<5"":1,""5-20"":17,""21-60"":11,""61-240"":7,"">240"":21}",6754.0,41.594904,-72.679734,423990.0,CT,9.0,9007.0,Middlesex County,90075412003.0
24669,sg:4b3a34567b7a437187eccfa6ff93313f,Underground Boxing & Fitness,CT,2019-07-01T00:00:00-04:00,2019-08-01T00:00:00-04:00,6824,201,43.0,"{""<5"":1,""5-20"":21,""21-60"":110,""61-240"":61,"">240"":8}",15820.5,41.140728,-73.257951,713940.0,CT,9.0,9001.0,Fairfield County,90010616001.0
24681,sg:4ca03f7495bf4e18b10e8ceadf6b2664,Cordial Tiffany,CT,2019-07-01T00:00:00-04:00,2019-08-01T00:00:00-04:00,6451,126,68.0,"{""<5"":7,""5-20"":34,""21-60"":20,""61-240"":31,"">240"":34}",14078.0,41.549621,-72.79578599999999,445310.0,CT,9.0,9009.0,New Haven County,90091716003.0
24738,sg:51bbfbce52e94c21a1642dedc550e9b8,Sunoco,CT,2019-07-01T00:00:00-04:00,2019-08-01T00:00:00-04:00,6098,23,9.0,"{""<5"":3,""5-20"":14,""21-60"":4,""61-240"":2,"">240"":0}",645.5,41.917551,-73.056943,447110.0,CT,9.0,9005.0,Litchfield County,90053202002.0
24816,sg:59c3aaabb6484d13bedf9e125a8c06b0,Yale Yacht Club Sailing,CT,2019-07-01T00:00:00-04:00,2019-08-01T00:00:00-04:00,6405,125,58.0,"{""<5"":2,""5-20"":39,""21-60"":22,""61-240"":52,"">240"":10}",11609.5,41.255884,-72.851043,441222.0,CT,9.0,9009.0,New Haven County,90091843002.0
24819,sg:59e5037c6c4f47b1916f28ef201a147f,Dalice Elizabeth Winery,CT,2019-07-01T00:00:00-04:00,2019-08-01T00:00:00-04:00,6365,20,47.5,"{""<5"":1,""5-20"":5,""21-60"":5,""61-240"":8,"">240"":1}",1711.5,41.524084,-71.977542,312130.0,CT,9.0,9011.0,New London County,90117001002.0
25180,sg:7b5eaba4f9ef46f280bbecb234ec3bbf,Rocksteady Hair Studio,CT,2019-07-01T00:00:00-04:00,2019-08-01T00:00:00-04:00,6473,3,125.0,"{""<5"":0,""5-20"":0,""21-60"":1,""61-240"":2,"">240"":0}",341.5,41.356725,-72.872918,812112.0,CT,9.0,9009.0,New Haven County,90091672012.0
25301,sg:874587b2d3964f399d43ab86941eec19,Marty's Package Store,CT,2019-07-01T00:00:00-04:00,2019-08-01T00:00:00-04:00,6010,80,23.0,"{""<5"":1,""5-20"":33,""21-60"":34,""61-240"":10,"">240"":2}",3777.0,41.668973,-72.943639,445310.0,CT,9.0,9003.0,Hartford County,90034061002.0
25373,sg:903f0a2b4f6b4c6f89901f68746d43cb,New England Fiberglass Repair,CT,2019-07-01T00:00:00-04:00,2019-08-01T00:00:00-04:00,6482,27,43.0,"{""<5"":0,""5-20"":4,""21-60"":11,""61-240"":9,"">240"":3}",2570.0,41.409758000000004,-73.260787,441222.0,CT,9.0,9001.0,Fairfield County,90012305012.0
25386,sg:9128db259c4946cf86d92d1aae8f4e25,Shell Oil,CT,2019-07-01T00:00:00-04:00,2019-08-01T00:00:00-04:00,6716,78,7.0,"{""<5"":9,""5-20"":59,""21-60"":4,""61-240"":5,"">240"":1}",1914.5,41.575941,-73.000228,447110.0,CT,9.0,9009.0,New Haven County,90093612003.0
25392,sg:917cc7ecdd3b4237ad3844a84acf15cf,Superior Motors,CT,2019-07-01T00:00:00-04:00,2019-08-01T00:00:00-04:00,6460,52,8.5,"{""<5"":6,""5-20"":31,""21-60"":8,""61-240"":5,"">240"":2}",1959.0,41.217048999999996,-73.068914,441120.0,CT,9.0,9009.0,New Haven County,90091502001.0
25515,sg:9f5f8c737017436894cf7deeff1f1759,Bolton Veterans Park,CT,2019-07-01T00:00:00-04:00,2019-08-01T00:00:00-04:00,6043,46,10.0,"{""<5"":4,""5-20"":27,""21-60"":5,""61-240"":4,"">240"":6}",2592.0,41.793473,-72.44740999999999,712190.0,CT,9.0,9013.0,Tolland County,90135291003.0
25602,sg:a76e5fee043c4bec9f1a13f68344a378,Most Excellent Collectibles,CT,2019-07-01T00:00:00-04:00,2019-08-01T00:00:00-04:00,6082,329,12.0,"{""<5"":11,""5-20"":201,""21-60"":67,""61-240"":30,"">240"":20}",14568.5,42.011494,-72.592063,451211.0,CT,9.0,9003.0,Hartford County,90034805001.0
25699,sg:afdb5c5cee9c4da08244697830b70485,Benjamin Jepson Magnet School,CT,2019-07-01T00:00:00-04:00,2019-08-01T00:00:00-04:00,6513,40,41.0,"{""<5"":2,""5-20"":12,""21-60"":10,""61-240"":11,"">240"":5}",3415.5,41.300653000000004,-72.88979,611110.0,CT,9.0,9009.0,New Haven County,90091426042.0
25784,sg:b830414bd72f44edb1764fb6227bd8ee,Firestone Complete Auto Care,CT,2019-07-01T00:00:00-04:00,2019-08-01T00:00:00-04:00,6002,110,20.0,"{""<5"":2,""5-20"":54,""21-60"":32,""61-240"":18,"">240"":4}",5645.0,41.816546,-72.71623100000001,441310.0,CT,9.0,9003.0,Hartford County,90034712002.0
25843,sg:be6572e5381f42e9a95afbe8ab264dc8,McDonald's,CT,2019-07-01T00:00:00-04:00,2019-08-01T00:00:00-04:00,6067,153,133.0,"{""<5"":0,""5-20"":24,""21-60"":26,""61-240"":49,"">240"":54}",21687.5,41.673552,-72.645718,722513.0,CT,9.0,9003.0,Hartford County,90034901003.0
25995,sg:cd218af58ce84cb2b22705066de56caf,African Hair Braiding Gallery,CT,2019-07-01T00:00:00-04:00,2019-08-01T00:00:00-04:00,6516,35,31.0,"{""<5"":1,""5-20"":14,""21-60"":5,""61-240"":5,"">240"":10}",3532.5,41.285646,-72.958019,812112.0,CT,9.0,9009.0,New Haven County,90093615002.0
26101,sg:d54880205ed548dfb8aa1d51eaae2968,Fearless Fitness Glastonbury,CT,2019-07-01T00:00:00-04:00,2019-08-01T00:00:00-04:00,6033,148,132.0,"{""<5"":0,""5-20"":20,""21-60"":29,""61-240"":54,"">240"":45}",20351.5,41.709332,-72.587593,713940.0,CT,9.0,9003.0,Hartford County,90035203023.0
26210,sg:e19364219330412292216136e9b1a8e4,Limitless Vapes,CT,2019-07-01T00:00:00-04:00,2019-08-01T00:00:00-04:00,6468,1,13.0,"{""<5"":0,""5-20"":1,""21-60"":0,""61-240"":0,"">240"":0}",12.5,41.325845,-73.266764,444120.0,CT,9.0,9001.0,Fairfield County,90011001002.0
26490,sg:014b485a7545484abaf9f2acbf25ea74,Tunxis Hill Center,CT,2019-07-01T00:00:00-04:00,2019-08-01T00:00:00-04:00,6825,1913,19.0,"{""<5"":73,""5-20"":978,""21-60"":541,""61-240"":204,"">240"":117}",93100.0,41.177093,-73.227587,531120.0,CT,9.0,9001.0,Fairfield County,90010613001.0
26496,sg:01b547caed204884acf4d4bf0f799c2d,Intermix,CT,2019-07-01T00:00:00-04:00,2019-08-01T00:00:00-04:00,6880,213,21.0,"{""<5"":4,""5-20"":92,""21-60"":75,""61-240"":27,"">240"":15}",11861.0,41.142163000000004,-73.361858,448120.0,CT,9.0,9001.0,Fairfield County,90010502002.0
26606,sg:0c76ab8b8f6a41b39821fc59b4a372c6,Susan LeClair LMFT LLC,CT,2019-07-01T00:00:00-04:00,2019-08-01T00:00:00-04:00,6107,85,104.0,"{""<5"":1,""5-20"":14,""21-60"":20,""61-240"":25,"">240"":25}",10750.0,41.758528999999996,-72.744789,621330.0,CT,9.0,9003.0,Hartford County,90034965001.0
26694,sg:13d5033f577d48b78c0eb2b1c6fef02d,Village Hair Care,CT,2019-07-01T00:00:00-04:00,2019-08-01T00:00:00-04:00,6057,2,30.5,"{""<5"":0,""5-20"":1,""21-60"":1,""61-240"":0,"">240"":0}",53.0,41.877906,-72.978114,812113.0,CT,9.0,9005.0,Litchfield County,90053061001.0
26766,sg:1b5c3abcb0d842e9bf9ea83c6a207261,Beta Shim,CT,2019-07-01T00:00:00-04:00,2019-08-01T00:00:00-04:00,6484,93,107.0,"{""<5"":2,""5-20"":25,""21-60"":16,""61-240"":15,"">240"":35}",11623.0,41.274460999999995,-73.132343,444130.0,CT,9.0,9001.0,Fairfield County,90011103022.0
26872,sg:23e883aece5f45a0ad4ccc7cfda76ab4,People's United Bank,CT,2019-07-01T00:00:00-04:00,2019-08-01T00:00:00-04:00,6515,5,6.0,"{""<5"":0,""5-20"":3,""21-60"":0,""61-240"":1,"">240"":1}",428.0,41.336794,-72.982161,522110.0,CT,9.0,9009.0,New Haven County,90091412004.0
27145,sg:3d3f09ef43a8495899abad13413f0607,Mayflower Montessori School,CT,2019-07-01T00:00:00-04:00,2019-08-01T00:00:00-04:00,6360,26,37.5,"{""<5"":2,""5-20"":6,""21-60"":6,""61-240"":4,"">240"":8}",2845.0,41.505157000000004,-72.09110600000001,624410.0,CT,9.0,9011.0,New London County,90116967003.0
27151,sg:3dfff94b1c6f487c824b5c60daba0eb3,Hawley Lane Shoes,CT,2019-07-01T00:00:00-04:00,2019-08-01T00:00:00-04:00,6516,126,31.0,"{""<5"":4,""5-20"":46,""21-60"":32,""61-240"":30,"">240"":14}",9756.0,41.290219,-72.966284,448210.0,CT,9.0,9009.0,New Haven County,90091571001.0
27217,sg:4360f51f820e434a9962d1dcd17bcca9,Center Sports of Columbia,CT,2019-07-01T00:00:00-04:00,2019-08-01T00:00:00-04:00,6237,17,21.0,"{""<5"":1,""5-20"":6,""21-60"":5,""61-240"":5,"">240"":0}",1032.5,41.713625,-72.286798,451110.0,CT,9.0,9013.0,Tolland County,90138601002.0
27281,sg:49d748fefc98415a999c94121b1ebedf,Milkcraft,CT,2019-07-01T00:00:00-04:00,2019-08-01T00:00:00-04:00,6107,341,24.0,"{""<5"":4,""5-20"":135,""21-60"":149,""61-240"":50,"">240"":3}",15977.0,41.761452,-72.74314100000001,722515.0,CT,9.0,9003.0,Hartford County,90034965001.0
27300,sg:4b74b684cd8f426d804138278e276474,United Rentals,CT,2019-07-01T00:00:00-04:00,2019-08-01T00:00:00-04:00,6604,151,90.0,"{""<5"":5,""5-20"":40,""21-60"":27,""61-240"":30,"">240"":49}",17881.0,41.189421,-73.191856,532490.0,CT,9.0,9001.0,Fairfield County,90012572002.0
27359,sg:514314bfc5304e8fa511e417634dfbed,West Rocks Middle School,CT,2019-07-01T00:00:00-04:00,2019-08-01T00:00:00-04:00,6851,129,35.0,"{""<5"":4,""5-20"":47,""21-60"":24,""61-240"":25,"">240"":29}",12292.0,41.134415000000004,-73.41539399999999,624410.0,CT,9.0,9001.0,Fairfield County,90010428002.0
27375,sg:526feac989164f01aed38e392d1e3223,Dad's Handyman and Home Improvement,CT,2019-07-01T00:00:00-04:00,2019-08-01T00:00:00-04:00,6422,16,139.5,"{""<5"":0,""5-20"":4,""21-60"":2,""61-240"":5,"">240"":5}",2083.5,41.471208000000004,-72.70489,621610.0,CT,9.0,9007.0,Middlesex County,90075851003.0
27526,sg:625cba9e5c5d40b69f902ae54de8c25a,Paley's Farm Market,CT,2019-07-01T00:00:00-04:00,2019-08-01T00:00:00-04:00,6069,44,14.5,"{""<5"":0,""5-20"":26,""21-60"":5,""61-240"":4,"">240"":9}",3289.5,41.869369,-73.50052600000001,445230.0,CT,9.0,9005.0,Litchfield County,90052621001.0
27530,sg:628241b706b6467f9711da6b0e10c254,Catalyst Health & Fitness,CT,2019-07-01T00:00:00-04:00,2019-08-01T00:00:00-04:00,6762,588,47.0,"{""<5"":4,""5-20"":112,""21-60"":261,""61-240"":204,"">240"":7}",44362.5,41.535154,-73.085604,713940.0,CT,9.0,9009.0,New Haven County,90093441003.0
27575,sg:6754d117a25b4cdcba68be8da87df664,Orange Art Wholesale,CT,2019-07-01T00:00:00-04:00,2019-08-01T00:00:00-04:00,6281,1,107.0,"{""<5"":0,""5-20"":0,""21-60"":0,""61-240"":1,"">240"":0}",150.5,41.977672999999996,-71.991427,453920.0,CT,9.0,9015.0,Windham County,90159011002.0
27680,sg:72b79922a9b741df8eb756cebe0a2106,Alpha,CT,2019-07-01T00:00:00-04:00,2019-08-01T00:00:00-04:00,6615,196,113.0,"{""<5"":0,""5-20"":47,""21-60"":26,""61-240"":61,"">240"":62}",25701.0,41.179505,-73.136862,611110.0,CT,9.0,9001.0,Fairfield County,90010806002.0
27735,sg:7832b42cd3474cf7b0a3f34a09d387a3,Waterford Plaza,CT,2019-07-01T00:00:00-04:00,2019-08-01T00:00:00-04:00,6385,651,11.0,"{""<5"":36,""5-20"":423,""21-60"":120,""61-240"":25,"">240"":47}",25280.0,41.373901000000004,-72.138364,531120.0,CT,9.0,9011.0,New London County,90116937001.0
27849,sg:820b904d13c64bc8aab980d51e3af8ba,Shooters Pistol Range,CT,2019-07-01T00:00:00-04:00,2019-08-01T00:00:00-04:00,6776,186,35.0,"{""<5"":2,""5-20"":59,""21-60"":65,""61-240"":41,"">240"":19}",14105.5,41.55365,-73.418509,452319.0,CT,9.0,9005.0,Litchfield County,90052533002.0
28278,sg:ae79d43d87bf49e2955c6c29328150f4,NorthEast BioLab,CT,2019-07-01T00:00:00-04:00,2019-08-01T00:00:00-04:00,6514,53,168.0,"{""<5"":0,""5-20"":18,""21-60"":3,""61-240"":11,"">240"":21}",7042.0,41.401453000000004,-72.916862,621511.0,CT,9.0,9009.0,New Haven County,90091659004.0
28312,sg:b0da083d156d4910a961ffbec479ba7b,The Country Store,CT,2019-07-01T00:00:00-04:00,2019-08-01T00:00:00-04:00,6880,33,8.0,"{""<5"":6,""5-20"":18,""21-60"":2,""61-240"":4,"">240"":3}",1643.0,41.166790999999996,-73.382029,722511.0,CT,9.0,9001.0,Fairfield County,90010501001.0
28320,sg:b221e5ec387b4be3918f84e5006d8556,KinderCare,CT,2019-07-01T00:00:00-04:00,2019-08-01T00:00:00-04:00,6468,14,178.5,"{""<5"":1,""5-20"":1,""21-60"":3,""61-240"":3,"">240"":6}",2028.0,41.315847999999995,-73.218663,624410.0,CT,9.0,9001.0,Fairfield County,90011002002.0
28334,sg:b32711f7273d42c2b969bc37c93c7852,Harvest Time Church,CT,2019-07-01T00:00:00-04:00,2019-08-01T00:00:00-04:00,6831,68,55.5,"{""<5"":3,""5-20"":14,""21-60"":22,""61-240"":29,"">240"":0}",5438.0,41.080145,-73.70975200000001,813110.0,CT,9.0,9001.0,Fairfield County,90010101014.0
28451,sg:be2dd94d82664d72b69c1810e992d319,Connecticut Tire,CT,2019-07-01T00:00:00-04:00,2019-08-01T00:00:00-04:00,6037,13,7.0,"{""<5"":1,""5-20"":10,""21-60"":0,""61-240"":0,"">240"":2}",607.5,41.627664,-72.746126,441310.0,CT,9.0,9003.0,Hartford County,90034001003.0
28595,sg:ccd383c3cedf486d8bf6cf122de9c1f7,Monaco Center For Health & Healing,CT,2019-07-01T00:00:00-04:00,2019-08-01T00:00:00-04:00,6073,62,83.5,"{""<5"":0,""5-20"":18,""21-60"":9,""61-240"":14,"">240"":21}",7736.5,41.670579,-72.601789,621330.0,CT,9.0,9003.0,Hartford County,90035204003.0
28644,sg:d11bd6fd331a44858bbc0bbdcdbe2a8d,J Alden Clothiers,CT,2019-07-01T00:00:00-04:00,2019-08-01T00:00:00-04:00,6426,12,115.0,"{""<5"":1,""5-20"":3,""21-60"":1,""61-240"":3,"">240"":4}",1492.0,41.348032,-72.428712,448120.0,CT,9.0,9007.0,Middlesex County,90076301005.0
28900,sg:eb8f85fec73b448fa088567dbac30fde,Hertz,CT,2019-07-01T00:00:00-04:00,2019-08-01T00:00:00-04:00,6114,7,6.0,"{""<5"":0,""5-20"":7,""21-60"":0,""61-240"":0,"">240"":0}",87.5,41.743183,-72.651275,532111.0,CT,9.0,9003.0,Hartford County,90035025001.0
28931,sg:ee72d4d8b9564a048340cce7e036b8a0,Cafe on the Green,CT,2019-07-01T00:00:00-04:00,2019-08-01T00:00:00-04:00,6811,231,32.0,"{""<5"":6,""5-20"":86,""21-60"":64,""61-240"":56,"">240"":19}",16670.0,41.413567,-73.519976,722511.0,CT,9.0,9001.0,Fairfield County,90012108001.0
29080,sg:fe14a57f6ee84ea69a32fa532a879118,Anya's Head Lice Remedy,CT,2019-07-01T00:00:00-04:00,2019-08-01T00:00:00-04:00,6850,51,152.0,"{""<5"":0,""5-20"":3,""21-60"":9,""61-240"":18,"">240"":21}",8151.0,41.121759000000004,-73.438008,621511.0,CT,9.0,9001.0,Fairfield County,90010432001.0
29099,sg:00cf1940b9ee4ca080ad786bf2272f7e,Terryville Auto Parts,CT,2019-07-01T00:00:00-04:00,2019-08-01T00:00:00-04:00,6786,30,24.5,"{""<5"":1,""5-20"":10,""21-60"":11,""61-240"":7,"">240"":1}",1866.5,41.662386,-72.988708,441310.0,CT,9.0,9005.0,Litchfield County,90054255001.0
29147,sg:04e0925efcc14eb89387379d5b9496f3,Horace W Porter School,CT,2019-07-01T00:00:00-04:00,2019-08-01T00:00:00-04:00,6237,111,68.0,"{""<5"":2,""5-20"":31,""21-60"":17,""61-240"":30,"">240"":31}",13036.0,41.704409999999996,-72.300832,611110.0,CT,9.0,9013.0,Tolland County,90138601001.0
29673,sg:333587ef6f53476197f8a9a695729e8b,Shiki Hana Japanese Bistro,CT,2019-07-01T00:00:00-04:00,2019-08-01T00:00:00-04:00,6824,68,33.5,"{""<5"":1,""5-20"":16,""21-60"":39,""61-240"":10,"">240"":2}",3767.0,41.151899,-73.240312,722511.0,CT,9.0,9001.0,Fairfield County,90010615001.0
29687,sg:3439707c56034efb93c944c218d45a86,Joseph A Depaolo Middle School,CT,2019-07-01T00:00:00-04:00,2019-08-01T00:00:00-04:00,6489,383,106.0,"{""<5"":2,""5-20"":68,""21-60"":51,""61-240"":215,"">240"":47}",46558.0,41.607712,-72.856523,611110.0,CT,9.0,9003.0,Hartford County,90034302022.0
29754,sg:3a3292b19afd4372a212efc3305da7d2,Sun Life Financial,CT,2019-07-01T00:00:00-04:00,2019-08-01T00:00:00-04:00,6095,556,223.0,"{""<5"":1,""5-20"":76,""21-60"":64,""61-240"":152,"">240"":263}",89540.5,41.86242,-72.679247,523930.0,CT,9.0,9003.0,Hartford County,90034735013.0
29832,sg:40babb3ce17b41299b7c0afa8b19c70b,Tire Shak,CT,2019-07-01T00:00:00-04:00,2019-08-01T00:00:00-04:00,6401,15,7.0,"{""<5"":2,""5-20"":9,""21-60"":2,""61-240"":2,"">240"":0}",499.5,41.359635,-73.095475,441310.0,CT,9.0,9009.0,New Haven County,90091253001.0
29902,sg:46beec758433473aae3158fd79db144d,StoneHouse By Temponi,CT,2019-07-01T00:00:00-04:00,2019-08-01T00:00:00-04:00,6450,26,10.0,"{""<5"":2,""5-20"":15,""21-60"":6,""61-240"":3,"">240"":0}",887.0,41.570609000000005,-72.771089,442299.0,CT,9.0,9009.0,New Haven County,90091717002.0
29920,sg:4899d26ea8af477dbcac507d7e7b76f5,Holcomb Hill Woodworking,CT,2019-07-01T00:00:00-04:00,2019-08-01T00:00:00-04:00,6057,3,20.0,"{""<5"":0,""5-20"":2,""21-60"":0,""61-240"":0,"">240"":1}",265.0,41.883992,-72.974587,444130.0,CT,9.0,9005.0,Litchfield County,90053061001.0
29945,sg:4a9d34d4686a4e97b366b26cb888f53c,Noah Wallace School,CT,2019-07-01T00:00:00-04:00,2019-08-01T00:00:00-04:00,6032,125,35.0,"{""<5"":3,""5-20"":51,""21-60"":12,""61-240"":21,"">240"":38}",13411.5,41.72084,-72.82865799999999,611110.0,CT,9.0,9003.0,Hartford County,90034602022.0
29946,sg:4aa991d18fa940ffb21f52d8cdb1269d,Redneck Gourmet,CT,2019-07-01T00:00:00-04:00,2019-08-01T00:00:00-04:00,6415,36,10.0,"{""<5"":4,""5-20"":17,""21-60"":8,""61-240"":5,"">240"":2}",1779.0,41.576571,-72.333484,722515.0,CT,9.0,9011.0,New London County,90117141011.0
29978,sg:4e2cae6ed85940f382131cd8dac0e16c,Subway,CT,2019-07-01T00:00:00-04:00,2019-08-01T00:00:00-04:00,6013,38,8.0,"{""<5"":2,""5-20"":32,""21-60"":4,""61-240"":0,"">240"":0}",567.0,41.771439,-72.970327,722513.0,CT,9.0,9003.0,Hartford County,90034101021.0
30014,sg:51d6b34b9801493a9dc55a95352c6bd9,Meineke Car Care Centers,CT,2019-07-01T00:00:00-04:00,2019-08-01T00:00:00-04:00,6010,20,38.0,"{""<5"":1,""5-20"":7,""21-60"":5,""61-240"":7,"">240"":0}",1346.0,41.696148,-72.906379,811111.0,CT,9.0,9003.0,Hartford County,90034053001.0
30038,sg:5300ad1dbdac41d999a6e171aad944ad,Harvest Moon Health Foods,CT,2019-07-01T00:00:00-04:00,2019-08-01T00:00:00-04:00,6260,153,21.0,"{""<5"":3,""5-20"":68,""21-60"":33,""61-240"":26,"">240"":23}",11627.0,41.924299,-71.870985,446191.0,CT,9.0,9015.0,Windham County,90159032001.0
30159,sg:602959fbbd4941edb22c6c66b6723e3f,Raymond James Financial,CT,2019-07-01T00:00:00-04:00,2019-08-01T00:00:00-04:00,6405,4,429.0,"{""<5"":0,""5-20"":0,""21-60"":0,""61-240"":0,"">240"":4}",960.0,41.280915,-72.808246,523930.0,CT,9.0,9009.0,New Haven County,90091841001.0
30366,sg:750634ac33ea466d986fd0afad7c1815,Morris Street School,CT,2019-07-01T00:00:00-04:00,2019-08-01T00:00:00-04:00,6810,36,80.0,"{""<5"":0,""5-20"":7,""21-60"":6,""61-240"":14,"">240"":9}",4597.5,41.394821,-73.46476,611110.0,CT,9.0,9001.0,Fairfield County,90012107011.0
30405,sg:78baa2cdf6e3483ab3a4d8cd4c57c3a1,Petco,CT,2019-07-01T00:00:00-04:00,2019-08-01T00:00:00-04:00,6706,433,20.0,"{""<5"":8,""5-20"":210,""21-60"":159,""61-240"":44,"">240"":12}",18586.5,41.553492999999996,-73.033808,453910.0,CT,9.0,9009.0,New Haven County,90093504003.0
30548,sg:883371a737b54b40b92f1f384bb0eedd,Klg Designs,CT,2019-07-01T00:00:00-04:00,2019-08-01T00:00:00-04:00,6770,45,82.0,"{""<5"":1,""5-20"":8,""21-60"":7,""61-240"":29,"">240"":0}",4750.5,41.469335,-73.029648,442299.0,CT,9.0,9009.0,New Haven County,90093452013.0
30564,sg:89982651b18b4fbab7f468a729b571c4,VIP Very Intimate Pleasures,CT,2019-07-01T00:00:00-04:00,2019-08-01T00:00:00-04:00,6489,8,17.0,"{""<5"":1,""5-20"":4,""21-60"":3,""61-240"":0,"">240"":0}",174.0,41.622794,-72.87364699999999,621210.0,CT,9.0,9003.0,Hartford County,90034306011.0
30750,sg:9a611673d8704eadaecb510c4acfddba,Hamilton Capital Investments,CT,2019-07-01T00:00:00-04:00,2019-08-01T00:00:00-04:00,6371,1,470.0,"{""<5"":0,""5-20"":0,""21-60"":0,""61-240"":0,"">240"":1}",240.0,41.313809,-72.330833,523930.0,CT,9.0,9011.0,New London County,90116601013.0
30929,sg:abf6fac289334c0a9c1821e7f266ef39,Beautiful Acupuncture,CT,2019-07-01T00:00:00-04:00,2019-08-01T00:00:00-04:00,6840,43,24.0,"{""<5"":1,""5-20"":17,""21-60"":7,""61-240"":6,"">240"":12}",4281.5,41.148648,-73.490188,621111.0,CT,9.0,9001.0,Fairfield County,90010351001.0
30973,sg:b0511cd2425742e096db59afae0f3d06,Avon Nursery School,CT,2019-07-01T00:00:00-04:00,2019-08-01T00:00:00-04:00,6001,5,31.0,"{""<5"":0,""5-20"":2,""21-60"":3,""61-240"":0,"">240"":0}",146.5,41.810118,-72.83079599999999,624410.0,CT,9.0,9003.0,Hartford County,90034622013.0
31018,sg:b48908b68b2e4ed1bb44a499bec93508,Wendy's,CT,2019-07-01T00:00:00-04:00,2019-08-01T00:00:00-04:00,6118,554,11.0,"{""<5"":24,""5-20"":320,""21-60"":105,""61-240"":48,"">240"":57}",29216.5,41.743190000000006,-72.633726,722513.0,CT,9.0,9003.0,Hartford County,90035106004.0
31049,sg:b77c410d7039498fa6d46b9f29244307,Lyon Park,CT,2019-07-01T00:00:00-04:00,2019-08-01T00:00:00-04:00,6605,306,52.0,"{""<5"":7,""5-20"":82,""21-60"":75,""61-240"":123,"">240"":19}",27151.5,41.0137,-73.664721,712190.0,NY,36.0,36119.0,Westchester County,361190082003.0
31145,sg:c3b3ae2443094362a240710ef9ea686d,Mount Hope Montessori School,CT,2019-07-01T00:00:00-04:00,2019-08-01T00:00:00-04:00,6250,3,94.0,"{""<5"":0,""5-20"":1,""21-60"":0,""61-240"":2,"">240"":0}",313.5,41.759303,-72.191151,624410.0,,,,,
31193,sg:c840c963dcc748c09bb8740f283f9e36,Mobil,CT,2019-07-01T00:00:00-04:00,2019-08-01T00:00:00-04:00,6001,56,5.5,"{""<5"":8,""5-20"":42,""21-60"":2,""61-240"":2,"">240"":2}",1407.0,41.787824,-72.864041,447110.0,CT,9.0,9003.0,Hartford County,90034622012.0
31199,sg:c8a1e85d3cdd4747b60080d7b8e533fc,Best Connecticut Roofing,CT,2019-07-01T00:00:00-04:00,2019-08-01T00:00:00-04:00,6451,89,40.0,"{""<5"":2,""5-20"":26,""21-60"":24,""61-240"":19,"">240"":18}",8481.5,41.539534,-72.807911,811192.0,CT,9.0,9009.0,New Haven County,90091703001.0
31238,sg:cc6313d976c444409a9c092e3a6c3679,CITGO,CT,2019-07-01T00:00:00-04:00,2019-08-01T00:00:00-04:00,6604,88,5.0,"{""<5"":19,""5-20"":61,""21-60"":4,""61-240"":1,"">240"":3}",1842.5,41.17742,-73.217712,447110.0,CT,9.0,9001.0,Fairfield County,90010711003.0
31286,sg:d122d807782a46dfbe213dc50310cc4f,Middlesex Hospital Family Medicine Portland,CT,2019-07-01T00:00:00-04:00,2019-08-01T00:00:00-04:00,6480,151,74.0,"{""<5"":2,""5-20"":48,""21-60"":22,""61-240"":35,"">240"":44}",17323.5,41.570521,-72.63038,621111.0,CT,9.0,9007.0,Middlesex County,90075601003.0
31391,sg:dd0340e29174481593e4ae231b02bcbc,Ann L Gilnack Day Care Center,CT,2019-07-01T00:00:00-04:00,2019-08-01T00:00:00-04:00,6033,14,138.5,"{""<5"":0,""5-20"":4,""21-60"":1,""61-240"":3,"">240"":6}",1982.0,41.717462,-72.555151,624410.0,CT,9.0,9003.0,Hartford County,90035201001.0
31523,sg:eaa4197f702c45449e9b537cea5b88c6,Saybrook Pizza & Restaurant,CT,2019-07-01T00:00:00-04:00,2019-08-01T00:00:00-04:00,6475,237,70.0,"{""<5"":7,""5-20"":48,""21-60"":53,""61-240"":97,"">240"":32}",25042.5,41.285878000000004,-72.411759,722511.0,CT,9.0,9007.0,Middlesex County,90076701001.0
31525,sg:eab98c66cf81420b8840d3171d142a1a,Kohl's,CT,2019-07-01T00:00:00-04:00,2019-08-01T00:00:00-04:00,6062,1401,23.0,"{""<5"":22,""5-20"":569,""21-60"":624,""61-240"":159,"">240"":27}",62849.0,41.676334000000004,-72.844279,452210.0,CT,9.0,9003.0,Hartford County,90034206004.0
31640,sg:f4a4b868f36648c986d8e9d485b9e707,Connecticut GI,CT,2019-07-01T00:00:00-04:00,2019-08-01T00:00:00-04:00,6051,256,43.0,"{""<5"":7,""5-20"":84,""21-60"":45,""61-240"":79,"">240"":41}",24619.5,41.665302000000004,-72.77839499999999,621111.0,CT,9.0,9003.0,Hartford County,90034171001.0
31653,sg:f599c58a4f694b5286db10e5516571d9,Quest Diagnostics,CT,2019-07-01T00:00:00-04:00,2019-08-01T00:00:00-04:00,6615,9,90.0,"{""<5"":0,""5-20"":3,""21-60"":1,""61-240"":4,"">240"":1}",920.0,41.16896,-73.149831,621511.0,CT,9.0,9001.0,Fairfield County,90010805001.0
31721,sg:fcdb4b919cfa45d9946fdac83fe51e4b,Barbara Schmidt MS RDN CDN,CT,2019-07-01T00:00:00-04:00,2019-08-01T00:00:00-04:00,6840,7,32.0,"{""<5"":0,""5-20"":3,""21-60"":2,""61-240"":2,"">240"":0}",419.5,41.16758,-73.494883,812191.0,CT,9.0,9001.0,Fairfield County,90010352002.0
32004,sg:173f5bf095474a10ac9c40fa4cda6087,Norris Barber Shop,CT,2019-07-01T00:00:00-04:00,2019-08-01T00:00:00-04:00,6120,74,136.0,"{""<5"":2,""5-20"":16,""21-60"":12,""61-240"":22,"">240"":22}",9282.0,41.790333000000004,-72.67833900000001,812112.0,CT,9.0,9003.0,Hartford County,90035012001.0
32064,sg:1c3348f45c7c442da4f2bc4a020ace34,Montville Chiropractic,CT,2019-07-01T00:00:00-04:00,2019-08-01T00:00:00-04:00,6382,1,16.0,"{""<5"":0,""5-20"":1,""21-60"":0,""61-240"":0,"">240"":0}",12.5,41.435722999999996,-72.109498,621310.0,CT,9.0,9011.0,New London County,90118705022.0
32075,sg:1d094d52ad48484cb01e828535cfc4da,LaPointe Auto,CT,2019-07-01T00:00:00-04:00,2019-08-01T00:00:00-04:00,6040,76,92.0,"{""<5"":1,""5-20"":26,""21-60"":8,""61-240"":16,"">240"":25}",9059.5,41.764777,-72.533087,441120.0,CT,9.0,9003.0,Hartford County,90035151011.0
32116,sg:215afa6db48647a7b3dcbc29e30f8f6a,Dunkin',CT,2019-07-01T00:00:00-04:00,2019-08-01T00:00:00-04:00,6422,495,8.0,"{""<5"":25,""5-20"":370,""21-60"":60,""61-240"":39,"">240"":1}",13227.0,41.467906,-72.68006700000001,722515.0,CT,9.0,9007.0,Middlesex County,90075851003.0
32388,sg:3a1e05a56ecd4edfb5b89f3cc6db23fa,Jersey Mike's,CT,2019-07-01T00:00:00-04:00,2019-08-01T00:00:00-04:00,6804,532,6.0,"{""<5"":94,""5-20"":372,""21-60"":62,""61-240"":1,"">240"":3}",8266.5,41.444414,-73.40381500000001,722513.0,CT,9.0,9001.0,Fairfield County,90012053002.0
32472,sg:4193104a5288420ba05e9665014d7d70,Andover Package Store,CT,2019-07-01T00:00:00-04:00,2019-08-01T00:00:00-04:00,6232,33,9.0,"{""<5"":4,""5-20"":22,""21-60"":6,""61-240"":1,"">240"":0}",678.5,41.751826,-72.397857,445310.0,CT,9.0,9013.0,Tolland County,90135281001.0
32489,sg:42f47c66c19243cfb2fa5680aa857aab,Jimmies Pizza Restaurant,CT,2019-07-01T00:00:00-04:00,2019-08-01T00:00:00-04:00,6119,274,57.5,"{""<5"":2,""5-20"":64,""21-60"":75,""61-240"":74,"">240"":59}",29139.5,41.764728000000005,-72.725386,722511.0,CT,9.0,9003.0,Hartford County,90034969004.0
32522,sg:463d1c68efda4f328c90dc9d87e7c4c0,Gentle Dental Middletown Family Dentistry,CT,2019-07-01T00:00:00-04:00,2019-08-01T00:00:00-04:00,6457,2,89.0,"{""<5"":0,""5-20"":0,""21-60"":1,""61-240"":1,"">240"":0}",191.0,41.545014,-72.65129300000001,621210.0,CT,9.0,9007.0,Middlesex County,90075420003.0
32672,sg:54cc5c279fa64849908200e0d815b693,St Mary Magdalen School,CT,2019-07-01T00:00:00-04:00,2019-08-01T00:00:00-04:00,6779,147,76.0,"{""<5"":4,""5-20"":41,""21-60"":22,""61-240"":37,"">240"":43}",17302.0,41.590538,-73.082936,611110.0,CT,9.0,9005.0,Litchfield County,90053603002.0
32722,sg:59a2fcf09c964e45be4390a99e6d47f1,Carolina Grocery,CT,2019-07-01T00:00:00-04:00,2019-08-01T00:00:00-04:00,6106,21,120.0,"{""<5"":1,""5-20"":3,""21-60"":5,""61-240"":6,"">240"":6}",2585.5,41.731745000000004,-72.712428,445110.0,CT,9.0,9003.0,Hartford County,90035247001.0
