,safegraph_place_id,location_name,region,date_range_start,date_range_end,postal_code,raw_visit_counts,median_dwell,bucketed_dwell_times,est_total_dwell,latitude,longitude,naics_code,state,stateFIPS,countyFIPS,countyName,CBGFIPS
95,sg:069cf4f863504435bf03f8376439778a,Hope Springs Church,CT,2019-06-01T00:00:00-04:00,2019-07-01T00:00:00-04:00,6076,35,91.0,"{""<5"":1,""5-20"":9,""21-60"":4,""61-240"":17,"">240"":4}",3795.5,41.964289,-72.295532,813110.0,CT,9.0,9013.0,Tolland County,90138901002.0
164,sg:0c9b043d56f24e9fa4940ea326366ec2,United States Postal Service (USPS),CT,2019-06-01T00:00:00-04:00,2019-07-01T00:00:00-04:00,6071,47,17.0,"{""<5"":1,""5-20"":23,""21-60"":8,""61-240"":15,"">240"":0}",2871.5,41.986752,-72.441861,491110.0,CT,9.0,9013.0,Tolland County,90135382023.0
215,sg:105dbd92b8b347a0a2417c13fb0f3d1a,Goncharova Olga DDS,CT,2019-06-01T00:00:00-04:00,2019-07-01T00:00:00-04:00,6605,103,130.0,"{""<5"":3,""5-20"":30,""21-60"":11,""61-240"":22,"">240"":37}",13019.0,41.176156,-73.212136,621210.0,CT,9.0,9001.0,Fairfield County,90010711002.0
234,sg:11e76d70cf7c40468f4d29245286b230,Burlington,CT,2019-06-01T00:00:00-04:00,2019-07-01T00:00:00-04:00,6901,536,39.0,"{""<5"":4,""5-20"":148,""21-60"":217,""61-240"":120,"">240"":47}",39988.5,41.055856,-73.539907,448140.0,CT,9.0,9001.0,Fairfield County,90010201001.0
401,sg:219000cbd8344bc1901dadd90b41ada5,Barbara's Restaurant,CT,2019-06-01T00:00:00-04:00,2019-07-01T00:00:00-04:00,6514,217,19.0,"{""<5"":7,""5-20"":115,""21-60"":56,""61-240"":31,"">240"":8}",10308.5,41.339518,-72.93544,722511.0,CT,9.0,9009.0,New Haven County,90091655002.0
414,sg:22a7e13e2c334d6bae7d6f789549eeff,Sunoco,CT,2019-06-01T00:00:00-04:00,2019-07-01T00:00:00-04:00,6470,63,10.0,"{""<5"":3,""5-20"":45,""21-60"":9,""61-240"":3,"">240"":3}",2106.0,41.396768,-73.29361800000001,447110.0,CT,9.0,9001.0,Fairfield County,90012305022.0
463,sg:26d5cac6beb94025a6c6d3aaaac31606,Monro,CT,2019-06-01T00:00:00-04:00,2019-07-01T00:00:00-04:00,6410,4,66.0,"{""<5"":0,""5-20"":0,""21-60"":1,""61-240"":3,"">240"":0}",492.0,41.480868,-72.906149,811198.0,CT,9.0,9009.0,New Haven County,90093434001.0
482,sg:2889139e63b84b5881e95cf3f55c2196,First and Last Bakery Cafe,CT,2019-06-01T00:00:00-04:00,2019-07-01T00:00:00-04:00,6114,130,40.5,"{""<5"":4,""5-20"":35,""21-60"":41,""61-240"":29,"">240"":21}",11512.5,41.734021000000006,-72.68679,722511.0,CT,9.0,9003.0,Hartford County,90035023004.0
486,sg:28dce5a883834985a1bef5744110e651,ENT & Allergy Associates,CT,2019-06-01T00:00:00-04:00,2019-07-01T00:00:00-04:00,6611,5,16.0,"{""<5"":0,""5-20"":3,""21-60"":0,""61-240"":0,"">240"":2}",517.5,41.234859,-73.14938000000001,621111.0,CT,9.0,9001.0,Fairfield County,90010905002.0
487,sg:28df1ab1497847388edb220230aa5c88,KFC,CT,2019-06-01T00:00:00-04:00,2019-07-01T00:00:00-04:00,6810,240,21.0,"{""<5"":10,""5-20"":107,""21-60"":60,""61-240"":42,"">240"":21}",15153.5,41.408905,-73.455929,722513.0,CT,9.0,9001.0,Fairfield County,90012102001.0
495,sg:2939b817f79e412ab5e6071fd0fd0354,Pep Boys,CT,2019-06-01T00:00:00-04:00,2019-07-01T00:00:00-04:00,6514,193,20.0,"{""<5"":3,""5-20"":94,""21-60"":28,""61-240"":27,"">240"":41}",16220.0,41.371849,-72.916924,441310.0,CT,9.0,9009.0,New Haven County,90091658012.0
530,sg:2be5bf34d9ef4034b6dbab85eb74da8f,CrossFit,CT,2019-06-01T00:00:00-04:00,2019-07-01T00:00:00-04:00,6320,175,21.0,"{""<5"":2,""5-20"":83,""21-60"":32,""61-240"":43,"">240"":15}",12410.0,41.362639,-72.114876,713940.0,CT,9.0,9011.0,New London County,90116903002.0
554,sg:2e3a7540e9e34d39b5953157079ba2e6,Northford Country Grill,CT,2019-06-01T00:00:00-04:00,2019-07-01T00:00:00-04:00,6472,213,23.0,"{""<5"":5,""5-20"":92,""21-60"":78,""61-240"":24,"">240"":14}",11293.5,41.393683,-72.79019699999999,722511.0,CT,9.0,9009.0,New Haven County,90091862001.0
649,sg:35eb41dfd10946c2a9c29431cd652157,True Value Hardware,CT,2019-06-01T00:00:00-04:00,2019-07-01T00:00:00-04:00,6776,135,22.0,"{""<5"":3,""5-20"":55,""21-60"":45,""61-240"":28,"">240"":4}",7691.5,41.578489000000005,-73.413826,444130.0,CT,9.0,9005.0,Litchfield County,90052536002.0
681,sg:3904ad74ba524d58a93c0372209591a0,Boys & Girls Clubs of America,CT,2019-06-01T00:00:00-04:00,2019-07-01T00:00:00-04:00,6010,83,10.0,"{""<5"":6,""5-20"":42,""21-60"":19,""61-240"":11,"">240"":5}",4165.0,41.688644000000004,-72.91780200000001,624110.0,CT,9.0,9003.0,Hartford County,90034052002.0
772,sg:415b6b75e7994477b00b2d04497b60f0,Forever Custom Tattoos,CT,2019-06-01T00:00:00-04:00,2019-07-01T00:00:00-04:00,6604,2,7.5,"{""<5"":1,""5-20"":1,""21-60"":0,""61-240"":0,"">240"":0}",15.0,41.180087,-73.18924399999999,812199.0,CT,9.0,9001.0,Fairfield County,90010706001.0
859,sg:481be2811eff413cb6c6166f5a05836a,Cositas Deliciosas,CT,2019-06-01T00:00:00-04:00,2019-07-01T00:00:00-04:00,6513,556,24.0,"{""<5"":15,""5-20"":232,""21-60"":138,""61-240"":128,"">240"":43}",38110.5,41.309020000000004,-72.897992,722511.0,CT,9.0,9009.0,New Haven County,90091424003.0
1081,sg:5d2dcdfd1de94d2886305486558ceaa8,Calvary Christian Childhood Center,CT,2019-06-01T00:00:00-04:00,2019-07-01T00:00:00-04:00,6082,24,38.5,"{""<5"":0,""5-20"":9,""21-60"":5,""61-240"":6,"">240"":4}",2178.0,41.961262,-72.59695500000001,624410.0,CT,9.0,9003.0,Hartford County,90034812003.0
1110,sg:60a675d8ec3c4de99cb60ca9511b1f29,7-Eleven,CT,2019-06-01T00:00:00-04:00,2019-07-01T00:00:00-04:00,6268,3,8.0,"{""<5"":0,""5-20"":2,""21-60"":1,""61-240"":0,"">240"":0}",65.5,41.805081,-72.24394699999999,445120.0,CT,9.0,9013.0,Tolland County,90138812001.0
1128,sg:621f337ba9f84c6fad5e44b0a7b5ce80,Big Y Foods,CT,2019-06-01T00:00:00-04:00,2019-07-01T00:00:00-04:00,6470,166,14.0,"{""<5"":5,""5-20"":96,""21-60"":34,""61-240"":19,"">240"":12}",8329.0,41.412082,-73.304886,445110.0,CT,9.0,9001.0,Fairfield County,90012302001.0
1369,sg:7679d43ab6ca494cb733934595aeb566,UI RCP New Haven Fuel Cell,CT,2019-06-01T00:00:00-04:00,2019-07-01T00:00:00-04:00,6512,13,8.0,"{""<5"":0,""5-20"":10,""21-60"":2,""61-240"":1,"">240"":0}",356.5,41.289138,-72.89894699999999,221111.0,CT,9.0,9009.0,New Haven County,90091427003.0
1425,sg:7c92c9e4beaf44dbbef140f4035573fb,Baldi Stone and Gravel,CT,2019-06-01T00:00:00-04:00,2019-07-01T00:00:00-04:00,6415,20,21.0,"{""<5"":0,""5-20"":9,""21-60"":8,""61-240"":3,"">240"":0}",888.0,41.587278999999995,-72.35382,444130.0,CT,9.0,9011.0,New London County,90117141011.0
1439,sg:7dfb9aa77be34f6c9926af9bbb2cbbad,Bird,CT,2019-06-01T00:00:00-04:00,2019-07-01T00:00:00-04:00,6851,7,98.0,"{""<5"":0,""5-20"":2,""21-60"":1,""61-240"":4,"">240"":0}",667.5,41.138512,-73.319388,812112.0,CT,9.0,9001.0,Fairfield County,90010506003.0
1481,sg:81799eba1c5641b6a93d5d688db9079d,Mountain View School,CT,2019-06-01T00:00:00-04:00,2019-07-01T00:00:00-04:00,6010,8,165.0,"{""<5"":0,""5-20"":0,""21-60"":1,""61-240"":4,"">240"":3}",1362.5,41.696540999999996,-72.89895200000001,611110.0,CT,9.0,9003.0,Hartford County,90034053001.0
1529,sg:864cc22cbca7419486f690b110a962d5,Ywca Nike Tykes Early Learning Center,CT,2019-06-01T00:00:00-04:00,2019-07-01T00:00:00-04:00,6040,68,178.0,"{""<5"":1,""5-20"":11,""21-60"":3,""61-240"":25,"">240"":28}",10744.0,41.746798,-72.53326700000001,624410.0,CT,9.0,9003.0,Hartford County,90035151022.0
1593,sg:8c702a8ac92944bcb89aedf2688c01c5,Advanced Foot & Ankle Center,CT,2019-06-01T00:00:00-04:00,2019-07-01T00:00:00-04:00,6762,17,51.0,"{""<5"":0,""5-20"":8,""21-60"":2,""61-240"":2,"">240"":5}",1682.0,41.565630999999996,-73.092332,621111.0,CT,9.0,9009.0,New Haven County,90093520003.0
1739,sg:9a346929a2254efbb4c6ef4fede0a924,Hop Brook Lake,CT,2019-06-01T00:00:00-04:00,2019-07-01T00:00:00-04:00,6770,18,186.5,"{""<5"":0,""5-20"":5,""21-60"":2,""61-240"":3,"">240"":8}",2515.0,41.514222,-73.068152,712190.0,CT,9.0,9009.0,New Haven County,90093454001.0
1934,sg:ae108ffa5d5c41ab942f798b1d95291d,Fairways Golf Range and Pro Shop,CT,2019-06-01T00:00:00-04:00,2019-07-01T00:00:00-04:00,6405,209,23.0,"{""<5"":5,""5-20"":81,""21-60"":89,""61-240"":31,"">240"":3}",10015.0,41.304103999999995,-72.765648,713910.0,CT,9.0,9009.0,New Haven County,90091847001.0
1938,sg:ae82d52ce2b547a1b9bfafbf51f16cde,United Churches of Durham,CT,2019-06-01T00:00:00-04:00,2019-07-01T00:00:00-04:00,6422,17,35.0,"{""<5"":0,""5-20"":6,""21-60"":5,""61-240"":6,"">240"":0}",1180.5,41.478153000000006,-72.681415,813110.0,CT,9.0,9007.0,Middlesex County,90075851003.0
1954,sg:afd33032f7f849cb8f1c85501ebc9caa,Wallingford Public Library,CT,2019-06-01T00:00:00-04:00,2019-07-01T00:00:00-04:00,6492,540,40.0,"{""<5"":14,""5-20"":156,""21-60"":150,""61-240"":196,"">240"":24}",43318.0,41.457195,-72.816855,519120.0,CT,9.0,9009.0,New Haven County,90091751001.0
2078,sg:bd7fc1b818c64557b586eef567132b44,The Hartford Deli,CT,2019-06-01T00:00:00-04:00,2019-07-01T00:00:00-04:00,6103,121,365.0,"{""<5"":1,""5-20"":26,""21-60"":1,""61-240"":19,"">240"":74}",20987.5,41.767919,-72.67347600000001,722511.0,CT,9.0,9003.0,Hartford County,90035021001.0
2589,sg:f1aa7169d1b34eaeaeca2947a3529171,Vieira Manuel N Agency,CT,2019-06-01T00:00:00-04:00,2019-07-01T00:00:00-04:00,6770,1,6.0,"{""<5"":0,""5-20"":1,""21-60"":0,""61-240"":0,"">240"":0}",12.5,41.486243,-73.05751,524210.0,CT,9.0,9009.0,New Haven County,90093453002.0
2623,sg:f5e1b4c1b93146dbbeb72fa9bfdf380b,Elite Repeats LLC,CT,2019-06-01T00:00:00-04:00,2019-07-01T00:00:00-04:00,6416,11,9.0,"{""<5"":0,""5-20"":11,""21-60"":0,""61-240"":0,"">240"":0}",137.5,41.627004,-72.677155,448120.0,CT,9.0,9007.0,Middlesex County,90075701001.0
2714,sg:ff0dcf1b5e1844bdb49152dbf8657022,Michael Levin DDS,CT,2019-06-01T00:00:00-04:00,2019-07-01T00:00:00-04:00,6878,56,62.0,"{""<5"":0,""5-20"":12,""21-60"":16,""61-240"":15,"">240"":13}",6175.5,41.041553,-73.581331,621210.0,CT,9.0,9001.0,Fairfield County,90010109002.0
2883,sg:0d330d8fac524b9d96237857a10ece79,New England Auto World,CT,2019-06-01T00:00:00-04:00,2019-07-01T00:00:00-04:00,6418,861,89.0,"{""<5"":13,""5-20"":210,""21-60"":148,""61-240"":231,"">240"":259}",105577.0,41.33293,-73.09049300000001,,CT,9.0,9009.0,New Haven County,90091202001.0
2884,sg:0d42abd512fa4dccad7b360f08554e75,Hartford Infant Toddler Early Lrng Ctr,CT,2019-06-01T00:00:00-04:00,2019-07-01T00:00:00-04:00,6112,69,52.0,"{""<5"":3,""5-20"":19,""21-60"":14,""61-240"":26,"">240"":7}",6405.0,41.797121000000004,-72.689673,624410.0,CT,9.0,9003.0,Hartford County,90035015001.0
3197,sg:2a11ee31f51141eea456d13bc8fbdc6f,Kaleidoscope Kids,CT,2019-06-01T00:00:00-04:00,2019-07-01T00:00:00-04:00,6877,39,29.0,"{""<5"":3,""5-20"":14,""21-60"":8,""61-240"":7,"">240"":7}",3240.0,41.361474,-73.52432900000001,624410.0,CT,9.0,9001.0,Fairfield County,90012456001.0
3235,sg:2da1d7c6d649403b8d38cf057758403f,American Institute,CT,2019-06-01T00:00:00-04:00,2019-07-01T00:00:00-04:00,6110,148,139.5,"{""<5"":0,""5-20"":10,""21-60"":22,""61-240"":88,"">240"":28}",20980.0,41.726875,-72.725973,611310.0,CT,9.0,9003.0,Hartford County,90034961002.0
3308,sg:346043020948434ea8c560172ee77c24,Quest Diagnostics,CT,2019-06-01T00:00:00-04:00,2019-07-01T00:00:00-04:00,6105,186,59.0,"{""<5"":1,""5-20"":37,""21-60"":60,""61-240"":46,"">240"":42}",19898.0,41.769022,-72.702476,621511.0,CT,9.0,9003.0,Hartford County,90035031004.0
3336,sg:37a4a9a59146439e98867026e30324f7,Prospect Pizza Restaurant,CT,2019-06-01T00:00:00-04:00,2019-07-01T00:00:00-04:00,6119,87,88.0,"{""<5"":2,""5-20"":14,""21-60"":17,""61-240"":21,"">240"":33}",11949.0,41.752528999999996,-72.718023,722511.0,CT,9.0,9003.0,Hartford County,90034967001.0
3340,sg:380d39a79de54a5f9de9c3c90f6e7904,Edward Jones,CT,2019-06-01T00:00:00-04:00,2019-07-01T00:00:00-04:00,6082,4,53.0,"{""<5"":0,""5-20"":0,""21-60"":2,""61-240"":2,"">240"":0}",382.0,41.988727000000004,-72.560331,523999.0,CT,9.0,9003.0,Hartford County,90034808002.0
3424,sg:40322636e188445394fb6d80f35d3fad,Planned Parenthood,CT,2019-06-01T00:00:00-04:00,2019-07-01T00:00:00-04:00,6511,207,199.0,"{""<5"":1,""5-20"":29,""21-60"":29,""61-240"":63,"">240"":85}",31421.0,41.319855,-72.91830300000001,621410.0,CT,9.0,9009.0,New Haven County,90091419001.0
3562,sg:4cae41a3fa6c4d8eb5fc26932a8770a1,Sams Food Store,CT,2019-06-01T00:00:00-04:00,2019-07-01T00:00:00-04:00,6118,109,15.0,"{""<5"":5,""5-20"":58,""21-60"":12,""61-240"":15,"">240"":19}",8041.0,41.736743,-72.628703,445110.0,CT,9.0,9003.0,Hartford County,90035108002.0
3752,sg:5d75ecb30d394107b807786e0d302715,Southern Connecticut Freightliner,CT,2019-06-01T00:00:00-04:00,2019-07-01T00:00:00-04:00,6405,104,39.5,"{""<5"":0,""5-20"":38,""21-60"":17,""61-240"":39,"">240"":10}",9433.0,41.297615,-72.75630799999999,441310.0,CT,9.0,9009.0,New Haven County,90091847001.0
3913,sg:6be9c3913cce4ee79a051c1b12fb7034,ALDI,CT,2019-06-01T00:00:00-04:00,2019-07-01T00:00:00-04:00,6351,477,17.0,"{""<5"":8,""5-20"":279,""21-60"":183,""61-240"":7,"">240"":0}",11972.5,41.58551,-71.99443000000001,445110.0,CT,9.0,9011.0,New London County,90117101002.0
3968,sg:711f26a632ed4c779954f979ac1c3bed,Family Dental Practice Of Southington,CT,2019-06-01T00:00:00-04:00,2019-07-01T00:00:00-04:00,6489,3,93.0,"{""<5"":0,""5-20"":1,""21-60"":0,""61-240"":2,"">240"":0}",313.5,41.607449,-72.878423,621210.0,CT,9.0,9003.0,Hartford County,90034306022.0
3999,sg:75247527f92f4762a40abb2b3a0fefbf,Charter Oak Landing,CT,2019-06-01T00:00:00-04:00,2019-07-01T00:00:00-04:00,6114,18,64.5,"{""<5"":0,""5-20"":3,""21-60"":6,""61-240"":9,"">240"":0}",1635.0,41.746177,-72.655406,712190.0,CT,9.0,9003.0,Hartford County,90035025001.0
4060,sg:7ac0c26f73474d1bae854a354c66c54d,Stop &amp Shop,CT,2019-06-01T00:00:00-04:00,2019-07-01T00:00:00-04:00,6033,451,20.0,"{""<5"":9,""5-20"":220,""21-60"":156,""61-240"":24,"">240"":42}",22782.5,41.722273,-72.624894,445110.0,,,,,
4138,sg:82a50b1fbbe7405bac3a7fd78f0584a0,Domino's Pizza,CT,2019-06-01T00:00:00-04:00,2019-07-01T00:00:00-04:00,6457,23,18.0,"{""<5"":0,""5-20"":14,""21-60"":4,""61-240"":4,"">240"":1}",1179.0,41.546155,-72.650911,722513.0,CT,9.0,9007.0,Middlesex County,90075420003.0
4156,sg:84ade943f6b9449b8de6ead06131e6de,Fit4Mom,CT,2019-06-01T00:00:00-04:00,2019-07-01T00:00:00-04:00,6371,120,41.0,"{""<5"":4,""5-20"":38,""21-60"":27,""61-240"":32,"">240"":19}",10954.5,41.31886,-72.329163,713940.0,,,,,
4311,sg:9307294624c74f269da61373232f9109,TJ's Landscaping,CT,2019-06-01T00:00:00-04:00,2019-07-01T00:00:00-04:00,6109,70,43.0,"{""<5"":1,""5-20"":18,""21-60"":20,""61-240"":28,"">240"":3}",5971.5,41.703926,-72.672434,444130.0,CT,9.0,9003.0,Hartford County,90034922004.0
4320,sg:9483087bab3849aba6b2b2c5086fa3e4,Yale New Haven Hospital,CT,2019-06-01T00:00:00-04:00,2019-07-01T00:00:00-04:00,6405,65,84.0,"{""<5"":0,""5-20"":11,""21-60"":15,""61-240"":22,"">240"":17}",8136.0,41.284667999999996,-72.82118100000001,622110.0,CT,9.0,9009.0,New Haven County,90091842001.0
4325,sg:94c72db8637f44148ce59ae4b3292017,Storrs Wine and Spirits,CT,2019-06-01T00:00:00-04:00,2019-07-01T00:00:00-04:00,6268,37,14.0,"{""<5"":3,""5-20"":17,""21-60"":8,""61-240"":4,"">240"":5}",2346.0,41.804674,-72.242139,445310.0,CT,9.0,9013.0,Tolland County,90138811002.0
4489,sg:a371a271d5d648ab8e1fed11af65f192,Puerto Vallarta,CT,2019-06-01T00:00:00-04:00,2019-07-01T00:00:00-04:00,6477,477,44.0,"{""<5"":11,""5-20"":134,""21-60"":151,""61-240"":170,"">240"":11}",36043.0,41.261503999999995,-73.008673,722511.0,CT,9.0,9009.0,New Haven County,90091571001.0
4558,sg:aa73699a54ce4eb5800a78b2cddad5dc,Subway,CT,2019-06-01T00:00:00-04:00,2019-07-01T00:00:00-04:00,6010,95,11.0,"{""<5"":2,""5-20"":64,""21-60"":22,""61-240"":6,"">240"":1}",2839.0,41.671871,-72.946077,722513.0,CT,9.0,9003.0,Hartford County,90034061002.0
4624,sg:b14f1b6714704dc39055ef34ae1a957e,Skip's 19th Hole,CT,2019-06-01T00:00:00-04:00,2019-07-01T00:00:00-04:00,6604,47,107.0,"{""<5"":0,""5-20"":6,""21-60"":7,""61-240"":24,"">240"":10}",6370.5,41.187179,-73.21969399999999,722511.0,CT,9.0,9001.0,Fairfield County,90010721001.0
4687,sg:b939b03ceed94a3f99b1f6a0e49874ff,Subway,CT,2019-06-01T00:00:00-04:00,2019-07-01T00:00:00-04:00,6484,163,10.0,"{""<5"":9,""5-20"":102,""21-60"":29,""61-240"":16,"">240"":7}",6560.0,41.288188,-73.1127,722513.0,CT,9.0,9001.0,Fairfield County,90011102023.0
4764,sg:c1a0ce3ec2994f67a0ab52e23a087b7c,Kamp William C Housatonic Valley Insurance Agency,CT,2019-06-01T00:00:00-04:00,2019-07-01T00:00:00-04:00,6776,4,84.0,"{""<5"":0,""5-20"":1,""21-60"":0,""61-240"":3,"">240"":0}",464.0,41.577557,-73.410152,524210.0,CT,9.0,9005.0,Litchfield County,90052536002.0
4895,sg:cf05e83e3f75457f8f0269bfa8526d7b,Bear Hugs Child Care Center,CT,2019-06-01T00:00:00-04:00,2019-07-01T00:00:00-04:00,6825,12,22.5,"{""<5"":0,""5-20"":4,""21-60"":7,""61-240"":1,"">240"":0}",484.0,41.17725,-73.23229599999999,624410.0,CT,9.0,9001.0,Fairfield County,90010613001.0
5065,sg:df140e54b8fc4c61a2f1ee2e5aefc97f,Quorn Foods,CT,2019-06-01T00:00:00-04:00,2019-07-01T00:00:00-04:00,6880,3,36.0,"{""<5"":0,""5-20"":0,""21-60"":2,""61-240"":1,"">240"":0}",231.5,41.144088,-73.361008,445110.0,CT,9.0,9001.0,Fairfield County,90010502002.0
5274,sg:f1b9087cc6aa47ab8ebcf6cf95eb5a9e,Applebee's,CT,2019-06-01T00:00:00-04:00,2019-07-01T00:00:00-04:00,6810,361,44.0,"{""<5"":3,""5-20"":67,""21-60"":174,""61-240"":106,"">240"":11}",26485.0,41.41982,-73.41888,722511.0,CT,9.0,9001.0,Fairfield County,90012114003.0
5306,sg:f56059aba4ff48a2bf0f5c500f94c962,Bank of America,CT,2019-06-01T00:00:00-04:00,2019-07-01T00:00:00-04:00,6460,2,262.0,"{""<5"":0,""5-20"":1,""21-60"":0,""61-240"":0,"">240"":1}",252.5,41.238795,-73.035076,522110.0,CT,9.0,9009.0,New Haven County,90091508001.0
5476,sg:069e5b97162040b69d64ea074a399760,Noah's,CT,2019-06-01T00:00:00-04:00,2019-07-01T00:00:00-04:00,6378,284,51.0,"{""<5"":9,""5-20"":54,""21-60"":91,""61-240"":95,"">240"":35}",27080.5,41.333963,-71.90661300000001,722511.0,CT,9.0,9011.0,New London County,90117052002.0
5656,sg:14778b5fc362409aade98fcad98aa7d0,Koutsoukos James D DMD,CT,2019-06-01T00:00:00-04:00,2019-07-01T00:00:00-04:00,6902,8,56.5,"{""<5"":1,""5-20"":2,""21-60"":1,""61-240"":1,"">240"":3}",938.5,41.054967,-73.527823,621210.0,CT,9.0,9001.0,Fairfield County,90010217001.0
5782,sg:20607c1f39fe4c3f8b35d58521622c3a,Oakgrove Montessori Elementary & Preschool,CT,2019-06-01T00:00:00-04:00,2019-07-01T00:00:00-04:00,6250,3,10.0,"{""<5"":0,""5-20"":2,""21-60"":0,""61-240"":1,"">240"":0}",175.5,41.730996999999995,-72.233953,624410.0,CT,9.0,9013.0,Tolland County,90138815003.0
5785,sg:208841c43ba8413ba8ab77adb593d57c,Missionary Society of Connecticut,CT,2019-06-01T00:00:00-04:00,2019-07-01T00:00:00-04:00,6795,27,36.0,"{""<5"":0,""5-20"":9,""21-60"":6,""61-240"":11,"">240"":1}",2251.0,41.598504999999996,-73.137828,813110.0,CT,9.0,9005.0,Litchfield County,90053602002.0
5913,sg:2d487b43ffcc4f57865b9d3503f4294c,Matsu Sushi,CT,2019-06-01T00:00:00-04:00,2019-07-01T00:00:00-04:00,6880,182,22.5,"{""<5"":3,""5-20"":81,""21-60"":47,""61-240"":39,"">240"":12}",11673.0,41.140881,-73.361053,722511.0,CT,9.0,9001.0,Fairfield County,90010505004.0
5951,sg:2fec61bbf4074f5b85f1de8bdaa4351b,Northwest Catholic High School,CT,2019-06-01T00:00:00-04:00,2019-07-01T00:00:00-04:00,6117,570,118.0,"{""<5"":7,""5-20"":87,""21-60"":97,""61-240"":235,"">240"":144}",74961.0,41.799426000000004,-72.752478,611110.0,CT,9.0,9003.0,Hartford County,90034975002.0
6046,sg:399f3276bbbb434abf794b0dd84b7924,Quakerlane Cooperative Nursery School,CT,2019-06-01T00:00:00-04:00,2019-07-01T00:00:00-04:00,6119,12,11.5,"{""<5"":0,""5-20"":7,""21-60"":5,""61-240"":0,"">240"":0}",290.0,41.75985,-72.728651,624410.0,CT,9.0,9003.0,Hartford County,90034969004.0
6347,sg:565efdab8a8e42ec9dd5e5a11a503399,Child and Adult Orthodontics,CT,2019-06-01T00:00:00-04:00,2019-07-01T00:00:00-04:00,6443,110,62.0,"{""<5"":1,""5-20"":20,""21-60"":32,""61-240"":39,"">240"":18}",11738.0,41.281119,-72.599439,621210.0,CT,9.0,9009.0,New Haven County,90091941003.0
6364,sg:57a7c9c85a8449a7ab4914bd5aa64906,Latella Joseph & Sons,CT,2019-06-01T00:00:00-04:00,2019-07-01T00:00:00-04:00,6516,19,10.0,"{""<5"":0,""5-20"":13,""21-60"":2,""61-240"":3,"">240"":1}",935.0,41.265461,-72.991958,445110.0,CT,9.0,9009.0,New Haven County,90091542006.0
6429,sg:5fd4ce384f5e4bf6b0c58931a6af8214,Stop & Shop,CT,2019-06-01T00:00:00-04:00,2019-07-01T00:00:00-04:00,6880,871,20.0,"{""<5"":23,""5-20"":444,""21-60"":353,""61-240"":46,"">240"":5}",28027.0,41.137484,-73.302058,445110.0,CT,9.0,9001.0,Fairfield County,90010506003.0
6571,sg:6e6cf8bf0e0542b8814745a0feda01c1,Comprehensive Hearing,CT,2019-06-01T00:00:00-04:00,2019-07-01T00:00:00-04:00,6410,31,72.0,"{""<5"":2,""5-20"":0,""21-60"":8,""61-240"":21,"">240"":0}",3489.5,41.509131,-72.900304,621511.0,CT,9.0,9009.0,New Haven County,90093431021.0
6637,sg:74547d1131894d0689a440bd7d31f8e2,Hodosi's Auto Body,CT,2019-06-01T00:00:00-04:00,2019-07-01T00:00:00-04:00,6418,70,90.5,"{""<5"":1,""5-20"":13,""21-60"":17,""61-240"":14,"">240"":25}",8960.5,41.322722999999996,-73.09433100000001,811121.0,CT,9.0,9009.0,New Haven County,90091202002.0
6655,sg:75f64a88e7b746c794c63de65bf88aab,Tinker After School,CT,2019-06-01T00:00:00-04:00,2019-07-01T00:00:00-04:00,6708,120,50.5,"{""<5"":3,""5-20"":42,""21-60"":20,""61-240"":30,"">240"":25}",11857.5,41.536134000000004,-73.051353,624410.0,CT,9.0,9009.0,New Haven County,90093516013.0
6729,sg:7e806f3f7b5242c087adb9a488a18927,Staples,CT,2019-06-01T00:00:00-04:00,2019-07-01T00:00:00-04:00,6360,193,24.0,"{""<5"":3,""5-20"":76,""21-60"":45,""61-240"":21,"">240"":48}",17460.5,41.514741,-72.108214,453210.0,CT,9.0,9011.0,New London County,90116966001.0
6896,sg:8dfaf2181eef4105b75bbc4751c17396,Dew Yoga,CT,2019-06-01T00:00:00-04:00,2019-07-01T00:00:00-04:00,6905,290,54.5,"{""<5"":11,""5-20"":59,""21-60"":81,""61-240"":104,"">240"":35}",28097.5,41.076268,-73.549227,713940.0,CT,9.0,9001.0,Fairfield County,90010212002.0
6903,sg:8ea5482b4acb4b8196787d0477a56406,Fitzgerald's Fine Catering Since 1948,CT,2019-06-01T00:00:00-04:00,2019-07-01T00:00:00-04:00,6605,91,43.0,"{""<5"":3,""5-20"":22,""21-60"":23,""61-240"":22,"">240"":21}",9565.0,41.158162,-73.229586,722511.0,CT,9.0,9001.0,Fairfield County,90010701004.0
7198,sg:ad3d6bfe09404ecc86ef7bf00d9f03ff,Academy of Art & Music,CT,2019-06-01T00:00:00-04:00,2019-07-01T00:00:00-04:00,6405,82,62.0,"{""<5"":0,""5-20"":29,""21-60"":11,""61-240"":14,"">240"":28}",9635.0,41.298929,-72.771338,451140.0,CT,9.0,9009.0,New Haven County,90091847001.0
7210,sg:ae4e542e16fa4275905433956461dbd7,Monroe Elementary School,CT,2019-06-01T00:00:00-04:00,2019-07-01T00:00:00-04:00,6468,287,55.0,"{""<5"":7,""5-20"":83,""21-60"":62,""61-240"":84,"">240"":51}",28448.0,41.309173,-73.222503,611110.0,CT,9.0,9001.0,Fairfield County,90011002002.0
7294,sg:b6ab4206b1b440968ceeee910f512383,Bill's Bread and Breakfast,CT,2019-06-01T00:00:00-04:00,2019-07-01T00:00:00-04:00,6260,296,39.0,"{""<5"":6,""5-20"":62,""21-60"":162,""61-240"":63,"">240"":3}",17552.5,41.923716999999996,-71.907943,722511.0,CT,9.0,9015.0,Windham County,90159031003.0
7333,sg:ba50cf4ab7d94acfb1fcc0da2a50fb93,Bright Ideas Tutoring,CT,2019-06-01T00:00:00-04:00,2019-07-01T00:00:00-04:00,6840,21,181.0,"{""<5"":0,""5-20"":0,""21-60"":2,""61-240"":14,"">240"":5}",3388.0,41.148946,-73.49130600000001,611691.0,CT,9.0,9001.0,Fairfield County,90010351001.0
7359,sg:bdd21566dc1b4d759761663b0e3b10f2,Belden Robert H DVM,CT,2019-06-01T00:00:00-04:00,2019-07-01T00:00:00-04:00,6776,19,258.0,"{""<5"":0,""5-20"":5,""21-60"":2,""61-240"":2,"">240"":10}",2844.5,41.540729999999996,-73.422539,541940.0,CT,9.0,9005.0,Litchfield County,90052533002.0
7605,sg:d4d742d59d31437a92a2081877113aef,PPG Pittsburgh Paints,CT,2019-06-01T00:00:00-04:00,2019-07-01T00:00:00-04:00,6114,8,10.0,"{""<5"":1,""5-20"":4,""21-60"":3,""61-240"":0,"">240"":0}",174.0,41.735492,-72.656813,444120.0,CT,9.0,9003.0,Hartford County,90035025001.0
7677,sg:dce895a2f9714a5fa5a6fbf792f28977,Sherwin-Williams,CT,2019-06-01T00:00:00-04:00,2019-07-01T00:00:00-04:00,6110,154,24.5,"{""<5"":7,""5-20"":58,""21-60"":38,""61-240"":35,"">240"":16}",11389.0,41.731001,-72.728521,444120.0,CT,9.0,9003.0,Hartford County,90034961002.0
7695,sg:ddfb6935544a40f380621cf55f449bf2,The USA Nursery,CT,2019-06-01T00:00:00-04:00,2019-07-01T00:00:00-04:00,6473,89,60.0,"{""<5"":1,""5-20"":26,""21-60"":18,""61-240"":34,"">240"":10}",8573.5,41.369131,-72.883688,811411.0,CT,9.0,9009.0,New Haven County,90091671002.0
7980,sg:fca4840c9d11456eba33871aaa26b38c,Browne Dental Laboratory,CT,2019-06-01T00:00:00-04:00,2019-07-01T00:00:00-04:00,6360,84,137.0,"{""<5"":0,""5-20"":10,""21-60"":15,""61-240"":27,"">240"":32}",12476.0,41.539871999999995,-72.08715500000001,621210.0,CT,9.0,9011.0,New London County,90116965003.0
8013,sg:fff2799076a8441f8ec58e7075b40f8e,Marcia Eckerd PhD,CT,2019-06-01T00:00:00-04:00,2019-07-01T00:00:00-04:00,6851,1,474.0,"{""<5"":0,""5-20"":0,""21-60"":0,""61-240"":0,"">240"":1}",240.0,41.117083,-73.407724,621330.0,CT,9.0,9001.0,Fairfield County,90010436001.0
8188,sg:0dc978fbfe144b6dbf9b799a02a2c7ce,Essex Consignment,CT,2019-06-01T00:00:00-04:00,2019-07-01T00:00:00-04:00,6426,7,10.0,"{""<5"":0,""5-20"":6,""21-60"":1,""61-240"":0,"">240"":0}",115.5,41.333708,-72.422122,453310.0,CT,9.0,9007.0,Middlesex County,90076301006.0
8199,sg:0ea5201886c74fe9ac94d9cbdfe5771d,BP,CT,2019-06-01T00:00:00-04:00,2019-07-01T00:00:00-04:00,6405,1603,20.0,"{""<5"":47,""5-20"":793,""21-60"":466,""61-240"":210,"">240"":87}",81388.0,41.296856,-72.76092299999999,447110.0,CT,9.0,9009.0,New Haven County,90091847001.0
8210,sg:0f5672657c764176b7fcfe5be0328b88,Elevate Fitness,CT,2019-06-01T00:00:00-04:00,2019-07-01T00:00:00-04:00,6870,273,47.0,"{""<5"":6,""5-20"":49,""21-60"":114,""61-240"":71,"">240"":33}",23850.0,41.048821999999994,-73.56604,713940.0,CT,9.0,9001.0,Fairfield County,90010109001.0
8217,sg:102c96228dd04021aeb12b881c1d3b2a,Hartford HealthCare Medical Group,CT,2019-06-01T00:00:00-04:00,2019-07-01T00:00:00-04:00,6410,9,23.0,"{""<5"":0,""5-20"":2,""21-60"":5,""61-240"":2,"">240"":0}",528.5,41.477194,-72.905647,621111.0,CT,9.0,9009.0,New Haven County,90093433002.0
8580,sg:320e9e29907a479ab09f648e564b8551,Lakeside Lunch,CT,2019-06-01T00:00:00-04:00,2019-07-01T00:00:00-04:00,6777,20,106.5,"{""<5"":0,""5-20"":2,""21-60"":5,""61-240"":5,"">240"":8}",2900.0,41.694619,-73.363538,722511.0,CT,9.0,9005.0,Litchfield County,90052671001.0
8727,sg:3fce47f0f2e841e2b439d02d31c62fe2,Ryder,CT,2019-06-01T00:00:00-04:00,2019-07-01T00:00:00-04:00,6002,1,4.0,"{""<5"":1,""5-20"":0,""21-60"":0,""61-240"":0,"">240"":0}",2.5,41.817816,-72.723651,532120.0,CT,9.0,9003.0,Hartford County,90034713002.0
8797,sg:45902dd23c03404d94fcec63ede95bd3,Republic,CT,2019-06-01T00:00:00-04:00,2019-07-01T00:00:00-04:00,6002,411,46.0,"{""<5"":7,""5-20"":100,""21-60"":142,""61-240"":132,"">240"":30}",34084.5,41.828981,-72.735469,722511.0,CT,9.0,9003.0,Hartford County,90034713003.0
8847,sg:49c302bc45da4d53a93cf57fd8bce24d,A A Milford Driving School,CT,2019-06-01T00:00:00-04:00,2019-07-01T00:00:00-04:00,6460,45,21.0,"{""<5"":1,""5-20"":20,""21-60"":13,""61-240"":9,"">240"":2}",2613.5,41.226742,-73.069864,453310.0,CT,9.0,9009.0,New Haven County,90091501003.0
8886,sg:4e68795379db4fbe896638ad5d869000,Rusty Wallace Racing Experience Stafford Motor Speedway,CT,2019-06-01T00:00:00-04:00,2019-07-01T00:00:00-04:00,6076,61,22.0,"{""<5"":0,""5-20"":27,""21-60"":20,""61-240"":13,"">240"":1}",3344.0,41.955104,-72.32044599999999,441222.0,CT,9.0,9013.0,Tolland County,90138902021.0
8986,sg:57c9c4de7bb44939b9019ea0bead84cb,Soundbridge Academy Of Aerospace & Engineering Elementary,CT,2019-06-01T00:00:00-04:00,2019-07-01T00:00:00-04:00,6067,143,225.0,"{""<5"":1,""5-20"":20,""21-60"":21,""61-240"":33,"">240"":68}",22389.5,41.644365,-72.664689,611110.0,CT,9.0,9003.0,Hartford County,90035242003.0
9152,sg:667384dc2a27448e8e2165e059a2d8ab,Dental Associates of Connecticut,CT,2019-06-01T00:00:00-04:00,2019-07-01T00:00:00-04:00,6484,89,63.0,"{""<5"":3,""5-20"":13,""21-60"":25,""61-240"":29,"">240"":19}",10107.0,41.27717,-73.12086,621210.0,CT,9.0,9001.0,Fairfield County,90011102023.0
9350,sg:7891c069715a4404872fb9bf0874ddeb,All United Locksmith,CT,2019-06-01T00:00:00-04:00,2019-07-01T00:00:00-04:00,6460,3,26.0,"{""<5"":0,""5-20"":1,""21-60"":2,""61-240"":0,"">240"":0}",93.5,41.223065999999996,-73.04414399999999,621511.0,CT,9.0,9009.0,New Haven County,90091509002.0
9419,sg:7e5e6f46e9c14bb9857520fc5617562f,Partners,CT,2019-06-01T00:00:00-04:00,2019-07-01T00:00:00-04:00,6511,359,34.0,"{""<5"":7,""5-20"":123,""21-60"":96,""61-240"":104,"">240"":29}",28055.0,41.308004,-72.934048,722511.0,CT,9.0,9009.0,New Haven County,90093614011.0
9451,sg:81d6f09efa17431db9c9b55c121bda13,CrossFit,CT,2019-06-01T00:00:00-04:00,2019-07-01T00:00:00-04:00,6074,357,71.0,"{""<5"":4,""5-20"":61,""21-60"":88,""61-240"":158,"">240"":46}",39155.5,41.822406,-72.607109,713940.0,CT,9.0,9003.0,Hartford County,90034874003.0
9494,sg:86c20005dd014722b61cd3abc39d0b20,TD Bank,CT,2019-06-01T00:00:00-04:00,2019-07-01T00:00:00-04:00,6001,99,9.0,"{""<5"":7,""5-20"":59,""21-60"":11,""61-240"":3,"">240"":19}",6212.0,41.811715,-72.852522,522110.0,CT,9.0,9003.0,Hartford County,90034622011.0
9558,sg:8be9a3011cd24af59065df1a3f2cc4a2,St Vincent's Stratford Urgent Care Center,CT,2019-06-01T00:00:00-04:00,2019-07-01T00:00:00-04:00,6614,143,117.0,"{""<5"":2,""5-20"":16,""21-60"":34,""61-240"":41,"">240"":50}",19752.5,41.204908,-73.13114399999999,621493.0,CT,9.0,9001.0,Fairfield County,90010808003.0
9588,sg:8e302d971f6b48c1b6f6554caede3647,Boost Bowls,CT,2019-06-01T00:00:00-04:00,2019-07-01T00:00:00-04:00,6492,149,61.0,"{""<5"":3,""5-20"":28,""21-60"":39,""61-240"":77,"">240"":2}",14005.5,41.48766,-72.80804599999999,722515.0,CT,9.0,9009.0,New Haven County,90091754001.0
9789,sg:a3faab56f9bc4ca0bf92d7493378e286,Creative Hypnosis,CT,2019-06-01T00:00:00-04:00,2019-07-01T00:00:00-04:00,6410,42,43.0,"{""<5"":1,""5-20"":7,""21-60"":20,""61-240"":13,"">240"":1}",3096.5,41.509115,-72.89784399999999,621330.0,CT,9.0,9009.0,New Haven County,90093431022.0
10056,sg:bbbf7d8ddd764d56b09810bde171c086,McLean Clinton OD,CT,2019-06-01T00:00:00-04:00,2019-07-01T00:00:00-04:00,6484,999,20.0,"{""<5"":19,""5-20"":513,""21-60"":372,""61-240"":63,"">240"":32}",38687.5,41.263818,-73.132284,446130.0,CT,9.0,9001.0,Fairfield County,90011103022.0
10058,sg:bbcac646c2ca40ae96f9d1a9a8066e03,Tyler English Fitness,CT,2019-06-01T00:00:00-04:00,2019-07-01T00:00:00-04:00,6066,105,59.0,"{""<5"":1,""5-20"":13,""21-60"":43,""61-240"":44,"">240"":4}",9488.5,41.842046,-72.494569,713940.0,CT,9.0,9013.0,Tolland County,90135303021.0
10061,sg:bc1e825381f14c7796a3beb3cfa854d9,Center for Musculoskeletal Care,CT,2019-06-01T00:00:00-04:00,2019-07-01T00:00:00-04:00,6902,137,58.0,"{""<5"":1,""5-20"":30,""21-60"":40,""61-240"":40,"">240"":26}",14257.5,41.079240000000006,-73.5547,621111.0,CT,9.0,9001.0,Fairfield County,90010213001.0
10075,sg:bd84ddc7f83040aeafc7c8590a1fc2df,The Spice & Tea Exchange,CT,2019-06-01T00:00:00-04:00,2019-07-01T00:00:00-04:00,6355,28,12.5,"{""<5"":0,""5-20"":20,""21-60"":7,""61-240"":1,"">240"":0}",684.0,41.354889,-71.969184,446191.0,CT,9.0,9011.0,New London County,90117030001.0
10085,sg:bef77b81325244e7b3901b3dd76c5f81,Aurora Diner Restaurants,CT,2019-06-01T00:00:00-04:00,2019-07-01T00:00:00-04:00,6708,49,29.0,"{""<5"":0,""5-20"":15,""21-60"":25,""61-240"":8,"">240"":1}",2644.0,41.578267,-73.05461899999999,722511.0,,,,,
10098,sg:c07a30ba598c4cc8ad3839aa072dd07d,Pedal Power,CT,2019-06-01T00:00:00-04:00,2019-07-01T00:00:00-04:00,6426,67,32.0,"{""<5"":1,""5-20"":24,""21-60"":14,""61-240"":22,"">240"":6}",5620.5,41.352954,-72.40758100000001,451110.0,CT,9.0,9007.0,Middlesex County,90076301003.0
10179,sg:c7f91edd59aa4e51b70fbaf11d091570,Subway,CT,2019-06-01T00:00:00-04:00,2019-07-01T00:00:00-04:00,6483,215,48.0,"{""<5"":7,""5-20"":63,""21-60"":54,""61-240"":89,"">240"":2}",16866.5,41.360298,-73.095344,722513.0,CT,9.0,9009.0,New Haven County,90091302005.0
10195,sg:c9b08df840604f85ae1381c0363ee17e,Hk Fitness,CT,2019-06-01T00:00:00-04:00,2019-07-01T00:00:00-04:00,6441,101,26.0,"{""<5"":3,""5-20"":26,""21-60"":55,""61-240"":14,"">240"":3}",5387.0,41.495112,-72.558915,713940.0,CT,9.0,9007.0,Middlesex County,90075901001.0
10272,sg:d1595854c7dd42f3bbd3263034a9f470,Mark T Sheehan High School,CT,2019-06-01T00:00:00-04:00,2019-07-01T00:00:00-04:00,6492,789,82.0,"{""<5"":13,""5-20"":170,""21-60"":143,""61-240"":293,"">240"":170}",92845.5,41.485506,-72.835964,611110.0,CT,9.0,9009.0,New Haven County,90091756004.0
10360,sg:d9576d74992f4545993ac33ce0da6c7f,Michaels Stores,CT,2019-06-01T00:00:00-04:00,2019-07-01T00:00:00-04:00,6804,41,10.0,"{""<5"":0,""5-20"":40,""21-60"":0,""61-240"":0,"">240"":1}",740.0,41.434943,-73.413013,451120.0,CT,9.0,9001.0,Fairfield County,90012053003.0
10389,sg:dc0fba184ba7430d9192cb86d00fa6b6,Cohen Jodi L DDS,CT,2019-06-01T00:00:00-04:00,2019-07-01T00:00:00-04:00,6471,1,30.0,"{""<5"":0,""5-20"":0,""21-60"":1,""61-240"":0,"">240"":0}",40.5,41.327166,-72.767052,621210.0,CT,9.0,9009.0,New Haven County,90091861003.0
10430,sg:df84dddc14ce4c7298cf6eb339f45b3d,Steam,CT,2019-06-01T00:00:00-04:00,2019-07-01T00:00:00-04:00,6820,243,24.0,"{""<5"":8,""5-20"":88,""21-60"":97,""61-240"":47,"">240"":3}",12842.0,41.076378000000005,-73.471287,722511.0,CT,9.0,9001.0,Fairfield County,90010304001.0
10465,sg:e387c087c9d54e72bd8269932a6f944c,Canterbury Children's Academy,CT,2019-06-01T00:00:00-04:00,2019-07-01T00:00:00-04:00,6331,13,7.0,"{""<5"":1,""5-20"":7,""21-60"":4,""61-240"":1,"">240"":0}",402.5,41.707757,-71.987854,624410.0,CT,9.0,9015.0,Windham County,90159061002.0
10581,sg:eecc6df1c0774ec5bd0c8f5ea826c913,Bob's Stores,CT,2019-06-01T00:00:00-04:00,2019-07-01T00:00:00-04:00,6460,179,20.0,"{""<5"":6,""5-20"":93,""21-60"":75,""61-240"":5,"">240"":0}",4967.5,41.22814,-73.04777299999999,448140.0,CT,9.0,9009.0,New Haven County,90091509002.0
10668,sg:f7cd04787e65403abc5bf41b082519e3,Camp Bow Wow,CT,2019-06-01T00:00:00-04:00,2019-07-01T00:00:00-04:00,6074,70,10.0,"{""<5"":4,""5-20"":43,""21-60"":3,""61-240"":5,"">240"":15}",5021.5,41.836443,-72.60378299999999,812910.0,CT,9.0,9003.0,Hartford County,90034873001.0
10727,sg:fcb6fd79dc4b447f8d1972a8bf2714bf,Schoetz Real Estate,CT,2019-06-01T00:00:00-04:00,2019-07-01T00:00:00-04:00,6830,12,48.0,"{""<5"":0,""5-20"":3,""21-60"":4,""61-240"":5,"">240"":0}",952.0,41.021728,-73.628345,531210.0,CT,9.0,9001.0,Fairfield County,90010105001.0
10800,sg:03b862e15f5c48659e4b3716164d2105,Thompsonville Fire Department District 2,CT,2019-06-01T00:00:00-04:00,2019-07-01T00:00:00-04:00,6082,5,28.0,"{""<5"":0,""5-20"":2,""21-60"":3,""61-240"":0,"">240"":0}",146.5,41.998275,-72.600043,922160.0,CT,9.0,9003.0,Hartford County,90034806004.0
10952,sg:1113c993969c445ca8d3b751157aa8ec,Prime Sales Auto Dealers LLC,CT,2019-06-01T00:00:00-04:00,2019-07-01T00:00:00-04:00,6787,12,9.0,"{""<5"":0,""5-20"":10,""21-60"":2,""61-240"":0,"">240"":0}",206.0,41.659766,-73.08182,441228.0,CT,9.0,9005.0,Litchfield County,90053491003.0
11009,sg:16d167c3cb1141eba4097d81aecc5493,Highland School,CT,2019-06-01T00:00:00-04:00,2019-07-01T00:00:00-04:00,6492,239,96.0,"{""<5"":6,""5-20"":61,""21-60"":35,""61-240"":59,"">240"":78}",29794.5,41.487922999999995,-72.838479,611110.0,CT,9.0,9009.0,New Haven County,90091756004.0
11035,sg:192cc01dab36410cbac03bbc74327b3e,Go Buses,CT,2019-06-01T00:00:00-04:00,2019-07-01T00:00:00-04:00,6103,265,9.0,"{""<5"":20,""5-20"":190,""21-60"":32,""61-240"":20,"">240"":3}",7451.0,41.768832,-72.66994,482111.0,CT,9.0,9003.0,Hartford County,90035021002.0
11082,sg:1dd892721e534d9b8c8e5d2631b8aa69,4Structures com LLC,CT,2019-06-01T00:00:00-04:00,2019-07-01T00:00:00-04:00,6902,16,29.0,"{""<5"":0,""5-20"":7,""21-60"":5,""61-240"":4,"">240"":0}",892.0,41.039592,-73.529679,524210.0,CT,9.0,9001.0,Fairfield County,90010221003.0
11257,sg:2c99371ae0c448e781adcd6cef6dd2aa,Classy Clipper,CT,2019-06-01T00:00:00-04:00,2019-07-01T00:00:00-04:00,6108,1542,134.0,"{""<5"":20,""5-20"":248,""21-60"":221,""61-240"":557,"">240"":496}",214969.0,41.769032,-72.67463000000001,453910.0,CT,9.0,9003.0,Hartford County,90035021002.0
11319,sg:31e36918251943e989fa35af693838f3,True Value Hardware,CT,2019-06-01T00:00:00-04:00,2019-07-01T00:00:00-04:00,6473,71,52.0,"{""<5"":3,""5-20"":21,""21-60"":16,""61-240"":24,"">240"":7}",6210.0,41.388115,-72.874329,444130.0,,,,,
11346,sg:34a30cf7dbee4d398922deaefe601867,Lyme Academy College of Fine Arts,CT,2019-06-01T00:00:00-04:00,2019-07-01T00:00:00-04:00,6371,57,240.0,"{""<5"":0,""5-20"":8,""21-60"":9,""61-240"":12,"">240"":28}",8990.5,41.322368,-72.329192,611310.0,CT,9.0,9011.0,New London County,90116601013.0
11355,sg:358d72336ffd4779995b9e8aad742228,Patco Handy Stop,CT,2019-06-01T00:00:00-04:00,2019-07-01T00:00:00-04:00,6786,105,11.0,"{""<5"":7,""5-20"":64,""21-60"":11,""61-240"":10,"">240"":13}",5888.0,41.678402,-73.00354,447110.0,CT,9.0,9005.0,Litchfield County,90054255003.0
11393,sg:38cc70a81af646049808ec400bb96469,Vein Centers of Ct,CT,2019-06-01T00:00:00-04:00,2019-07-01T00:00:00-04:00,6443,7,12.0,"{""<5"":0,""5-20"":6,""21-60"":1,""61-240"":0,"">240"":0}",115.5,41.278865,-72.594325,621111.0,CT,9.0,9009.0,New Haven County,90091941005.0
11414,sg:3ab32853bd604c1d8aa03e01b8901532,Elmwood Pastry Shop,CT,2019-06-01T00:00:00-04:00,2019-07-01T00:00:00-04:00,6110,25,17.0,"{""<5"":0,""5-20"":17,""21-60"":3,""61-240"":5,"">240"":0}",1086.5,41.733284000000005,-72.732934,722515.0,CT,9.0,9003.0,Hartford County,90034963001.0
11492,sg:41f0043791d7485babe742a52e58f7d9,Gifted Hands Massage &amp Spa,CT,2019-06-01T00:00:00-04:00,2019-07-01T00:00:00-04:00,6770,214,43.0,"{""<5"":6,""5-20"":58,""21-60"":59,""61-240"":66,"">240"":25}",19062.5,41.490132,-73.054727,446120.0,CT,9.0,9009.0,New Haven County,90093453001.0
11539,sg:4510af2678e3480d9e132f9823f467c9,Monroe Psychic Readings By Stephanie,CT,2019-06-01T00:00:00-04:00,2019-07-01T00:00:00-04:00,6468,8,253.0,"{""<5"":0,""5-20"":1,""21-60"":1,""61-240"":2,"">240"":4}",1314.0,41.319556,-73.26280200000001,621330.0,CT,9.0,9001.0,Fairfield County,90011001003.0
11640,sg:4f808f4dedd04bf794f2f5d253146794,Danielle R Pannese DDS,CT,2019-06-01T00:00:00-04:00,2019-07-01T00:00:00-04:00,6825,9,23.0,"{""<5"":0,""5-20"":4,""21-60"":3,""61-240"":0,"">240"":2}",651.5,41.166451,-73.234735,621210.0,CT,9.0,9001.0,Fairfield County,90010614001.0
11720,sg:5844dce7691540f6806047569aa8764b,Arrow Cab CT,CT,2019-06-01T00:00:00-04:00,2019-07-01T00:00:00-04:00,6117,20,17.5,"{""<5"":3,""5-20"":7,""21-60"":6,""61-240"":4,"">240"":0}",940.0,41.78371,-72.737833,485310.0,CT,9.0,9003.0,Hartford County,90034972002.0
11820,sg:62bb60d9f4d143adb5435e904baa2327,Knotty Pine Package Store,CT,2019-06-01T00:00:00-04:00,2019-07-01T00:00:00-04:00,6704,51,59.0,"{""<5"":2,""5-20"":16,""21-60"":8,""61-240"":9,"">240"":16}",5723.5,41.575725,-73.02611,445310.0,CT,9.0,9009.0,New Haven County,90093511001.0
12005,sg:73d54907915d4ec080f12bc78490826a,Hartford Tow Truck Company,CT,2019-06-01T00:00:00-04:00,2019-07-01T00:00:00-04:00,6106,478,73.0,"{""<5"":8,""5-20"":144,""21-60"":76,""61-240"":95,"">240"":155}",56395.5,41.759407,-72.695759,488410.0,CT,9.0,9003.0,Hartford County,90035029002.0
12035,sg:76bfe2f0aeab4d8abc93605bfc097ac3,Guilford Savings Bank,CT,2019-06-01T00:00:00-04:00,2019-07-01T00:00:00-04:00,6443,1,7.0,"{""<5"":0,""5-20"":1,""21-60"":0,""61-240"":0,"">240"":0}",12.5,41.360214,-72.635898,522110.0,CT,9.0,9009.0,New Haven County,90091942021.0
12059,sg:78c5e7a60d5344bbaaef8c7e069b6016,Candlewood Lake Club,CT,2019-06-01T00:00:00-04:00,2019-07-01T00:00:00-04:00,6776,127,71.0,"{""<5"":2,""5-20"":20,""21-60"":35,""61-240"":46,"">240"":24}",14355.5,41.49726,-73.44155500000001,453998.0,CT,9.0,9005.0,Litchfield County,90052534003.0
12299,sg:9173b93b12d94e97b7319a45e9ddb4a4,Greenwich Dance Studio,CT,2019-06-01T00:00:00-04:00,2019-07-01T00:00:00-04:00,6830,145,68.0,"{""<5"":4,""5-20"":37,""21-60"":28,""61-240"":31,"">240"":45}",17072.0,41.036507,-73.601861,713940.0,CT,9.0,9001.0,Fairfield County,90010108002.0
12413,sg:9a4f471f98514760b6ae8b8e7b388a02,Jane's Place,CT,2019-06-01T00:00:00-04:00,2019-07-01T00:00:00-04:00,6062,330,70.5,"{""<5"":1,""5-20"":71,""21-60"":63,""61-240"":189,"">240"":6}",33326.0,41.67188,-72.854469,722515.0,CT,9.0,9003.0,Hartford County,90034206004.0
12534,sg:a63a37648d8a43cb89e53594791b64ac,Stevens Alternate High School,CT,2019-06-01T00:00:00-04:00,2019-07-01T00:00:00-04:00,6118,56,236.5,"{""<5"":0,""5-20"":8,""21-60"":6,""61-240"":14,"">240"":28}",9170.0,41.755495,-72.596323,611110.0,CT,9.0,9003.0,Hartford County,90035111002.0
12552,sg:a86b7d696673431d87a8e8a1184db400,Priority Automation & Security,CT,2019-06-01T00:00:00-04:00,2019-07-01T00:00:00-04:00,6351,21,36.0,"{""<5"":1,""5-20"":7,""21-60"":5,""61-240"":4,"">240"":4}",1854.5,41.599579999999996,-71.989876,443142.0,CT,9.0,9011.0,New London County,90117101001.0
12812,sg:c3711567dcfe4032879815c9c9f8adf4,Effi's Salon,CT,2019-06-01T00:00:00-04:00,2019-07-01T00:00:00-04:00,6880,3,82.0,"{""<5"":0,""5-20"":0,""21-60"":1,""61-240"":2,"">240"":0}",341.5,41.124075,-73.37208100000001,812112.0,CT,9.0,9001.0,Fairfield County,90010504001.0
12816,sg:c3b701ed3fff45bf8ac041a33956b11b,Brito's Restaurant,CT,2019-06-01T00:00:00-04:00,2019-07-01T00:00:00-04:00,6810,288,54.5,"{""<5"":6,""5-20"":80,""21-60"":62,""61-240"":74,"">240"":66}",30503.0,41.389069,-73.434628,722511.0,CT,9.0,9001.0,Fairfield County,90012104002.0
12903,sg:cce9119b3c3b49f7ac30c0f72e9c5a13,Scott Cameron PT,CT,2019-06-01T00:00:00-04:00,2019-07-01T00:00:00-04:00,6498,4,338.0,"{""<5"":0,""5-20"":1,""21-60"":0,""61-240"":1,"">240"":2}",643.0,41.295394,-72.489008,621340.0,CT,9.0,9007.0,Middlesex County,90076801001.0
12979,sg:d518f522b765426d9881b8947fa0e1c3,Harvey's Kitchen,CT,2019-06-01T00:00:00-04:00,2019-07-01T00:00:00-04:00,6610,127,68.0,"{""<5"":2,""5-20"":39,""21-60"":17,""61-240"":43,"">240"":26}",13892.5,41.195811,-73.158778,722511.0,CT,9.0,9001.0,Fairfield County,90010733001.0
12992,sg:d67898e901af4d329c8559872511151d,Waddell School,CT,2019-06-01T00:00:00-04:00,2019-07-01T00:00:00-04:00,6042,88,131.5,"{""<5"":0,""5-20"":33,""21-60"":3,""61-240"":19,"">240"":33}",11313.5,41.784105,-72.534626,611110.0,CT,9.0,9003.0,Hartford County,90035144004.0
13373,sg:fe2e524798cc4c6d9198d3356e23b503,Indomitable Fitness and Martial Arts,CT,2019-06-01T00:00:00-04:00,2019-07-01T00:00:00-04:00,6111,7,184.0,"{""<5"":0,""5-20"":0,""21-60"":1,""61-240"":3,"">240"":3}",1212.0,41.721927,-72.717555,713940.0,CT,9.0,9003.0,Hartford County,90034945001.0
13377,sg:fe6128d3e5454e9ba9f1c750f6638f58,Verizon Authorized Retailer Wireless Zone,CT,2019-06-01T00:00:00-04:00,2019-07-01T00:00:00-04:00,6468,1,21.0,"{""<5"":0,""5-20"":0,""21-60"":1,""61-240"":0,"">240"":0}",40.5,41.339162,-73.263006,517312.0,CT,9.0,9001.0,Fairfield County,90011001001.0
13396,sg:ffbb088746794a5f994869bfac2b359e,Annie E Vinton School,CT,2019-06-01T00:00:00-04:00,2019-07-01T00:00:00-04:00,6250,156,69.0,"{""<5"":3,""5-20"":30,""21-60"":38,""61-240"":54,"">240"":31}",17488.5,41.74626,-72.259385,611110.0,CT,9.0,9013.0,Tolland County,90138815003.0
13519,sg:0a529c40e2dc4434891174e65188ac1c,Reeves Field,CT,2019-06-01T00:00:00-04:00,2019-07-01T00:00:00-04:00,6787,150,21.5,"{""<5"":5,""5-20"":68,""21-60"":40,""61-240"":27,"">240"":10}",8946.0,41.674972,-73.072327,713940.0,CT,9.0,9005.0,Litchfield County,90053492002.0
13578,sg:0f688e5ad92941e7b75386648d5c55e4,Bank of America,CT,2019-06-01T00:00:00-04:00,2019-07-01T00:00:00-04:00,6067,37,6.0,"{""<5"":6,""5-20"":29,""21-60"":2,""61-240"":0,"">240"":0}",458.5,41.644096000000005,-72.677995,522110.0,CT,9.0,9003.0,Hartford County,90034903024.0
13652,sg:15d4b0b3f355405c8f26067a3173349b,Dunkin',CT,2019-06-01T00:00:00-04:00,2019-07-01T00:00:00-04:00,6379,409,6.0,"{""<5"":52,""5-20"":306,""21-60"":20,""61-240"":12,"">240"":19}",11131.0,41.401990999999995,-71.846861,722515.0,CT,9.0,9011.0,New London County,90117051023.0
13666,sg:17143d20d36a4d32bee713203a552315,Johnson Memorial Hospital,CT,2019-06-01T00:00:00-04:00,2019-07-01T00:00:00-04:00,6076,242,67.5,"{""<5"":6,""5-20"":55,""21-60"":53,""61-240"":71,"">240"":57}",27214.5,41.979136,-72.39097,622110.0,CT,9.0,9013.0,Tolland County,90138902023.0
13687,sg:18c3a6b949e34de78d0510e2736d1b30,Cigar Store & More,CT,2019-06-01T00:00:00-04:00,2019-07-01T00:00:00-04:00,6340,91,14.0,"{""<5"":7,""5-20"":51,""21-60"":24,""61-240"":9,"">240"":0}",2981.5,41.382418,-72.026566,453991.0,CT,9.0,9011.0,New London County,90117021002.0
13742,sg:1df26baaafee4c57a6f68e75c6859b2d,Valero Energy,CT,2019-06-01T00:00:00-04:00,2019-07-01T00:00:00-04:00,6790,71,23.0,"{""<5"":1,""5-20"":28,""21-60"":28,""61-240"":9,"">240"":5}",4041.0,41.797227,-73.12114,447110.0,CT,9.0,9005.0,Litchfield County,90053103002.0
13744,sg:1e25c397fb384bec9d5c71988d491171,Staples,CT,2019-06-01T00:00:00-04:00,2019-07-01T00:00:00-04:00,6241,230,19.5,"{""<5"":9,""5-20"":126,""21-60"":83,""61-240"":12,"">240"":0}",6765.0,41.841463,-71.885159,453210.0,CT,9.0,9015.0,Windham County,90159044003.0
13835,sg:2792d36a7c4b45188cb49a364ace151e,Thiele Chiropractic Life Center,CT,2019-06-01T00:00:00-04:00,2019-07-01T00:00:00-04:00,6040,3,18.0,"{""<5"":0,""5-20"":2,""21-60"":0,""61-240"":0,"">240"":1}",265.0,41.770699,-72.544128,621310.0,CT,9.0,9003.0,Hartford County,90035146004.0
14001,sg:35ad0c1a70904a319edcc24d7f5888a4,BJ's Optical,CT,2019-06-01T00:00:00-04:00,2019-07-01T00:00:00-04:00,6804,653,7.0,"{""<5"":43,""5-20"":467,""21-60"":86,""61-240"":37,"">240"":20}",19796.5,41.437363,-73.411261,621320.0,CT,9.0,9001.0,Fairfield County,90012053003.0
14028,sg:3754e6d74f5b434fb270265b4162e6d1,Comprehensive Psychiatric Care PC,CT,2019-06-01T00:00:00-04:00,2019-07-01T00:00:00-04:00,6360,109,21.0,"{""<5"":2,""5-20"":51,""21-60"":48,""61-240"":7,"">240"":1}",3880.0,41.556319,-72.10878100000001,621111.0,CT,9.0,9011.0,New London County,90116962001.0
14134,sg:4254bde8d5a5437ea7d31150714ff199,Ck Auto Wholesalers,CT,2019-06-01T00:00:00-04:00,2019-07-01T00:00:00-04:00,6479,69,7.0,"{""<5"":1,""5-20"":53,""21-60"":8,""61-240"":4,"">240"":3}",2311.0,41.564118,-72.900221,441120.0,CT,9.0,9003.0,Hartford County,90034304002.0
14140,sg:432fe24f47dc48ca86bc7dbee0cc30dd,The Medicine Shoppe,CT,2019-06-01T00:00:00-04:00,2019-07-01T00:00:00-04:00,6484,70,9.0,"{""<5"":2,""5-20"":57,""21-60"":11,""61-240"":0,"">240"":0}",1163.0,41.331835999999996,-73.137366,446110.0,CT,9.0,9001.0,Fairfield County,90011106002.0
14394,sg:5bb02a3443d84eeabefab7377607d8f5,Pastanch,CT,2019-06-01T00:00:00-04:00,2019-07-01T00:00:00-04:00,6770,22,17.5,"{""<5"":2,""5-20"":11,""21-60"":7,""61-240"":2,"">240"":0}",727.0,41.507526,-73.037968,445110.0,CT,9.0,9009.0,New Haven County,90093451004.0
14626,sg:701e26c0324d49f18d0e97e57659dd57,Sally & Bob's Eatery,CT,2019-06-01T00:00:00-04:00,2019-07-01T00:00:00-04:00,6107,223,37.0,"{""<5"":6,""5-20"":48,""21-60"":110,""61-240"":50,"">240"":9}",14755.0,41.762739,-72.741538,445120.0,CT,9.0,9003.0,Hartford County,90034971004.0
14788,sg:80ad324db9b94027a0963839217dc528,Firestone Complete Auto Care,CT,2019-06-01T00:00:00-04:00,2019-07-01T00:00:00-04:00,6705,116,20.5,"{""<5"":2,""5-20"":56,""21-60"":19,""61-240"":19,"">240"":20}",9134.0,41.563697999999995,-73.010193,441310.0,CT,9.0,9009.0,New Haven County,90093512001.0
14883,sg:8bb0d913b1724bf38af7ebbbcffedaca,Party Magic N' More,CT,2019-06-01T00:00:00-04:00,2019-07-01T00:00:00-04:00,6477,308,22.5,"{""<5"":8,""5-20"":131,""21-60"":113,""61-240"":51,"">240"":5}",15109.5,41.278249,-72.988642,453220.0,CT,9.0,9009.0,New Haven County,90091571002.0
14968,sg:91ded52f34cb404d9d80512b73fa1741,Kern Park,CT,2019-06-01T00:00:00-04:00,2019-07-01T00:00:00-04:00,6010,183,76.0,"{""<5"":1,""5-20"":45,""21-60"":31,""61-240"":83,"">240"":23}",19832.0,41.702372,-72.901329,712190.0,CT,9.0,9003.0,Hartford County,90034060022.0
15272,sg:b3aeb737b2c94f2d97970c5bbec2a931,Modern Tire & Auto Service,CT,2019-06-01T00:00:00-04:00,2019-07-01T00:00:00-04:00,6032,38,11.0,"{""<5"":3,""5-20"":23,""21-60"":10,""61-240"":2,"">240"":0}",1001.0,41.730012,-72.829403,441310.0,CT,9.0,9003.0,Hartford County,90034602031.0
15297,sg:b5c36a3ec54846b4ad278a7ad135ac47,Bill Landan Marine Service,CT,2019-06-01T00:00:00-04:00,2019-07-01T00:00:00-04:00,6854,33,14.0,"{""<5"":4,""5-20"":18,""21-60"":8,""61-240"":1,"">240"":2}",1189.5,41.096149,-73.415491,441222.0,CT,9.0,9001.0,Fairfield County,90010441002.0
15464,sg:c4c01131233a4fac96d2483ae457dd2e,Fitness Showrooms,CT,2019-06-01T00:00:00-04:00,2019-07-01T00:00:00-04:00,6905,131,11.0,"{""<5"":12,""5-20"":58,""21-60"":33,""61-240"":8,"">240"":20}",8095.5,41.102134,-73.548479,451110.0,CT,9.0,9001.0,Fairfield County,90010206001.0
15477,sg:c5f0b94e63484fdfbfcd2f875de015a2,Jazzi Auto Sales,CT,2019-06-01T00:00:00-04:00,2019-07-01T00:00:00-04:00,6450,4,23.0,"{""<5"":0,""5-20"":2,""21-60"":2,""61-240"":0,"">240"":0}",106.0,41.514655,-72.804987,,CT,9.0,9009.0,New Haven County,90091711003.0
15788,sg:e5757d08da954f418b91d8baeb9508fe,Torrington Fire Department North End Station,CT,2019-06-01T00:00:00-04:00,2019-07-01T00:00:00-04:00,6790,33,42.0,"{""<5"":2,""5-20"":11,""21-60"":7,""61-240"":8,"">240"":5}",2830.0,41.818889,-73.122336,922160.0,CT,9.0,9005.0,Litchfield County,90053107004.0
15810,sg:e8684c79eedb493da1bbcb5300b458ab,Dream Builders,CT,2019-06-01T00:00:00-04:00,2019-07-01T00:00:00-04:00,6085,17,12.0,"{""<5"":0,""5-20"":10,""21-60"":3,""61-240"":4,"">240"":0}",848.5,41.745275,-72.870209,442299.0,CT,9.0,9003.0,Hartford County,90034603011.0
16053,sg:ff1ac394cfba4f198bd75f4883b76c76,Hertz,CT,2019-06-01T00:00:00-04:00,2019-07-01T00:00:00-04:00,6478,1,10.0,"{""<5"":0,""5-20"":1,""21-60"":0,""61-240"":0,"">240"":0}",12.5,41.480748,-73.142404,532111.0,,,,,
16066,sg:0029951baf2a4a4a9346c1d54eb3db0b,Dragon East,CT,2019-06-01T00:00:00-04:00,2019-07-01T00:00:00-04:00,6405,125,48.0,"{""<5"":5,""5-20"":39,""21-60"":25,""61-240"":31,"">240"":25}",12178.0,41.286776,-72.816924,722511.0,CT,9.0,9009.0,New Haven County,90091841005.0
16080,sg:01239a8876ca41458c46fa2554c6590d,Dunkin',CT,2019-06-01T00:00:00-04:00,2019-07-01T00:00:00-04:00,6880,153,6.0,"{""<5"":20,""5-20"":116,""21-60"":9,""61-240"":5,"">240"":3}",3337.0,41.138872,-73.311001,722515.0,CT,9.0,9001.0,Fairfield County,90010503003.0
16238,sg:0e40cb87854a48fbb0828b9c215214ea,Dolly Madison Inn & Restaurant,CT,2019-06-01T00:00:00-04:00,2019-07-01T00:00:00-04:00,6443,573,42.0,"{""<5"":6,""5-20"":132,""21-60"":252,""61-240"":177,"">240"":6}",39949.5,41.272107,-72.60759499999999,721110.0,CT,9.0,9009.0,New Haven County,90091941005.0
16318,sg:146d36e665da42c18ff82b8818058fe8,Exxon Fuels Lindstedt Oil Co,CT,2019-06-01T00:00:00-04:00,2019-07-01T00:00:00-04:00,6776,17,9.0,"{""<5"":1,""5-20"":13,""21-60"":2,""61-240"":1,"">240"":0}",396.5,41.579744,-73.41723,447110.0,CT,9.0,9005.0,Litchfield County,90052536002.0
16375,sg:186240ee8c6d49e59bf60f38185b1dc5,Breiner Whole Body Health Center,CT,2019-06-01T00:00:00-04:00,2019-07-01T00:00:00-04:00,6825,4,407.5,"{""<5"":1,""5-20"":0,""21-60"":0,""61-240"":0,"">240"":3}",722.5,41.17219,-73.228086,621210.0,CT,9.0,9001.0,Fairfield County,90010614001.0
16384,sg:1954c544c350494faab8986355d3bd47,Dollar General,CT,2019-06-01T00:00:00-04:00,2019-07-01T00:00:00-04:00,6063,122,9.0,"{""<5"":8,""5-20"":84,""21-60"":20,""61-240"":5,"">240"":5}",3832.5,41.909929,-73.044605,452319.0,CT,9.0,9005.0,Litchfield County,90052901003.0
16394,sg:19fd155c574d40e889a85a3586c002a9,Barnum Benefit Advisors,CT,2019-06-01T00:00:00-04:00,2019-07-01T00:00:00-04:00,6484,257,161.0,"{""<5"":8,""5-20"":45,""21-60"":26,""61-240"":98,"">240"":80}",35584.5,41.275534,-73.127204,524210.0,CT,9.0,9001.0,Fairfield County,90011103022.0
16476,sg:22c3e3fc5e534f2f8b9b2fb65eaece5c,Shell Oil,CT,2019-06-01T00:00:00-04:00,2019-07-01T00:00:00-04:00,6854,190,11.0,"{""<5"":11,""5-20"":105,""21-60"":21,""61-240"":26,"">240"":27}",12583.5,41.105249,-73.419978,447110.0,CT,9.0,9001.0,Fairfield County,90010440001.0
16538,sg:29a5212ab0b649ff884286a3d2ebe5e6,Breakwater Books,CT,2019-06-01T00:00:00-04:00,2019-07-01T00:00:00-04:00,6437,353,26.0,"{""<5"":8,""5-20"":121,""21-60"":150,""61-240"":58,"">240"":16}",20176.5,41.281372,-72.682041,451211.0,CT,9.0,9009.0,New Haven County,90091901001.0
16601,sg:2fcb85cb6ae44299b884b12af07d1f2e,Middlesex Hospital Marlborough Medical Center,CT,2019-06-01T00:00:00-04:00,2019-07-01T00:00:00-04:00,6447,99,173.0,"{""<5"":0,""5-20"":13,""21-60"":10,""61-240"":42,"">240"":34}",15048.5,41.633565000000004,-72.46038399999999,623312.0,CT,9.0,9003.0,Hartford County,90035241004.0
16626,sg:32945d1801fb45e89f6917c21360bed8,Ren Dumpling & Noodle House,CT,2019-06-01T00:00:00-04:00,2019-07-01T00:00:00-04:00,6897,28,10.0,"{""<5"":0,""5-20"":17,""21-60"":7,""61-240"":4,"">240"":0}",1098.0,41.161429999999996,-73.41793100000001,722511.0,CT,9.0,9001.0,Fairfield County,90010454002.0
16682,sg:376a733505064d67877394589b5eaa11,BJ's Wholesale Club,CT,2019-06-01T00:00:00-04:00,2019-07-01T00:00:00-04:00,6614,2093,21.0,"{""<5"":34,""5-20"":906,""21-60"":934,""61-240"":186,"">240"":33}",85150.0,41.20282,-73.11279499999999,452319.0,CT,9.0,9001.0,Fairfield County,90010808001.0
16685,sg:37916c238d804b4db70c4d215c9c9437,Hallmark Cards,CT,2019-06-01T00:00:00-04:00,2019-07-01T00:00:00-04:00,6019,266,23.0,"{""<5"":1,""5-20"":95,""21-60"":139,""61-240"":25,"">240"":6}",12022.0,41.821785,-72.880054,453220.0,CT,9.0,9003.0,Hartford County,90034641023.0
16768,sg:4032abbb3a0d4012866c099917495fff,St Patrick Church Religous Education,CT,2019-06-01T00:00:00-04:00,2019-07-01T00:00:00-04:00,6355,33,41.0,"{""<5"":0,""5-20"":9,""21-60"":10,""61-240"":14,"">240"":0}",2624.5,41.353839,-71.96526800000001,813110.0,CT,9.0,9011.0,New London County,90117053002.0
16845,sg:4654ec7b83054bd98def643ca025f69f,Jw Home Construction,CT,2019-06-01T00:00:00-04:00,2019-07-01T00:00:00-04:00,6513,122,66.0,"{""<5"":3,""5-20"":33,""21-60"":22,""61-240"":28,"">240"":36}",14165.0,41.307142,-72.897315,621610.0,CT,9.0,9009.0,New Haven County,90091423004.0
16986,sg:52f3238b07c2485d9db4e1d0353e9321,Phillips 66,CT,2019-06-01T00:00:00-04:00,2019-07-01T00:00:00-04:00,6479,6,6.0,"{""<5"":1,""5-20"":4,""21-60"":1,""61-240"":0,"">240"":0}",93.0,41.562504,-72.872437,447110.0,CT,9.0,9003.0,Hartford County,90034303011.0
17024,sg:5686509ba3144c17bbbe8accce54c998,Charles Cheney Inn,CT,2019-06-01T00:00:00-04:00,2019-07-01T00:00:00-04:00,6040,26,92.5,"{""<5"":0,""5-20"":5,""21-60"":6,""61-240"":7,"">240"":8}",3279.0,41.765803000000005,-72.526337,721110.0,CT,9.0,9003.0,Hartford County,90035147003.0
17062,sg:59f11c5037b14a709185428553396151,Michael Reiss LMFT PhD,CT,2019-06-01T00:00:00-04:00,2019-07-01T00:00:00-04:00,6492,8,16.5,"{""<5"":0,""5-20"":5,""21-60"":0,""61-240"":2,"">240"":1}",603.5,41.439735,-72.750463,621330.0,CT,9.0,9009.0,New Haven County,90091760003.0
17088,sg:5d03472eb86f4c5787d02ebecdc7b16d,Walgreens,CT,2019-06-01T00:00:00-04:00,2019-07-01T00:00:00-04:00,6053,237,9.0,"{""<5"":14,""5-20"":165,""21-60"":26,""61-240"":18,"">240"":14}",9219.5,41.68392,-72.76804399999999,446110.0,CT,9.0,9003.0,Hartford County,90034168001.0
17124,sg:605c2f4fabdd41c9ba4756b5c3844ae9,Jos. A. Bank Clothiers,CT,2019-06-01T00:00:00-04:00,2019-07-01T00:00:00-04:00,6033,101,38.0,"{""<5"":2,""5-20"":25,""21-60"":48,""61-240"":23,"">240"":3}",6443.0,41.719808,-72.620991,448110.0,CT,9.0,9003.0,Hartford County,90035203022.0
17139,sg:618bb7e1d3f742419d311ae9c83507b6,Recreation Commission,CT,2019-06-01T00:00:00-04:00,2019-07-01T00:00:00-04:00,6880,10,17.5,"{""<5"":0,""5-20"":6,""21-60"":2,""61-240"":2,"">240"":0}",457.0,41.117665,-73.319204,712190.0,CT,9.0,9001.0,Fairfield County,90010506002.0
17185,sg:66d158d2358b42fba96cdc5a92ac4e42,T.J. Maxx,CT,2019-06-01T00:00:00-04:00,2019-07-01T00:00:00-04:00,6109,882,23.0,"{""<5"":11,""5-20"":362,""21-60"":375,""61-240"":106,"">240"":28}",42413.0,41.692336,-72.657749,452210.0,CT,9.0,9003.0,Hartford County,90034926001.0
17327,sg:7261d038ad394b45977d3dcc8885ce03,Stafford Fun Club,CT,2019-06-01T00:00:00-04:00,2019-07-01T00:00:00-04:00,6010,11,11.0,"{""<5"":0,""5-20"":10,""21-60"":0,""61-240"":1,"">240"":0}",275.5,41.688579,-72.917732,624410.0,CT,9.0,9003.0,Hartford County,90034052002.0
17382,sg:77ef23bf51a74e1dbd78c3e67b662f89,0degree Thai Ice Cream,CT,2019-06-01T00:00:00-04:00,2019-07-01T00:00:00-04:00,6119,118,40.5,"{""<5"":1,""5-20"":38,""21-60"":33,""61-240"":29,"">240"":17}",10258.5,41.757773,-72.720075,722515.0,CT,9.0,9003.0,Hartford County,90034969003.0
17614,sg:8e5be82f05d54d66b86bae0a82bcd2c5,Webster Bank,CT,2019-06-01T00:00:00-04:00,2019-07-01T00:00:00-04:00,6514,5,7.0,"{""<5"":1,""5-20"":3,""21-60"":0,""61-240"":1,"">240"":0}",190.5,41.346765000000005,-72.934446,522110.0,CT,9.0,9009.0,New Haven County,90091656004.0
17690,sg:946c95af72a443a2a2d8d7d228ed9575,Blackledge Soccer Field,CT,2019-06-01T00:00:00-04:00,2019-07-01T00:00:00-04:00,6447,59,67.0,"{""<5"":0,""5-20"":11,""21-60"":13,""61-240"":34,"">240"":1}",6021.0,41.668693,-72.462963,451140.0,CT,9.0,9003.0,Hartford County,90035241002.0
17773,sg:9c9e0d1f16ea48e88694af1346057f7d,La Piccolina,CT,2019-06-01T00:00:00-04:00,2019-07-01T00:00:00-04:00,6776,138,10.0,"{""<5"":8,""5-20"":105,""21-60"":10,""61-240"":7,"">240"":8}",4711.0,41.578041999999996,-73.411488,722511.0,CT,9.0,9005.0,Litchfield County,90052536002.0
17779,sg:9d6ed6de29c9495aba8645aa7af40bb0,Sutton Dental,CT,2019-06-01T00:00:00-04:00,2019-07-01T00:00:00-04:00,6511,4,493.5,"{""<5"":0,""5-20"":0,""21-60"":0,""61-240"":0,"">240"":4}",960.0,41.314306,-72.93771600000001,621210.0,CT,9.0,9009.0,New Haven County,90091407005.0
17787,sg:9e13912aa61749d5b1e6dda17cd2e806,CubeSmart,CT,2019-06-01T00:00:00-04:00,2019-07-01T00:00:00-04:00,6514,17,27.0,"{""<5"":0,""5-20"":6,""21-60"":6,""61-240"":2,"">240"":3}",1339.0,41.40247,-72.915702,531130.0,CT,9.0,9009.0,New Haven County,90091659004.0
17795,sg:9f23cf7f09ab4b8f96ea34857739efff,UBS,CT,2019-06-01T00:00:00-04:00,2019-07-01T00:00:00-04:00,6103,2,335.5,"{""<5"":0,""5-20"":0,""21-60"":0,""61-240"":0,"">240"":2}",480.0,41.767127,-72.672632,522110.0,CT,9.0,9003.0,Hartford County,90035021002.0
17824,sg:a221da2fba73438f9d8e88143f43f91d,St Lawrence Cemetery,CT,2019-06-01T00:00:00-04:00,2019-07-01T00:00:00-04:00,6516,165,20.0,"{""<5"":10,""5-20"":80,""21-60"":51,""61-240"":19,"">240"":5}",7150.0,41.309667,-72.961904,812210.0,,,,,
17839,sg:a3c2c990f0d242a18b1313c01bd90986,Buy Rite Liquors,CT,2019-06-01T00:00:00-04:00,2019-07-01T00:00:00-04:00,6109,120,13.0,"{""<5"":5,""5-20"":66,""21-60"":29,""61-240"":19,"">240"":1}",5111.5,41.701927000000005,-72.65949499999999,445310.0,CT,9.0,9003.0,Hartford County,90034922002.0
17889,sg:a7ddc56811ba4ef38bf25805fbb032db,Bunting and Somma Ameriprise Financial Services,CT,2019-06-01T00:00:00-04:00,2019-07-01T00:00:00-04:00,6890,8,90.0,"{""<5"":0,""5-20"":2,""21-60"":2,""61-240"":1,"">240"":3}",976.5,41.139497,-73.274912,523930.0,CT,9.0,9001.0,Fairfield County,90010606001.0
17894,sg:a81717561a3f4a22a6ac48710507efe8,Calvary Baptist Church,CT,2019-06-01T00:00:00-04:00,2019-07-01T00:00:00-04:00,6096,75,63.0,"{""<5"":0,""5-20"":9,""21-60"":24,""61-240"":36,"">240"":6}",7942.5,41.926632,-72.660374,813110.0,CT,9.0,9003.0,Hartford County,90034762001.0
17896,sg:a83b93d9963b4f14b432a6da623b4dbf,BRBG Insurance,CT,2019-06-01T00:00:00-04:00,2019-07-01T00:00:00-04:00,6484,2,528.5,"{""<5"":0,""5-20"":0,""21-60"":0,""61-240"":0,"">240"":2}",480.0,41.267595,-73.128498,524210.0,CT,9.0,9001.0,Fairfield County,90011103022.0
17919,sg:a9a54eca858c46c79969d419517bf297,C&C Delicatessen,CT,2019-06-01T00:00:00-04:00,2019-07-01T00:00:00-04:00,6810,115,9.0,"{""<5"":10,""5-20"":70,""21-60"":21,""61-240"":10,"">240"":4}",4215.5,41.404589,-73.459386,722511.0,CT,9.0,9001.0,Fairfield County,90012101001.0
18025,sg:b3390f9f22c4458ab17cf23f3fdaf591,Navy Federal Credit Union Restricted Access,CT,2019-06-01T00:00:00-04:00,2019-07-01T00:00:00-04:00,6340,437,86.0,"{""<5"":11,""5-20"":93,""21-60"":83,""61-240"":117,"">240"":133}",54080.0,41.3903,-72.080738,522110.0,CT,9.0,9011.0,New London County,90119800001.0
18045,sg:b516055942a64f2a98acf8e9309e17fd,North Town Center,CT,2019-06-01T00:00:00-04:00,2019-07-01T00:00:00-04:00,6614,2541,21.0,"{""<5"":66,""5-20"":1194,""21-60"":962,""61-240"":207,"">240"":112}",112084.5,41.232116,-73.14850200000001,531120.0,CT,9.0,9001.0,Fairfield County,90010811003.0
18047,sg:b5350ef6226d4cd99ad97ea61927fbf3,Medical Laser Systems,CT,2019-06-01T00:00:00-04:00,2019-07-01T00:00:00-04:00,6405,7,18.0,"{""<5"":2,""5-20"":2,""21-60"":2,""61-240"":0,"">240"":1}",351.0,41.307227000000005,-72.756738,621111.0,CT,9.0,9009.0,New Haven County,90091847001.0
18049,sg:b5420024af89446b842cf9f93618e808,Bristol Pizza Restaurant,CT,2019-06-01T00:00:00-04:00,2019-07-01T00:00:00-04:00,6010,295,41.0,"{""<5"":8,""5-20"":98,""21-60"":84,""61-240"":73,"">240"":32}",23313.5,41.67521,-72.950549,722511.0,CT,9.0,9003.0,Hartford County,90034057002.0
18079,sg:b87712db559c40539d413b45ef7b8964,Achieve,CT,2019-06-01T00:00:00-04:00,2019-07-01T00:00:00-04:00,6117,4,30.0,"{""<5"":0,""5-20"":2,""21-60"":2,""61-240"":0,"">240"":0}",106.0,41.800042,-72.750546,611110.0,CT,9.0,9003.0,Hartford County,90034975002.0
18112,sg:bbc06f660a7d4045b4d6e6691fed64af,Best Buy Auto,CT,2019-06-01T00:00:00-04:00,2019-07-01T00:00:00-04:00,6457,47,41.0,"{""<5"":1,""5-20"":15,""21-60"":13,""61-240"":6,"">240"":12}",4499.5,41.589873,-72.67511999999999,441120.0,CT,9.0,9007.0,Middlesex County,90075412001.0
18117,sg:bbe5feb48ef1446c8be1a9b9988de429,Cove Landing Marine,CT,2019-06-01T00:00:00-04:00,2019-07-01T00:00:00-04:00,6371,25,14.0,"{""<5"":0,""5-20"":13,""21-60"":7,""61-240"":5,"">240"":0}",1198.5,41.38534,-72.350946,441222.0,CT,9.0,9011.0,New London County,90116501001.0
18263,sg:cbc61d38038041848e3d65027cecd288,Kingdom Way Pentecostal Church,CT,2019-06-01T00:00:00-04:00,2019-07-01T00:00:00-04:00,6810,148,49.5,"{""<5"":0,""5-20"":37,""21-60"":45,""61-240"":60,"">240"":6}",12755.0,41.397698999999996,-73.460298,813110.0,CT,9.0,9001.0,Fairfield County,90012107012.0
18283,sg:ce26c308b29e4a1993a71b19d4ef82f4,Granby Historical Marker,CT,2019-06-01T00:00:00-04:00,2019-07-01T00:00:00-04:00,6035,7,10.0,"{""<5"":0,""5-20"":4,""21-60"":1,""61-240"":0,"">240"":2}",570.5,41.945904999999996,-72.789948,712120.0,CT,9.0,9003.0,Hartford County,90034681022.0
18309,sg:d0a07a29d9a04064a04a06c0925af641,Timeless By Erika Bessette,CT,2019-06-01T00:00:00-04:00,2019-07-01T00:00:00-04:00,6467,9,28.0,"{""<5"":1,""5-20"":2,""21-60"":2,""61-240"":4,"">240"":0}",710.5,41.565427,-72.90000500000001,812112.0,CT,9.0,9003.0,Hartford County,90034304002.0
18582,sg:ea0f8a1d2f484d5ba121026e51df362c,People's Choice,CT,2019-06-01T00:00:00-04:00,2019-07-01T00:00:00-04:00,6040,34,34.0,"{""<5"":1,""5-20"":14,""21-60"":6,""61-240"":2,"">240"":11}",3361.5,41.782540999999995,-72.532657,722511.0,CT,9.0,9003.0,Hartford County,90035144004.0
18588,sg:ea88d5f73c124f76b2af6c1d82a65ac2,Happy Nails 2,CT,2019-06-01T00:00:00-04:00,2019-07-01T00:00:00-04:00,6226,4,172.5,"{""<5"":0,""5-20"":1,""21-60"":0,""61-240"":1,"">240"":2}",643.0,41.712193,-72.21445200000001,812113.0,CT,9.0,9015.0,Windham County,90158006003.0
18694,sg:f632b1a3afe940cb9312c3299507b70c,Dunkin',CT,2019-06-01T00:00:00-04:00,2019-07-01T00:00:00-04:00,6415,1,7.0,"{""<5"":0,""5-20"":1,""21-60"":0,""61-240"":0,"">240"":0}",12.5,41.538365,-72.228409,722515.0,CT,9.0,9011.0,New London County,90117141042.0
18811,sg:0225cd7d09e443e29022e3e971d4442c,NewBrook Kitchen Artisan Market,CT,2019-06-01T00:00:00-04:00,2019-07-01T00:00:00-04:00,6880,46,52.5,"{""<5"":2,""5-20"":12,""21-60"":9,""61-240"":12,"">240"":11}",4965.5,41.123425,-73.372353,445110.0,CT,9.0,9001.0,Fairfield County,90010504001.0
18860,sg:06388a409f8d45dc93e2cea81f390cb0,Center Spirit Shoppe,CT,2019-06-01T00:00:00-04:00,2019-07-01T00:00:00-04:00,6019,39,9.0,"{""<5"":4,""5-20"":25,""21-60"":5,""61-240"":5,"">240"":0}",1277.5,41.811514,-72.92258100000001,445310.0,CT,9.0,9003.0,Hartford County,90034641023.0
18951,sg:0dd008653025407eb24e37257a6fd2e9,Center For Pain Rehabilitation,CT,2019-06-01T00:00:00-04:00,2019-07-01T00:00:00-04:00,6810,149,63.0,"{""<5"":2,""5-20"":14,""21-60"":52,""61-240"":70,"">240"":11}",15461.0,41.413616,-73.406723,621111.0,CT,9.0,9001.0,Fairfield County,90012104001.0
18953,sg:0e2e866fd31c48138b1db82490ff01f2,NewLife Christian Fellowship,CT,2019-06-01T00:00:00-04:00,2019-07-01T00:00:00-04:00,6109,142,184.5,"{""<5"":1,""5-20"":23,""21-60"":23,""61-240"":43,"">240"":52}",20173.0,41.689896000000005,-72.657013,813110.0,CT,9.0,9003.0,Hartford County,90034926001.0
19178,sg:22efbdf3a88f4810b032d2a6da13626b,Adriana's Italian Restaurant & Catering,CT,2019-06-01T00:00:00-04:00,2019-07-01T00:00:00-04:00,6511,489,82.0,"{""<5"":10,""5-20"":94,""21-60"":102,""61-240"":205,"">240"":78}",54903.5,41.308244,-72.915276,722511.0,CT,9.0,9009.0,New Haven County,90091421001.0
19200,sg:252385e6d93143cbbcc05954bc8ca0ef,G&K Services,CT,2019-06-01T00:00:00-04:00,2019-07-01T00:00:00-04:00,6114,344,27.0,"{""<5"":8,""5-20"":135,""21-60"":83,""61-240"":98,"">240"":20}",24618.0,41.741474,-72.652454,453310.0,CT,9.0,9003.0,Hartford County,90035025001.0
19260,sg:2a683553663d4916a328187a0cdb7e95,Whole Body Wellness & Physical Therapy,CT,2019-06-01T00:00:00-04:00,2019-07-01T00:00:00-04:00,6033,63,46.0,"{""<5"":1,""5-20"":13,""21-60"":29,""61-240"":19,"">240"":1}",4439.0,41.717662,-72.584767,621340.0,CT,9.0,9003.0,Hartford County,90035203011.0
19292,sg:2d188faca6d7466aa081dcf86300c576,Prospect Nursery School,CT,2019-06-01T00:00:00-04:00,2019-07-01T00:00:00-04:00,6712,18,75.5,"{""<5"":1,""5-20"":7,""21-60"":1,""61-240"":6,"">240"":3}",1753.5,41.501759,-72.978711,624410.0,CT,9.0,9009.0,New Haven County,90093471002.0
19308,sg:2e72bc7e2a684e4090d594699f16aa77,The Pickle Barrel,CT,2019-06-01T00:00:00-04:00,2019-07-01T00:00:00-04:00,6615,293,14.0,"{""<5"":17,""5-20"":163,""21-60"":50,""61-240"":26,"">240"":37}",16898.0,41.186721999999996,-73.130652,445120.0,CT,9.0,9001.0,Fairfield County,90010806001.0
19344,sg:3207ee5f16fc43788b9e376dbf55ffe3,Church of the Christian Brotherhood,CT,2019-06-01T00:00:00-04:00,2019-07-01T00:00:00-04:00,6422,5,5.0,"{""<5"":0,""5-20"":3,""21-60"":2,""61-240"":0,"">240"":0}",118.5,41.446739,-72.727868,813110.0,CT,9.0,9007.0,Middlesex County,90075851004.0
19358,sg:3388860129974b47b98ed804e960e815,Greater Hartford Academy of Arts,CT,2019-06-01T00:00:00-04:00,2019-07-01T00:00:00-04:00,6106,627,57.0,"{""<5"":11,""5-20"":191,""21-60"":124,""61-240"":196,"">240"":105}",62135.0,41.750688000000004,-72.685563,611310.0,CT,9.0,9003.0,Hartford County,90035027003.0
19592,sg:4797b327031a48cdbff1c064c6a8f2a8,First Church of Christ Scientist,CT,2019-06-01T00:00:00-04:00,2019-07-01T00:00:00-04:00,6033,4,95.0,"{""<5"":0,""5-20"":0,""21-60"":0,""61-240"":4,"">240"":0}",602.0,41.71075,-72.606094,813110.0,CT,9.0,9003.0,Hartford County,90035203021.0
19633,sg:4acd851910cc4259bfcc760b94d0ac79,Unitarian Universalist Society Shoreline Office,CT,2019-06-01T00:00:00-04:00,2019-07-01T00:00:00-04:00,6443,19,46.0,"{""<5"":0,""5-20"":3,""21-60"":9,""61-240"":6,"">240"":1}",1545.0,41.278519,-72.623923,813110.0,CT,9.0,9009.0,New Haven County,90091941004.0
19780,sg:567af48989e44484b7f5d78e0b12fd02,Midas,CT,2019-06-01T00:00:00-04:00,2019-07-01T00:00:00-04:00,6489,5,53.0,"{""<5"":0,""5-20"":0,""21-60"":3,""61-240"":2,"">240"":0}",422.5,41.619181,-72.87425,811111.0,CT,9.0,9003.0,Hartford County,90034306011.0
19897,sg:5f6b29dee7a14d74a1b1ca66977c32da,Mona Lisa Restaurant,CT,2019-06-01T00:00:00-04:00,2019-07-01T00:00:00-04:00,6716,174,69.0,"{""<5"":0,""5-20"":30,""21-60"":46,""61-240"":87,"">240"":11}",17971.5,41.576884,-72.999898,722511.0,CT,9.0,9009.0,New Haven County,90093612003.0
19908,sg:60a29df58c134e35952358cdef6f4179,Friend To Friend Thrift Shop,CT,2019-06-01T00:00:00-04:00,2019-07-01T00:00:00-04:00,6026,5,9.0,"{""<5"":1,""5-20"":2,""21-60"":0,""61-240"":1,"">240"":1}",418.0,41.912521999999996,-72.739527,453310.0,CT,9.0,9003.0,Hartford County,90034701003.0
19912,sg:610df9db4b2b4277b119dcbf9b68f5fb,Jan Fitzgerald Briscoe LMFT,CT,2019-06-01T00:00:00-04:00,2019-07-01T00:00:00-04:00,6371,8,96.5,"{""<5"":1,""5-20"":0,""21-60"":2,""61-240"":3,"">240"":2}",1015.0,41.324259999999995,-72.335452,621330.0,CT,9.0,9011.0,New London County,90116601012.0
20001,sg:69b5afa7acf44fbeaa33092da063b535,Meriden Municipal Federal Credit Union,CT,2019-06-01T00:00:00-04:00,2019-07-01T00:00:00-04:00,6451,17,44.0,"{""<5"":1,""5-20"":5,""21-60"":4,""61-240"":2,"">240"":5}",1728.0,41.553214000000004,-72.846007,522110.0,CT,9.0,9003.0,Hartford County,90034303011.0
20126,sg:75cd1e54c32648c8905689ee3c17906b,Danny's Drive In,CT,2019-06-01T00:00:00-04:00,2019-07-01T00:00:00-04:00,6614,132,16.0,"{""<5"":5,""5-20"":78,""21-60"":31,""61-240"":6,"">240"":12}",6026.0,41.200082,-73.114385,722511.0,CT,9.0,9001.0,Fairfield County,90010807001.0
20182,sg:7b99eda530204bf6ba99a0874657e802,Jenny Mathews DDS MS PhD,CT,2019-06-01T00:00:00-04:00,2019-07-01T00:00:00-04:00,6880,45,60.0,"{""<5"":0,""5-20"":4,""21-60"":19,""61-240"":15,"">240"":7}",4757.0,41.147024,-73.36619300000001,621210.0,CT,9.0,9001.0,Fairfield County,90010501002.0
20189,sg:7c7f717eb4724afcaa0b127e3d1ca778,Aldos,CT,2019-06-01T00:00:00-04:00,2019-07-01T00:00:00-04:00,6110,255,18.0,"{""<5"":8,""5-20"":131,""21-60"":65,""61-240"":43,"">240"":8}",12681.5,41.723807,-72.761637,448120.0,CT,9.0,9003.0,Hartford County,90034962004.0
20205,sg:7d903ed2299e4f1fa226f073db68e637,Weston's Antiques,CT,2019-06-01T00:00:00-04:00,2019-07-01T00:00:00-04:00,6238,158,27.0,"{""<5"":6,""5-20"":71,""21-60"":26,""61-240"":32,"">240"":23}",12291.5,41.796079999999996,-72.414022,453310.0,CT,9.0,9013.0,Tolland County,90138501002.0
20210,sg:7e0552648159471dae5eaef1d903fbd8,GNC (General Nutrition Centers),CT,2019-06-01T00:00:00-04:00,2019-07-01T00:00:00-04:00,6032,18,7.0,"{""<5"":2,""5-20"":11,""21-60"":3,""61-240"":2,"">240"":0}",565.0,41.722524,-72.76241999999999,446191.0,CT,9.0,9003.0,Hartford County,90034962004.0
20297,sg:84eb73090c29495b9ea1e5a4bc02abb7,Dockside Resort Bar,CT,2019-06-01T00:00:00-04:00,2019-07-01T00:00:00-04:00,6320,92,30.0,"{""<5"":1,""5-20"":31,""21-60"":36,""61-240"":23,"">240"":1}",5549.5,41.353596,-72.09397299999999,722515.0,CT,9.0,9011.0,New London County,90116905002.0
20358,sg:8a3aecc500f24270bb332f09b73d3b4c,Park Lane Pizza,CT,2019-06-01T00:00:00-04:00,2019-07-01T00:00:00-04:00,6119,127,11.0,"{""<5"":4,""5-20"":75,""21-60"":26,""61-240"":4,"">240"":18}",6922.5,41.755578,-72.72912099999999,722511.0,CT,9.0,9003.0,Hartford County,90034967003.0
20363,sg:8b3b61c083f740008545e34b4d0226c2,Adamo's Garage,CT,2019-06-01T00:00:00-04:00,2019-07-01T00:00:00-04:00,6492,4,134.0,"{""<5"":0,""5-20"":0,""21-60"":2,""61-240"":1,"">240"":1}",471.5,41.451198,-72.812096,811111.0,CT,9.0,9009.0,New Haven County,90091759004.0
20619,sg:a440fd809c7a483bbca9ac7dbb1cf1e2,Wooster Memorial Park,CT,2019-06-01T00:00:00-04:00,2019-07-01T00:00:00-04:00,6511,118,35.5,"{""<5"":3,""5-20"":38,""21-60"":34,""61-240"":28,"">240"":15}",9673.5,41.303183000000004,-72.919225,712190.0,CT,9.0,9009.0,New Haven County,90091422002.0
20657,sg:a73aefbb362e42c1b25b7d351f2545c1,Charlene Elizabeth Salon,CT,2019-06-01T00:00:00-04:00,2019-07-01T00:00:00-04:00,6492,8,46.5,"{""<5"":0,""5-20"":2,""21-60"":4,""61-240"":2,"">240"":0}",488.0,41.465070000000004,-72.819558,812112.0,CT,9.0,9009.0,New Haven County,90091754001.0
20673,sg:a85499ca572047e2a6866ea5fcb1c593,ZStrict,CT,2019-06-01T00:00:00-04:00,2019-07-01T00:00:00-04:00,6902,2571,61.0,"{""<5"":21,""5-20"":632,""21-60"":597,""61-240"":1047,"">240"":274}",255464.5,41.050876,-73.516317,713910.0,CT,9.0,9001.0,Fairfield County,90010220002.0
20715,sg:ac598c75f3194834ba46607ce7f377a3,Hartford HealthCare Rehabilitation Network,CT,2019-06-01T00:00:00-04:00,2019-07-01T00:00:00-04:00,6035,27,24.0,"{""<5"":0,""5-20"":12,""21-60"":12,""61-240"":0,"">240"":3}",1356.0,41.954137,-72.786233,621340.0,CT,9.0,9003.0,Hartford County,90034681021.0
20785,sg:b2c1d4d78cd04eb3a0d49e5bb96d8731,Lincare,CT,2019-06-01T00:00:00-04:00,2019-07-01T00:00:00-04:00,6385,19,87.0,"{""<5"":1,""5-20"":3,""21-60"":4,""61-240"":8,"">240"":3}",2126.0,41.341253,-72.11985,621999.0,CT,9.0,9011.0,New London County,90116934003.0
21106,sg:d1406df1cff6429a9261f57bca1950e3,Joe's Yellow Sub Machine,CT,2019-06-01T00:00:00-04:00,2019-07-01T00:00:00-04:00,6256,7,6.0,"{""<5"":1,""5-20"":5,""21-60"":0,""61-240"":1,"">240"":0}",215.5,41.746546,-72.16475799999999,722515.0,CT,9.0,9015.0,Windham County,90158005001.0
21209,sg:dd7596b805fc42f8b504648b764018b7,Shoreline Neuropsychiatric Services,CT,2019-06-01T00:00:00-04:00,2019-07-01T00:00:00-04:00,6460,21,30.0,"{""<5"":1,""5-20"":6,""21-60"":11,""61-240"":2,"">240"":1}",1064.0,41.21976,-73.062986,621111.0,CT,9.0,9009.0,New Haven County,90091501002.0
21243,sg:e09ec129f96c4d65a8def1d7764d9f5e,Northeast Farrier Supply,CT,2019-06-01T00:00:00-04:00,2019-07-01T00:00:00-04:00,6098,44,38.0,"{""<5"":2,""5-20"":10,""21-60"":16,""61-240"":16,"">240"":0}",3186.0,41.92349,-73.058657,451110.0,CT,9.0,9005.0,Litchfield County,90053201002.0
21370,sg:eb982ca9b77e473db02c8acb1f6babd9,Shree Skin Care,CT,2019-06-01T00:00:00-04:00,2019-07-01T00:00:00-04:00,6074,153,60.0,"{""<5"":0,""5-20"":36,""21-60"":42,""61-240"":56,"">240"":19}",15139.0,41.826231,-72.52362600000001,446120.0,CT,9.0,9003.0,Hartford County,90034872013.0
21403,sg:ee4f5e23fab84d9ca8e8051272064e65,Family Dollar Stores,CT,2019-06-01T00:00:00-04:00,2019-07-01T00:00:00-04:00,6515,337,12.0,"{""<5"":12,""5-20"":213,""21-60"":57,""61-240"":26,"">240"":29}",15874.0,41.329108000000005,-72.969538,452319.0,CT,9.0,9009.0,New Haven County,90091412003.0
21527,sg:fb136fd3600c4b56b427a4f25818a7d3,SCRANTON CHEVROLET OF NORWICH,CT,2019-06-01T00:00:00-04:00,2019-07-01T00:00:00-04:00,6360,205,37.0,"{""<5"":5,""5-20"":79,""21-60"":39,""61-240"":60,"">240"":22}",16889.5,41.496408,-72.097649,441110.0,CT,9.0,9011.0,New London County,90116967001.0
21570,sg:ffb158f422e947438db23f18246ba9da,Ultimate MMA & Jiu jitsu Training Center,CT,2019-06-01T00:00:00-04:00,2019-07-01T00:00:00-04:00,6473,120,42.5,"{""<5"":2,""5-20"":35,""21-60"":32,""61-240"":46,"">240"":5}",9861.5,41.386988,-72.873414,713940.0,CT,9.0,9009.0,New Haven County,90091671002.0
21576,sg:002224842aba48d4b62fbb70204001d3,Chart Radiator Service,CT,2019-06-01T00:00:00-04:00,2019-07-01T00:00:00-04:00,6514,131,100.0,"{""<5"":3,""5-20"":21,""21-60"":28,""61-240"":60,"">240"":19}",14994.0,41.364296,-72.927104,811111.0,CT,9.0,9009.0,New Haven County,90091656001.0
21579,sg:005e0663e0cc4aa2b3626d318d64778a,United States Life Insurance Company,CT,2019-06-01T00:00:00-04:00,2019-07-01T00:00:00-04:00,6082,32,225.5,"{""<5"":0,""5-20"":0,""21-60"":2,""61-240"":16,"">240"":14}",5849.0,41.985257,-72.511666,524210.0,CT,9.0,9003.0,Hartford County,90034809002.0
21594,sg:01b17ee33d49404fa5cf69fa58cc0bb3,Fresh Yoga,CT,2019-06-01T00:00:00-04:00,2019-07-01T00:00:00-04:00,6513,239,52.0,"{""<5"":1,""5-20"":54,""21-60"":70,""61-240"":91,"">240"":23}",22728.0,41.316288,-72.899734,713940.0,CT,9.0,9009.0,New Haven County,90091424001.0
21927,sg:212191a5054a43708d8e5832656a1e5e,Dreams Nail & Spa,CT,2019-06-01T00:00:00-04:00,2019-07-01T00:00:00-04:00,6830,1,513.0,"{""<5"":0,""5-20"":0,""21-60"":0,""61-240"":0,"">240"":1}",240.0,41.021225,-73.631023,812113.0,CT,9.0,9001.0,Fairfield County,90010105001.0
21958,sg:248f1280096f4579b154fdc832f9611e,Childrens Neurology Services,CT,2019-06-01T00:00:00-04:00,2019-07-01T00:00:00-04:00,6457,35,20.0,"{""<5"":1,""5-20"":17,""21-60"":12,""61-240"":4,"">240"":1}",1543.0,41.5467,-72.634738,621111.0,CT,9.0,9007.0,Middlesex County,90075420001.0
22003,sg:2859a5d87edb46daaa2c4a1a47d5043b,Meadow Street Park,CT,2019-06-01T00:00:00-04:00,2019-07-01T00:00:00-04:00,6854,403,71.0,"{""<5"":3,""5-20"":109,""21-60"":78,""61-240"":122,"">240"":91}",44730.0,41.088402,-73.41775799999999,712190.0,CT,9.0,9001.0,Fairfield County,90010444001.0
22293,sg:44ba1ddc67c04c0e883956b58bd24b1d,Mattress Firm,CT,2019-06-01T00:00:00-04:00,2019-07-01T00:00:00-04:00,6902,7,12.0,"{""<5"":1,""5-20"":5,""21-60"":0,""61-240"":1,"">240"":0}",215.5,41.048531,-73.563819,442110.0,CT,9.0,9001.0,Fairfield County,90010214003.0
22333,sg:485a4177a5da4af2901c4fd65de1df71,Marlborough Pizza,CT,2019-06-01T00:00:00-04:00,2019-07-01T00:00:00-04:00,6447,367,41.0,"{""<5"":14,""5-20"":109,""21-60"":128,""61-240"":71,"">240"":45}",28067.0,41.629317,-72.46229,722511.0,CT,9.0,9003.0,Hartford County,90035241004.0
22344,sg:4998cc871b944a7184e1dd4ba00c74fd,Stonington Borough Fire Department,CT,2019-06-01T00:00:00-04:00,2019-07-01T00:00:00-04:00,6378,96,10.0,"{""<5"":3,""5-20"":53,""21-60"":17,""61-240"":14,"">240"":9}",5625.5,41.337839,-71.906533,922160.0,CT,9.0,9011.0,New London County,90117052002.0
22455,sg:5675072c5b7e4c0ea5abd1a960a50679,Connecticut State Police Troop A,CT,2019-06-01T00:00:00-04:00,2019-07-01T00:00:00-04:00,6488,175,65.0,"{""<5"":4,""5-20"":47,""21-60"":34,""61-240"":38,"">240"":52}",20173.5,41.456558,-73.234473,922120.0,CT,9.0,9009.0,New Haven County,90093481231.0
22591,sg:640f4213d4604811bec2bbecc7806772,Federal Hill Financial,CT,2019-06-01T00:00:00-04:00,2019-07-01T00:00:00-04:00,6010,98,181.5,"{""<5"":1,""5-20"":12,""21-60"":12,""61-240"":38,"">240"":35}",14757.5,41.678289,-72.944317,621210.0,CT,9.0,9003.0,Hartford County,90034061001.0
22593,sg:64299485a0cc40f6b07881d784815693,Webster Bank,CT,2019-06-01T00:00:00-04:00,2019-07-01T00:00:00-04:00,6790,56,7.0,"{""<5"":5,""5-20"":46,""21-60"":1,""61-240"":3,"">240"":1}",1319.5,41.815212,-73.094511,522110.0,CT,9.0,9005.0,Litchfield County,90053105002.0
22692,sg:6e1f5a5268264ca08e99efd9439c6c6d,Wilton Hospital For Animals PC,CT,2019-06-01T00:00:00-04:00,2019-07-01T00:00:00-04:00,6897,3,7.0,"{""<5"":0,""5-20"":3,""21-60"":0,""61-240"":0,"">240"":0}",37.5,41.186931,-73.42423000000001,541940.0,CT,9.0,9001.0,Fairfield County,90010452002.0
22765,sg:742bd613aa394805a84e32d9b7717a65,Preston Trading Post,CT,2019-06-01T00:00:00-04:00,2019-07-01T00:00:00-04:00,6365,16,92.5,"{""<5"":0,""5-20"":4,""21-60"":3,""61-240"":4,"">240"":5}",1973.5,41.535469,-71.930474,442110.0,CT,9.0,9011.0,New London County,90117001001.0
22826,sg:7a0fd29e99e44c4ab2fd882205d3cafb,Essentials For The Special Woman,CT,2019-06-01T00:00:00-04:00,2019-07-01T00:00:00-04:00,6066,56,12.0,"{""<5"":2,""5-20"":31,""21-60"":13,""61-240"":10,"">240"":0}",2424.0,41.816666999999995,-72.50326,448120.0,CT,9.0,9013.0,Tolland County,90135305002.0
22846,sg:7bbcb84a2ece4818927046f98fb54dfa,Post Road Plaza,CT,2019-06-01T00:00:00-04:00,2019-07-01T00:00:00-04:00,6820,1259,16.0,"{""<5"":41,""5-20"":733,""21-60"":358,""61-240"":54,"">240"":73}",49411.0,41.084226,-73.461949,531120.0,CT,9.0,9001.0,Fairfield County,90010302001.0
22865,sg:7d273a72f8e24d219127811e44dd83b6,Kim's Gift Shop,CT,2019-06-01T00:00:00-04:00,2019-07-01T00:00:00-04:00,6002,482,15.0,"{""<5"":15,""5-20"":281,""21-60"":160,""61-240"":25,"">240"":1}",14032.5,41.815697,-72.713279,453220.0,CT,9.0,9003.0,Hartford County,90034712002.0
23039,sg:8ed99f30355b4bb2a13b556f80acdd6e,Dixie Donuts,CT,2019-06-01T00:00:00-04:00,2019-07-01T00:00:00-04:00,6360,140,11.0,"{""<5"":12,""5-20"":73,""21-60"":37,""61-240"":13,"">240"":5}",5597.5,41.557885999999996,-72.11477,722515.0,CT,9.0,9011.0,New London County,90116962003.0
23047,sg:8ff48407061e4840a0d79cee8658c5be,Artisan Vapor Company,CT,2019-06-01T00:00:00-04:00,2019-07-01T00:00:00-04:00,6111,25,15.0,"{""<5"":1,""5-20"":14,""21-60"":8,""61-240"":2,"">240"":0}",802.5,41.682214,-72.711585,444120.0,CT,9.0,9003.0,Hartford County,90034941004.0
23093,sg:944842bc9f0147099188140ed6abd554,My Italian Fig Tree,CT,2019-06-01T00:00:00-04:00,2019-07-01T00:00:00-04:00,6460,10,42.5,"{""<5"":0,""5-20"":4,""21-60"":2,""61-240"":4,"">240"":0}",733.0,41.198311,-73.099875,811411.0,CT,9.0,9009.0,New Haven County,90091505002.0
23110,sg:959afb91eb904847881fb5c651b741c3,Sweet Basil,CT,2019-06-01T00:00:00-04:00,2019-07-01T00:00:00-04:00,6062,31,23.0,"{""<5"":1,""5-20"":14,""21-60"":11,""61-240"":5,"">240"":0}",1375.5,41.671958000000004,-72.860233,722511.0,CT,9.0,9003.0,Hartford County,90034205004.0
23258,sg:a3a7e08441c941c3939f3cf1e61b8d62,Le Pain Quotidien,CT,2019-06-01T00:00:00-04:00,2019-07-01T00:00:00-04:00,6840,150,41.5,"{""<5"":3,""5-20"":40,""21-60"":56,""61-240"":39,"">240"":12}",11525.0,41.147017,-73.493841,722513.0,CT,9.0,9001.0,Fairfield County,90010351003.0
23313,sg:aa66136497b14ce2b95af34b766ae07f,Belltown Hill Orchards,CT,2019-06-01T00:00:00-04:00,2019-07-01T00:00:00-04:00,6073,47,10.0,"{""<5"":3,""5-20"":36,""21-60"":6,""61-240"":1,"">240"":1}",1091.0,41.651498,-72.576263,445110.0,CT,9.0,9003.0,Hartford County,90035205012.0
23357,sg:aeb822f1326749c39412701fef285da3,Greenwich Florist,CT,2019-06-01T00:00:00-04:00,2019-07-01T00:00:00-04:00,6830,161,53.0,"{""<5"":3,""5-20"":51,""21-60"":28,""61-240"":44,"">240"":35}",16801.0,41.039823,-73.596936,453110.0,CT,9.0,9001.0,Fairfield County,90010108004.0
23364,sg:afcd6b2cbbbf484592eae5ade16b367a,Bell Glass Service,CT,2019-06-01T00:00:00-04:00,2019-07-01T00:00:00-04:00,6066,46,102.0,"{""<5"":2,""5-20"":10,""21-60"":9,""61-240"":6,"">240"":19}",5957.5,41.852934999999995,-72.48304,444120.0,CT,9.0,9013.0,Tolland County,90135303013.0
23401,sg:b37e2bc3484348b0a316cab498690e1e,Prushko's Tire & Propane Gas,CT,2019-06-01T00:00:00-04:00,2019-07-01T00:00:00-04:00,6468,43,24.0,"{""<5"":0,""5-20"":20,""21-60"":6,""61-240"":8,"">240"":9}",3857.0,41.318613,-73.214078,447110.0,CT,9.0,9001.0,Fairfield County,90011002001.0
23478,sg:ba15efa3dbdd484b90594f0f406ab14b,Beijing Chinese Restaurant,CT,2019-06-01T00:00:00-04:00,2019-07-01T00:00:00-04:00,6810,71,12.0,"{""<5"":2,""5-20"":45,""21-60"":12,""61-240"":2,"">240"":10}",3754.5,41.399188,-73.440719,722511.0,CT,9.0,9001.0,Fairfield County,90012102002.0
23481,sg:ba6d0ee7e16849be9d39b32e951694d4,Tony D's Craft Creamery,CT,2019-06-01T00:00:00-04:00,2019-07-01T00:00:00-04:00,6357,348,21.0,"{""<5"":8,""5-20"":160,""21-60"":128,""61-240"":30,"">240"":22}",16999.0,41.321957,-72.20003100000001,722511.0,CT,9.0,9011.0,New London County,90118707042.0
23583,sg:c3bcc2c2ff984d7081dd3c73c9abcff6,The Learning Experience,CT,2019-06-01T00:00:00-04:00,2019-07-01T00:00:00-04:00,6519,121,50.0,"{""<5"":1,""5-20"":47,""21-60"":17,""61-240"":17,"">240"":39}",13197.0,41.306798,-72.941154,624410.0,CT,9.0,9009.0,New Haven County,90091408001.0
23660,sg:cbc793888e1d4cc4a62c09e403b68fd4,Stop & Shop,CT,2019-06-01T00:00:00-04:00,2019-07-01T00:00:00-04:00,6451,1003,12.0,"{""<5"":28,""5-20"":659,""21-60"":277,""61-240"":20,"">240"":19}",27096.0,41.540044,-72.82466099999999,445110.0,CT,9.0,9009.0,New Haven County,90091706001.0
23881,sg:e38cebaf3b764122a6a93b77206c370b,New York Deli & More,CT,2019-06-01T00:00:00-04:00,2019-07-01T00:00:00-04:00,6103,50,16.0,"{""<5"":3,""5-20"":26,""21-60"":8,""61-240"":4,"">240"":9}",3418.5,41.768279,-72.675223,722511.0,CT,9.0,9003.0,Hartford County,90035021001.0
23894,sg:e52a67e3dc134fb6bf336b5bf9fcbac6,Icm Woodrow Wilson Middle School,CT,2019-06-01T00:00:00-04:00,2019-07-01T00:00:00-04:00,6457,19,21.0,"{""<5"":0,""5-20"":8,""21-60"":5,""61-240"":3,"">240"":3}",1474.0,41.539849,-72.645504,611110.0,CT,9.0,9007.0,Middlesex County,90075420002.0
23898,sg:e58932caa9234ff0ba15e78e222366da,Walmart,CT,2019-06-01T00:00:00-04:00,2019-07-01T00:00:00-04:00,6256,4090,22.0,"{""<5"":63,""5-20"":1826,""21-60"":1700,""61-240"":415,"">240"":86}",174930.0,41.741039,-72.174189,452319.0,CT,9.0,9015.0,Windham County,90158005001.0
23981,sg:edcf4aec5ed5412e886c53bf391d00e7,Admire Dental,CT,2019-06-01T00:00:00-04:00,2019-07-01T00:00:00-04:00,6405,8,47.0,"{""<5"":1,""5-20"":1,""21-60"":2,""61-240"":2,"">240"":2}",877.0,41.273790000000005,-72.832312,621210.0,CT,9.0,9009.0,New Haven County,90091843001.0
24092,sg:f90ebca7bdfe4e308a459a6ddcdd63f8,Mackavi Martial Arts,CT,2019-06-01T00:00:00-04:00,2019-07-01T00:00:00-04:00,6351,24,32.0,"{""<5"":2,""5-20"":8,""21-60"":11,""61-240"":3,"">240"":0}",1002.0,41.594767,-71.976862,713940.0,CT,9.0,9011.0,New London County,90117092002.0
24259,sg:0839f36cbf374c9f97fee3460b3471c5,AAA Dura Glaze Bathtub Reglazing & Repairs,CT,2019-06-01T00:00:00-04:00,2019-07-01T00:00:00-04:00,6040,23,96.0,"{""<5"":1,""5-20"":5,""21-60"":3,""61-240"":9,"">240"":5}",2741.0,41.767076,-72.504971,423910.0,CT,9.0,9003.0,Hartford County,90035150002.0
24459,sg:1c5689d56c4b4439a3f2563ea9ca2a1f,Edward Jones,CT,2019-06-01T00:00:00-04:00,2019-07-01T00:00:00-04:00,6413,4,5.5,"{""<5"":0,""5-20"":4,""21-60"":0,""61-240"":0,"">240"":0}",50.0,41.271401000000004,-72.502401,523999.0,CT,9.0,9007.0,Middlesex County,90076102004.0
24461,sg:1c748cb3a8b749a9a97ab7609d922e73,BrightStar Care,CT,2019-06-01T00:00:00-04:00,2019-07-01T00:00:00-04:00,6107,18,50.0,"{""<5"":1,""5-20"":5,""21-60"":4,""61-240"":2,"">240"":6}",1968.0,41.762902000000004,-72.73949,621610.0,CT,9.0,9003.0,Hartford County,90034971004.0
24468,sg:1ce7c06ba9b844caaf4fde68a09b98bc,Hill Regional Career High School,CT,2019-06-01T00:00:00-04:00,2019-07-01T00:00:00-04:00,6519,451,114.0,"{""<5"":5,""5-20"":78,""21-60"":58,""61-240"":185,"">240"":125}",61179.0,41.305659000000006,-72.941046,611110.0,CT,9.0,9009.0,New Haven County,90091406001.0
24492,sg:202fff7eecab45cbb41a147d678749e9,Imperial Nurseries,CT,2019-06-01T00:00:00-04:00,2019-07-01T00:00:00-04:00,6026,92,56.0,"{""<5"":2,""5-20"":26,""21-60"":19,""61-240"":19,"">240"":26}",10199.0,41.928688,-72.781979,811411.0,CT,9.0,9003.0,Hartford County,90034701002.0
24536,sg:249cd2f088614229ae457114314a5b6e,Kato Counseling,CT,2019-06-01T00:00:00-04:00,2019-07-01T00:00:00-04:00,6811,29,24.0,"{""<5"":0,""5-20"":13,""21-60"":8,""61-240"":3,"">240"":5}",2138.0,41.394034000000005,-73.51397800000001,621330.0,CT,9.0,9001.0,Fairfield County,90012108003.0
24550,sg:25391a575a974c8eae82e18cd41b32a1,Harbour Light Baptist Church,CT,2019-06-01T00:00:00-04:00,2019-07-01T00:00:00-04:00,6477,11,101.0,"{""<5"":0,""5-20"":3,""21-60"":1,""61-240"":4,"">240"":3}",1400.0,41.259999,-73.007961,813110.0,CT,9.0,9009.0,New Haven County,90091571001.0
24552,sg:2551183ead1f489291dfd9fc7a9816ce,Sunoco,CT,2019-06-01T00:00:00-04:00,2019-07-01T00:00:00-04:00,6902,82,8.5,"{""<5"":5,""5-20"":57,""21-60"":12,""61-240"":3,"">240"":5}",2862.5,41.047911,-73.554829,447110.0,CT,9.0,9001.0,Fairfield County,90010214003.0
24678,sg:3299fb96e0ce4d1ab733d50a38b52893,Pollack Orthodontics,CT,2019-06-01T00:00:00-04:00,2019-07-01T00:00:00-04:00,6226,108,63.5,"{""<5"":1,""5-20"":21,""21-60"":31,""61-240"":37,"">240"":18}",11409.0,41.713452000000004,-72.212866,621210.0,CT,9.0,9015.0,Windham County,90158006003.0
24740,sg:397a7e0cab41465f8f30b49460f909d9,Diamond Kings,CT,2019-06-01T00:00:00-04:00,2019-07-01T00:00:00-04:00,6010,267,48.0,"{""<5"":5,""5-20"":65,""21-60"":93,""61-240"":75,"">240"":29}",22839.0,41.685103000000005,-72.982848,713940.0,CT,9.0,9003.0,Hartford County,90034058001.0
24778,sg:3d1b07d4d4ff4251a226e2442cc1799e,Bliss Bridal,CT,2019-06-01T00:00:00-04:00,2019-07-01T00:00:00-04:00,6410,80,63.0,"{""<5"":0,""5-20"":21,""21-60"":18,""61-240"":25,"">240"":16}",8594.0,41.495465,-72.902821,448120.0,CT,9.0,9009.0,New Haven County,90093433003.0
25041,sg:5377aba9d1d747e1a0a294991dc7b3d1,Autotek,CT,2019-06-01T00:00:00-04:00,2019-07-01T00:00:00-04:00,6071,5,6.0,"{""<5"":2,""5-20"":3,""21-60"":0,""61-240"":0,"">240"":0}",42.5,41.965816,-72.456676,811111.0,CT,9.0,9013.0,Tolland County,90135382013.0
25057,sg:54e4c24b3e304c96a33c93a61dd5bc73,T Maria's,CT,2019-06-01T00:00:00-04:00,2019-07-01T00:00:00-04:00,6071,39,23.0,"{""<5"":0,""5-20"":19,""21-60"":14,""61-240"":5,"">240"":1}",1797.0,41.984895,-72.490215,722511.0,CT,9.0,9013.0,Tolland County,90135382014.0
25112,sg:59a06550c88f4f36926f50a9df5515e7,Jason Scully DDS and Francis Zaino DDS,CT,2019-06-01T00:00:00-04:00,2019-07-01T00:00:00-04:00,6824,8,505.0,"{""<5"":0,""5-20"":0,""21-60"":2,""61-240"":1,"">240"":5}",1431.5,41.139784999999996,-73.258361,621210.0,CT,9.0,9001.0,Fairfield County,90010616001.0
25138,sg:5c637033573749849b6a9d35d6bc9c32,Kbarr,CT,2019-06-01T00:00:00-04:00,2019-07-01T00:00:00-04:00,6106,80,22.5,"{""<5"":3,""5-20"":35,""21-60"":18,""61-240"":18,"">240"":6}",5323.0,41.756096,-72.713537,722511.0,CT,9.0,9003.0,Hartford County,90035043002.0
25172,sg:605390e06e9448309f010369dcc0b0e5,Minuteman Press,CT,2019-06-01T00:00:00-04:00,2019-07-01T00:00:00-04:00,6320,2,12.5,"{""<5"":0,""5-20"":2,""21-60"":0,""61-240"":0,"">240"":0}",25.0,41.354786,-72.095835,323113.0,CT,9.0,9011.0,New London County,90116905002.0
25207,sg:630c2208ca044f208b7641a04254d35d,Jarrel Photography,CT,2019-06-01T00:00:00-04:00,2019-07-01T00:00:00-04:00,6488,4,104.5,"{""<5"":0,""5-20"":0,""21-60"":0,""61-240"":3,"">240"":1}",691.5,41.428711,-73.199278,541921.0,CT,9.0,9009.0,New Haven County,90093481232.0
25394,sg:75d44f0c0c1c4baa99259c81b033f011,Associated Urologists PC,CT,2019-06-01T00:00:00-04:00,2019-07-01T00:00:00-04:00,6066,60,62.0,"{""<5"":0,""5-20"":15,""21-60"":15,""61-240"":15,"">240"":15}",6652.5,41.834157,-72.468238,621111.0,CT,9.0,9013.0,Tolland County,90135303022.0
25482,sg:7df5a151444e41c1a85324409a583011,Webster Bank,CT,2019-06-01T00:00:00-04:00,2019-07-01T00:00:00-04:00,6604,172,10.0,"{""<5"":11,""5-20"":123,""21-60"":28,""61-240"":10,"">240"":0}",4204.0,41.177853999999996,-73.187353,522110.0,CT,9.0,9001.0,Fairfield County,90010706001.0
25545,sg:832d8c47399d46fcba2165e54f3e8e34,Stamford Physical Medicine,CT,2019-06-01T00:00:00-04:00,2019-07-01T00:00:00-04:00,6905,95,82.0,"{""<5"":1,""5-20"":19,""21-60"":18,""61-240"":22,"">240"":35}",12680.0,41.064425,-73.53656,621340.0,CT,9.0,9001.0,Fairfield County,90010216004.0
25547,sg:83368eb49ade40788516fbb02d06980f,St Peter & St Andrew Coptic Orthodox Church,CT,2019-06-01T00:00:00-04:00,2019-07-01T00:00:00-04:00,6902,104,41.0,"{""<5"":2,""5-20"":39,""21-60"":18,""61-240"":21,"">240"":24}",10142.0,41.058647,-73.524147,712190.0,CT,9.0,9001.0,Fairfield County,90010218013.0
25601,sg:8862bbd72ee84a27ad12d8f360db218d,Crafters Haven,CT,2019-06-01T00:00:00-04:00,2019-07-01T00:00:00-04:00,6511,14,11.0,"{""<5"":1,""5-20"":12,""21-60"":0,""61-240"":0,"">240"":1}",392.5,41.316039,-72.90341,451130.0,CT,9.0,9009.0,New Haven County,90091424001.0
25604,sg:888e2c81e2e44574889e216f43148e4f,Officers Club of Conn,CT,2019-06-01T00:00:00-04:00,2019-07-01T00:00:00-04:00,6105,485,84.0,"{""<5"":10,""5-20"":119,""21-60"":72,""61-240"":168,"">240"":116}",57552.5,41.764972,-72.685806,721110.0,CT,9.0,9003.0,Hartford County,90035021002.0
25827,sg:a066864453274548826dee838ac0fa68,Subway,CT,2019-06-01T00:00:00-04:00,2019-07-01T00:00:00-04:00,6357,268,34.5,"{""<5"":5,""5-20"":85,""21-60"":84,""61-240"":76,"">240"":18}",20235.0,41.323305,-72.19433199999999,722513.0,CT,9.0,9011.0,New London County,90118707042.0
25880,sg:a60b9ecea1b544e18ae496226b4f5b53,County Mall,CT,2019-06-01T00:00:00-04:00,2019-07-01T00:00:00-04:00,6851,684,41.0,"{""<5"":15,""5-20"":215,""21-60"":185,""61-240"":214,"">240"":55}",55624.5,41.124132,-73.396103,531120.0,CT,9.0,9001.0,Fairfield County,90010435002.0
25955,sg:acea5836dc994ce3a32237b3148584e1,Inner Healing Therapy,CT,2019-06-01T00:00:00-04:00,2019-07-01T00:00:00-04:00,6067,2,14.5,"{""<5"":0,""5-20"":2,""21-60"":0,""61-240"":0,"">240"":0}",25.0,41.655485,-72.681478,621330.0,CT,9.0,9003.0,Hartford County,90034903022.0
26005,sg:b226cdd742b440d49e4d361fdf6739bc,Seymour Historical Society,CT,2019-06-01T00:00:00-04:00,2019-07-01T00:00:00-04:00,6483,9,11.0,"{""<5"":0,""5-20"":8,""21-60"":0,""61-240"":1,"">240"":0}",250.5,41.394116,-73.079565,712120.0,CT,9.0,9009.0,New Haven County,90091302002.0
26013,sg:b33dfc94ebec40f6a3797db267bbf621,StonePost Bakery Cafe,CT,2019-06-01T00:00:00-04:00,2019-07-01T00:00:00-04:00,6001,7,13.0,"{""<5"":1,""5-20"":4,""21-60"":0,""61-240"":2,"">240"":0}",353.5,41.814187,-72.856437,722515.0,CT,9.0,9003.0,Hartford County,90034622011.0
26049,sg:b6885d87384c4f52bdcd05656eadcc88,Seventh Day Adventist Church Calvary,CT,2019-06-01T00:00:00-04:00,2019-07-01T00:00:00-04:00,6606,13,10.0,"{""<5"":0,""5-20"":10,""21-60"":2,""61-240"":0,"">240"":1}",446.0,41.218647,-73.201584,813110.0,CT,9.0,9001.0,Fairfield County,90010728002.0
26287,sg:cc4a8cfa08fd4731bc19de25b2b71de4,Midstate Tractor & Equipment,CT,2019-06-01T00:00:00-04:00,2019-07-01T00:00:00-04:00,6457,90,10.0,"{""<5"":1,""5-20"":67,""21-60"":17,""61-240"":5,"">240"":0}",2281.0,41.541295,-72.652422,444130.0,CT,9.0,9007.0,Middlesex County,90075420003.0
26337,sg:d12eb8619e9247b68ec7bde9b80b5457,Shoreline Quick Lube And Car Wash,CT,2019-06-01T00:00:00-04:00,2019-07-01T00:00:00-04:00,6475,203,19.0,"{""<5"":5,""5-20"":109,""21-60"":58,""61-240"":12,"">240"":19}",10090.0,41.286833,-72.411173,811111.0,CT,9.0,9007.0,Middlesex County,90076701002.0
26611,sg:ecd373406b7949eea8f5475791ccef13,Carini's Restaurant,CT,2019-06-01T00:00:00-04:00,2019-07-01T00:00:00-04:00,6492,94,39.0,"{""<5"":3,""5-20"":32,""21-60"":30,""61-240"":28,"">240"":1}",6076.5,41.448122999999995,-72.802835,722511.0,CT,9.0,9009.0,New Haven County,90091759003.0
26792,sg:014ae76c691e40728860c9411f065934,Starbucks,CT,2019-06-01T00:00:00-04:00,2019-07-01T00:00:00-04:00,6067,703,8.0,"{""<5"":41,""5-20"":500,""21-60"":84,""61-240"":40,"">240"":38}",24894.5,41.647161,-72.677449,722515.0,CT,9.0,9003.0,Hartford County,90035242003.0
26835,sg:04e3b0ae120d452486f3755ddc9e2da2,Lyme Old Lyme High School,CT,2019-06-01T00:00:00-04:00,2019-07-01T00:00:00-04:00,6371,622,138.0,"{""<5"":0,""5-20"":72,""21-60"":92,""61-240"":229,"">240"":229}",94050.5,41.318335999999995,-72.325041,611110.0,CT,9.0,9011.0,New London County,90116601013.0
26853,sg:06773a2d93c041898fe949f498e37dbc,Creative Stone & Tile,CT,2019-06-01T00:00:00-04:00,2019-07-01T00:00:00-04:00,6513,295,228.0,"{""<5"":2,""5-20"":44,""21-60"":36,""61-240"":69,"">240"":144}",46957.5,41.311488,-72.903818,442299.0,CT,9.0,9009.0,New Haven County,90091424004.0
26886,sg:095494cd2da640769668907ff7e31344,Shell Oil,CT,2019-06-01T00:00:00-04:00,2019-07-01T00:00:00-04:00,6359,420,9.5,"{""<5"":23,""5-20"":301,""21-60"":82,""61-240"":12,"">240"":2}",9427.0,41.44168,-71.799992,447110.0,CT,9.0,9011.0,New London County,90117071003.0
27064,sg:17eac35037784b32a82fb5c66f03ed3b,Danielson Medical Associates PC,CT,2019-06-01T00:00:00-04:00,2019-07-01T00:00:00-04:00,6239,44,22.5,"{""<5"":3,""5-20"":14,""21-60"":21,""61-240"":4,"">240"":2}",2115.0,41.795783,-71.880732,621111.0,CT,9.0,9015.0,Windham County,90159045005.0
27097,sg:1ae7f308cda34082aff6b260c1dcd1b7,The Herbal Room,CT,2019-06-01T00:00:00-04:00,2019-07-01T00:00:00-04:00,6109,1,469.0,"{""<5"":0,""5-20"":0,""21-60"":0,""61-240"":0,"">240"":1}",240.0,41.710052000000005,-72.654988,621111.0,CT,9.0,9003.0,Hartford County,90034921002.0
27204,sg:26114b5026af4c069f9bc2a7b507af19,Sergio's Pizza,CT,2019-06-01T00:00:00-04:00,2019-07-01T00:00:00-04:00,6010,13,10.0,"{""<5"":2,""5-20"":5,""21-60"":3,""61-240"":3,"">240"":0}",640.5,41.701558,-72.91029,722511.0,CT,9.0,9003.0,Hartford County,90034060022.0
27355,sg:3312c7edf3a643f7ab9c9a1520788564,Woodbury Financial Services Inc,CT,2019-06-01T00:00:00-04:00,2019-07-01T00:00:00-04:00,6410,13,9.0,"{""<5"":0,""5-20"":10,""21-60"":1,""61-240"":1,"">240"":1}",556.0,41.554276,-72.909671,523930.0,CT,9.0,9009.0,New Haven County,90093432001.0
27505,sg:41b14b1f50a9466cbd3cf1e965a3e399,Sliders Grill & Bar,CT,2019-06-01T00:00:00-04:00,2019-07-01T00:00:00-04:00,6062,339,54.0,"{""<5"":7,""5-20"":64,""21-60"":108,""61-240"":124,"">240"":36}",32493.5,41.67588,-72.853015,722511.0,CT,9.0,9003.0,Hartford County,90034206004.0
27532,sg:44a150068c914b37aac0a4eb8d91a2f5,Ophthalmic Consultants of Connecticut,CT,2019-06-01T00:00:00-04:00,2019-07-01T00:00:00-04:00,6450,83,210.0,"{""<5"":2,""5-20"":10,""21-60"":7,""61-240"":27,"">240"":37}",13357.0,41.520142,-72.762697,621111.0,CT,9.0,9009.0,New Haven County,90091712001.0
27547,sg:4638c7d331204eeb9fecbac143f84d8d,Milford Yacht Club,CT,2019-06-01T00:00:00-04:00,2019-07-01T00:00:00-04:00,6460,651,62.0,"{""<5"":7,""5-20"":148,""21-60"":165,""61-240"":275,"">240"":56}",63377.5,41.211308,-73.04992,441222.0,CT,9.0,9009.0,New Haven County,90091501002.0
27868,sg:63c2648c64ff429ca4610a9f802ffaa1,National Helicopter Museum,CT,2019-06-01T00:00:00-04:00,2019-07-01T00:00:00-04:00,6615,471,11.0,"{""<5"":19,""5-20"":314,""21-60"":112,""61-240"":23,"">240"":3}",12690.0,41.194727,-73.130488,712110.0,CT,9.0,9001.0,Fairfield County,90010807001.0
27953,sg:6c32de42711c4ccabcee55fa9c90af55,Strong Women's Health,CT,2019-06-01T00:00:00-04:00,2019-07-01T00:00:00-04:00,6519,18,30.5,"{""<5"":0,""5-20"":2,""21-60"":10,""61-240"":1,"">240"":5}",1780.5,41.300888,-72.930205,621111.0,CT,9.0,9009.0,New Haven County,90091403002.0
28150,sg:8024ab9527e7415fa8033309f6588bac,Compass Care,CT,2019-06-01T00:00:00-04:00,2019-07-01T00:00:00-04:00,6905,38,36.0,"{""<5"":1,""5-20"":13,""21-60"":9,""61-240"":9,"">240"":6}",3324.0,41.065012,-73.54350500000001,492110.0,CT,9.0,9001.0,Fairfield County,90010216003.0
28189,sg:8452f08104524b3fae0fd82df33e1ad5,Tractor Supply Co.,CT,2019-06-01T00:00:00-04:00,2019-07-01T00:00:00-04:00,6477,351,23.0,"{""<5"":15,""5-20"":146,""21-60"":61,""61-240"":45,"">240"":84}",31265.5,41.265436,-72.998035,444130.0,CT,9.0,9009.0,New Haven County,90091571001.0
28237,sg:88890bd373244e6faa3b56e60fb81792,Brito's Grocery,CT,2019-06-01T00:00:00-04:00,2019-07-01T00:00:00-04:00,6114,225,45.0,"{""<5"":4,""5-20"":71,""21-60"":51,""61-240"":50,"">240"":49}",22248.0,41.735253,-72.678251,445110.0,CT,9.0,9003.0,Hartford County,90035023002.0
28676,sg:b08212f624144609bc436791bc00d25c,Crown Trophy,CT,2019-06-01T00:00:00-04:00,2019-07-01T00:00:00-04:00,6851,26,23.5,"{""<5"":0,""5-20"":13,""21-60"":6,""61-240"":6,"">240"":1}",1548.5,41.120022999999996,-73.413143,453998.0,CT,9.0,9001.0,Fairfield County,90010437001.0
28686,sg:b0ff9b8e3da2477f9225460785b17f28,Life Storage,CT,2019-06-01T00:00:00-04:00,2019-07-01T00:00:00-04:00,6492,320,16.5,"{""<5"":13,""5-20"":167,""21-60"":75,""61-240"":39,"">240"":26}",17267.0,41.495711,-72.81658,531130.0,CT,9.0,9009.0,New Haven County,90091754004.0
28689,sg:b11c2f4d8ccf4e19af0f7ebc0c53ea95,United States Postal Service (USPS),CT,2019-06-01T00:00:00-04:00,2019-07-01T00:00:00-04:00,6752,4,85.0,"{""<5"":0,""5-20"":1,""21-60"":1,""61-240"":1,"">240"":1}",443.5,41.534325,-73.366421,491110.0,CT,9.0,9005.0,Litchfield County,90052501002.0
28850,sg:c105f0a47e6e47ea9ae798aeaa506d8f,Bethel Temple Church of God In Christ,CT,2019-06-01T00:00:00-04:00,2019-07-01T00:00:00-04:00,6519,592,110.0,"{""<5"":4,""5-20"":118,""21-60"":99,""61-240"":166,"">240"":205}",79677.5,41.295034,-72.940423,813110.0,CT,9.0,9009.0,New Haven County,90091405003.0
28956,sg:c9d40f276fe3476ba8555f032e296ba2,Trader Joe's,CT,2019-06-01T00:00:00-04:00,2019-07-01T00:00:00-04:00,6477,1234,20.0,"{""<5"":24,""5-20"":637,""21-60"":407,""61-240"":125,"">240"":41}",53158.5,41.251274,-73.01779,445110.0,CT,9.0,9009.0,New Haven County,90091571001.0
28972,sg:cb7e06331f3b4d39afd233c0d2b9c4a4,Greenwich Pharmacy,CT,2019-06-01T00:00:00-04:00,2019-07-01T00:00:00-04:00,6830,2,9.5,"{""<5"":0,""5-20"":2,""21-60"":0,""61-240"":0,"">240"":0}",25.0,41.028948,-73.626635,446110.0,CT,9.0,9001.0,Fairfield County,90010106003.0
28973,sg:cb800ab6db4f4e858d034ab16cdeece5,Black Rock Galleries,CT,2019-06-01T00:00:00-04:00,2019-07-01T00:00:00-04:00,6605,344,55.0,"{""<5"":12,""5-20"":103,""21-60"":62,""61-240"":75,"">240"":92}",37196.0,41.170035999999996,-73.21521700000001,453310.0,CT,9.0,9001.0,Fairfield County,90010710001.0
29057,sg:d4a6c246bc7f43b0a19e61b00c2c2152,Soundbridge,CT,2019-06-01T00:00:00-04:00,2019-07-01T00:00:00-04:00,6109,101,75.0,"{""<5"":1,""5-20"":23,""21-60"":21,""61-240"":34,"">240"":22}",11537.5,41.702564,-72.699519,611110.0,CT,9.0,9003.0,Hartford County,90034924002.0
29062,sg:d51f82288f9c4a2e8efa35eebb58d21f,Spa Keepers,CT,2019-06-01T00:00:00-04:00,2019-07-01T00:00:00-04:00,6457,42,63.0,"{""<5"":1,""5-20"":11,""21-60"":8,""61-240"":17,"">240"":5}",4222.5,41.596509000000005,-72.72189,423910.0,CT,9.0,9007.0,Middlesex County,90075414011.0
29122,sg:dc464b107b3e4c0899d0e14c46b2917b,Milldale Auto & Truck Wash,CT,2019-06-01T00:00:00-04:00,2019-07-01T00:00:00-04:00,6489,7,7.0,"{""<5"":1,""5-20"":4,""21-60"":1,""61-240"":0,"">240"":1}",333.0,41.56496,-72.890065,811192.0,CT,9.0,9003.0,Hartford County,90034304002.0
29213,sg:e513c42d60b949a09d01b6fa7ba13627,Our Lady of the Assumption Church,CT,2019-06-01T00:00:00-04:00,2019-07-01T00:00:00-04:00,6525,184,49.0,"{""<5"":3,""5-20"":41,""21-60"":58,""61-240"":72,"">240"":10}",16105.0,41.353799,-73.00414599999999,813110.0,CT,9.0,9009.0,New Haven County,90091602002.0
