,safegraph_place_id,location_name,region,date_range_start,date_range_end,postal_code,raw_visit_counts,median_dwell,bucketed_dwell_times,est_total_dwell,latitude,longitude,naics_code,state,stateFIPS,countyFIPS,countyName,CBGFIPS
95,sg:069cf4f863504435bf03f8376439778a,Hope Springs Church,CT,2019-02-01T00:00:00-05:00,2019-03-01T00:00:00-05:00,6076,12,22.0,"{""<5"":0,""5-20"":6,""21-60"":2,""61-240"":2,"">240"":2}",937.0,41.964289,-72.295532,813110.0,CT,9.0,9013.0,Tolland County,90138901002.0
163,sg:0c9b043d56f24e9fa4940ea326366ec2,United States Postal Service (USPS),CT,2019-02-01T00:00:00-05:00,2019-03-01T00:00:00-05:00,6071,73,20.0,"{""<5"":5,""5-20"":32,""21-60"":12,""61-240"":10,"">240"":14}",5763.5,41.986752,-72.441861,491110.0,CT,9.0,9013.0,Tolland County,90135382023.0
211,sg:105dbd92b8b347a0a2417c13fb0f3d1a,Goncharova Olga DDS,CT,2019-02-01T00:00:00-05:00,2019-03-01T00:00:00-05:00,6605,40,13.0,"{""<5"":1,""5-20"":24,""21-60"":6,""61-240"":2,"">240"":7}",2526.5,41.176156,-73.212136,621210.0,CT,9.0,9001.0,Fairfield County,90010711002.0
230,sg:11e76d70cf7c40468f4d29245286b230,Burlington,CT,2019-02-01T00:00:00-05:00,2019-03-01T00:00:00-05:00,6901,344,30.0,"{""<5"":3,""5-20"":113,""21-60"":159,""61-240"":58,"">240"":11}",19228.5,41.055856,-73.539907,448140.0,CT,9.0,9001.0,Fairfield County,90010201001.0
397,sg:219000cbd8344bc1901dadd90b41ada5,Barbara's Restaurant,CT,2019-02-01T00:00:00-05:00,2019-03-01T00:00:00-05:00,6514,256,19.0,"{""<5"":10,""5-20"":122,""21-60"":73,""61-240"":44,"">240"":7}",12808.5,41.339518,-72.93544,722511.0,CT,9.0,9009.0,New Haven County,90091655002.0
409,sg:22a7e13e2c334d6bae7d6f789549eeff,Sunoco,CT,2019-02-01T00:00:00-05:00,2019-03-01T00:00:00-05:00,6470,94,24.0,"{""<5"":5,""5-20"":35,""21-60"":17,""61-240"":30,"">240"":7}",7333.5,41.396768,-73.29361800000001,447110.0,CT,9.0,9001.0,Fairfield County,90012305022.0
476,sg:2889139e63b84b5881e95cf3f55c2196,First and Last Bakery Cafe,CT,2019-02-01T00:00:00-05:00,2019-03-01T00:00:00-05:00,6114,107,29.0,"{""<5"":1,""5-20"":41,""21-60"":43,""61-240"":17,"">240"":5}",6015.0,41.734021000000006,-72.68679,722511.0,CT,9.0,9003.0,Hartford County,90035023004.0
481,sg:28dce5a883834985a1bef5744110e651,ENT & Allergy Associates,CT,2019-02-01T00:00:00-05:00,2019-03-01T00:00:00-05:00,6611,5,484.0,"{""<5"":0,""5-20"":0,""21-60"":0,""61-240"":2,"">240"":3}",1021.0,41.234859,-73.14938000000001,621111.0,CT,9.0,9001.0,Fairfield County,90010905002.0
482,sg:28df1ab1497847388edb220230aa5c88,KFC,CT,2019-02-01T00:00:00-05:00,2019-03-01T00:00:00-05:00,6810,185,13.0,"{""<5"":7,""5-20"":106,""21-60"":44,""61-240"":15,"">240"":13}",8502.0,41.408905,-73.455929,722513.0,CT,9.0,9001.0,Fairfield County,90012102001.0
490,sg:2939b817f79e412ab5e6071fd0fd0354,Pep Boys,CT,2019-02-01T00:00:00-05:00,2019-03-01T00:00:00-05:00,6514,152,33.5,"{""<5"":1,""5-20"":57,""21-60"":26,""61-240"":29,"">240"":39}",15492.5,41.371849,-72.916924,441310.0,CT,9.0,9009.0,New Haven County,90091658012.0
525,sg:2be5bf34d9ef4034b6dbab85eb74da8f,CrossFit,CT,2019-02-01T00:00:00-05:00,2019-03-01T00:00:00-05:00,6320,239,21.0,"{""<5"":5,""5-20"":107,""21-60"":69,""61-240"":36,"">240"":22}",14842.5,41.362639,-72.114876,713940.0,CT,9.0,9011.0,New London County,90116903002.0
548,sg:2e3a7540e9e34d39b5953157079ba2e6,Northford Country Grill,CT,2019-02-01T00:00:00-05:00,2019-03-01T00:00:00-05:00,6472,195,29.0,"{""<5"":6,""5-20"":76,""21-60"":59,""61-240"":35,"">240"":19}",13182.0,41.393683,-72.79019699999999,722511.0,CT,9.0,9009.0,New Haven County,90091862001.0
642,sg:35eb41dfd10946c2a9c29431cd652157,True Value Hardware,CT,2019-02-01T00:00:00-05:00,2019-03-01T00:00:00-05:00,6776,143,20.0,"{""<5"":1,""5-20"":72,""21-60"":32,""61-240"":21,"">240"":17}",9439.0,41.578489000000005,-73.413826,444130.0,CT,9.0,9005.0,Litchfield County,90052536002.0
674,sg:3904ad74ba524d58a93c0372209591a0,Boys & Girls Clubs of America,CT,2019-02-01T00:00:00-05:00,2019-03-01T00:00:00-05:00,6010,91,37.0,"{""<5"":0,""5-20"":39,""21-60"":13,""61-240"":13,"">240"":26}",9210.5,41.688644000000004,-72.91780200000001,624110.0,CT,9.0,9003.0,Hartford County,90034052002.0
764,sg:415b6b75e7994477b00b2d04497b60f0,Forever Custom Tattoos,CT,2019-02-01T00:00:00-05:00,2019-03-01T00:00:00-05:00,6604,1,149.0,"{""<5"":0,""5-20"":0,""21-60"":0,""61-240"":1,"">240"":0}",150.5,41.180087,-73.18924399999999,812199.0,CT,9.0,9001.0,Fairfield County,90010706001.0
850,sg:481be2811eff413cb6c6166f5a05836a,Cositas Deliciosas,CT,2019-02-01T00:00:00-05:00,2019-03-01T00:00:00-05:00,6513,440,20.0,"{""<5"":14,""5-20"":208,""21-60"":106,""61-240"":78,"">240"":34}",26827.0,41.309020000000004,-72.897992,722511.0,CT,9.0,9009.0,New Haven County,90091424003.0
965,sg:54440f07e69143399badfc217b1635f9,Cook Willow Convalescent Home,CT,2019-02-01T00:00:00-05:00,2019-03-01T00:00:00-05:00,6782,1,509.0,"{""<5"":0,""5-20"":0,""21-60"":0,""61-240"":0,"">240"":1}",240.0,41.667109,-73.05790999999999,621610.0,CT,9.0,9005.0,Litchfield County,90054254003.0
1067,sg:5d2dcdfd1de94d2886305486558ceaa8,Calvary Christian Childhood Center,CT,2019-02-01T00:00:00-05:00,2019-03-01T00:00:00-05:00,6082,18,37.0,"{""<5"":1,""5-20"":6,""21-60"":5,""61-240"":6,"">240"":0}",1183.0,41.961262,-72.59695500000001,624410.0,CT,9.0,9003.0,Hartford County,90034812003.0
1097,sg:60a675d8ec3c4de99cb60ca9511b1f29,7-Eleven,CT,2019-02-01T00:00:00-05:00,2019-03-01T00:00:00-05:00,6268,18,19.0,"{""<5"":0,""5-20"":10,""21-60"":6,""61-240"":0,"">240"":2}",848.0,41.805081,-72.24394699999999,445120.0,CT,9.0,9013.0,Tolland County,90138812001.0
1115,sg:621f337ba9f84c6fad5e44b0a7b5ce80,Big Y Foods,CT,2019-02-01T00:00:00-05:00,2019-03-01T00:00:00-05:00,6470,133,14.0,"{""<5"":6,""5-20"":85,""21-60"":36,""61-240"":3,"">240"":3}",3707.0,41.412082,-73.304886,445110.0,CT,9.0,9001.0,Fairfield County,90012302001.0
1354,sg:7679d43ab6ca494cb733934595aeb566,UI RCP New Haven Fuel Cell,CT,2019-02-01T00:00:00-05:00,2019-03-01T00:00:00-05:00,6512,9,16.0,"{""<5"":0,""5-20"":5,""21-60"":2,""61-240"":2,"">240"":0}",444.5,41.289138,-72.89894699999999,221111.0,CT,9.0,9009.0,New Haven County,90091427003.0
1410,sg:7c92c9e4beaf44dbbef140f4035573fb,Baldi Stone and Gravel,CT,2019-02-01T00:00:00-05:00,2019-03-01T00:00:00-05:00,6415,48,79.0,"{""<5"":0,""5-20"":10,""21-60"":13,""61-240"":17,"">240"":8}",5130.0,41.587278999999995,-72.35382,444130.0,CT,9.0,9011.0,New London County,90117141011.0
1423,sg:7dfb9aa77be34f6c9926af9bbb2cbbad,Bird,CT,2019-02-01T00:00:00-05:00,2019-03-01T00:00:00-05:00,6851,8,60.0,"{""<5"":0,""5-20"":2,""21-60"":2,""61-240"":3,"">240"":1}",797.5,41.138512,-73.319388,812112.0,CT,9.0,9001.0,Fairfield County,90010506003.0
1462,sg:81799eba1c5641b6a93d5d688db9079d,Mountain View School,CT,2019-02-01T00:00:00-05:00,2019-03-01T00:00:00-05:00,6010,15,182.0,"{""<5"":0,""5-20"":0,""21-60"":1,""61-240"":13,"">240"":1}",2237.0,41.696540999999996,-72.89895200000001,611110.0,CT,9.0,9003.0,Hartford County,90034053001.0
1510,sg:864cc22cbca7419486f690b110a962d5,Ywca Nike Tykes Early Learning Center,CT,2019-02-01T00:00:00-05:00,2019-03-01T00:00:00-05:00,6040,64,178.5,"{""<5"":0,""5-20"":19,""21-60"":3,""61-240"":18,"">240"":24}",8828.0,41.746798,-72.53326700000001,624410.0,CT,9.0,9003.0,Hartford County,90035151022.0
1572,sg:8c702a8ac92944bcb89aedf2688c01c5,Advanced Foot & Ankle Center,CT,2019-02-01T00:00:00-05:00,2019-03-01T00:00:00-05:00,6762,36,114.5,"{""<5"":3,""5-20"":9,""21-60"":4,""61-240"":5,"">240"":15}",4634.5,41.565630999999996,-73.092332,621111.0,CT,9.0,9009.0,New Haven County,90093520003.0
1717,sg:9a346929a2254efbb4c6ef4fede0a924,Hop Brook Lake,CT,2019-02-01T00:00:00-05:00,2019-03-01T00:00:00-05:00,6770,5,57.0,"{""<5"":0,""5-20"":2,""21-60"":1,""61-240"":0,"">240"":2}",545.5,41.514222,-73.068152,712190.0,CT,9.0,9009.0,New Haven County,90093454001.0
1903,sg:ae108ffa5d5c41ab942f798b1d95291d,Fairways Golf Range and Pro Shop,CT,2019-02-01T00:00:00-05:00,2019-03-01T00:00:00-05:00,6405,29,38.0,"{""<5"":2,""5-20"":9,""21-60"":8,""61-240"":8,"">240"":2}",2125.5,41.304103999999995,-72.765648,713910.0,CT,9.0,9009.0,New Haven County,90091847001.0
1907,sg:ae82d52ce2b547a1b9bfafbf51f16cde,United Churches of Durham,CT,2019-02-01T00:00:00-05:00,2019-03-01T00:00:00-05:00,6422,67,221.0,"{""<5"":2,""5-20"":4,""21-60"":8,""61-240"":20,"">240"":33}",11309.0,41.478153000000006,-72.681415,813110.0,CT,9.0,9007.0,Middlesex County,90075851003.0
1923,sg:afd33032f7f849cb8f1c85501ebc9caa,Wallingford Public Library,CT,2019-02-01T00:00:00-05:00,2019-03-01T00:00:00-05:00,6492,405,40.0,"{""<5"":9,""5-20"":116,""21-60"":126,""61-240"":129,"">240"":25}",31990.0,41.457195,-72.816855,519120.0,CT,9.0,9009.0,New Haven County,90091751001.0
2045,sg:bd7fc1b818c64557b586eef567132b44,The Hartford Deli,CT,2019-02-01T00:00:00-05:00,2019-03-01T00:00:00-05:00,6103,82,17.5,"{""<5"":4,""5-20"":39,""21-60"":2,""61-240"":6,"">240"":31}",8921.5,41.767919,-72.67347600000001,722511.0,CT,9.0,9003.0,Hartford County,90035021001.0
2584,sg:f5e1b4c1b93146dbbeb72fa9bfdf380b,Elite Repeats LLC,CT,2019-02-01T00:00:00-05:00,2019-03-01T00:00:00-05:00,6416,9,8.0,"{""<5"":0,""5-20"":9,""21-60"":0,""61-240"":0,"">240"":0}",112.5,41.627004,-72.677155,448120.0,CT,9.0,9007.0,Middlesex County,90075701001.0
2672,sg:ff0dcf1b5e1844bdb49152dbf8657022,Michael Levin DDS,CT,2019-02-01T00:00:00-05:00,2019-03-01T00:00:00-05:00,6878,53,44.0,"{""<5"":1,""5-20"":13,""21-60"":15,""61-240"":17,"">240"":7}",5011.0,41.041553,-73.581331,621210.0,CT,9.0,9001.0,Fairfield County,90010109002.0
2858,sg:0dc978fbfe144b6dbf9b799a02a2c7ce,Essex Consignment,CT,2019-02-01T00:00:00-05:00,2019-03-01T00:00:00-05:00,6426,6,9.5,"{""<5"":1,""5-20"":4,""21-60"":0,""61-240"":0,"">240"":1}",292.5,41.333708,-72.422122,453310.0,CT,9.0,9007.0,Middlesex County,90076301006.0
2869,sg:0ea5201886c74fe9ac94d9cbdfe5771d,BP,CT,2019-02-01T00:00:00-05:00,2019-03-01T00:00:00-05:00,6405,1234,20.0,"{""<5"":49,""5-20"":591,""21-60"":320,""61-240"":205,"">240"":69}",67882.5,41.296856,-72.76092299999999,447110.0,CT,9.0,9009.0,New Haven County,90091847001.0
2879,sg:0f5672657c764176b7fcfe5be0328b88,Elevate Fitness,CT,2019-02-01T00:00:00-05:00,2019-03-01T00:00:00-05:00,6870,264,43.5,"{""<5"":3,""5-20"":53,""21-60"":109,""61-240"":72,"">240"":27}",22400.5,41.048821999999994,-73.56604,713940.0,CT,9.0,9001.0,Fairfield County,90010109001.0
2884,sg:1002082b9cd942f783ec8b0b9b37f9ca,Family Auto Body,CT,2019-02-01T00:00:00-05:00,2019-03-01T00:00:00-05:00,6606,3,109.0,"{""<5"":0,""5-20"":0,""21-60"":0,""61-240"":3,"">240"":0}",451.5,41.202156,-73.19076899999999,811121.0,CT,9.0,9001.0,Fairfield County,90010729003.0
2887,sg:102c96228dd04021aeb12b881c1d3b2a,Hartford HealthCare Medical Group,CT,2019-02-01T00:00:00-05:00,2019-03-01T00:00:00-05:00,6410,5,287.0,"{""<5"":0,""5-20"":1,""21-60"":1,""61-240"":0,"">240"":3}",773.0,41.477194,-72.905647,621111.0,CT,9.0,9009.0,New Haven County,90093433002.0
3248,sg:320e9e29907a479ab09f648e564b8551,Lakeside Lunch,CT,2019-02-01T00:00:00-05:00,2019-03-01T00:00:00-05:00,6777,8,29.5,"{""<5"":0,""5-20"":4,""21-60"":1,""61-240"":1,"">240"":2}",721.0,41.694619,-73.363538,722511.0,CT,9.0,9005.0,Litchfield County,90052671001.0
3392,sg:3fce47f0f2e841e2b439d02d31c62fe2,Ryder,CT,2019-02-01T00:00:00-05:00,2019-03-01T00:00:00-05:00,6002,2,6.5,"{""<5"":0,""5-20"":2,""21-60"":0,""61-240"":0,"">240"":0}",25.0,41.817816,-72.723651,532120.0,CT,9.0,9003.0,Hartford County,90034713002.0
3459,sg:45902dd23c03404d94fcec63ede95bd3,Republic,CT,2019-02-01T00:00:00-05:00,2019-03-01T00:00:00-05:00,6002,483,68.0,"{""<5"":6,""5-20"":86,""21-60"":128,""61-240"":194,"">240"":69}",52031.0,41.828981,-72.735469,722511.0,CT,9.0,9003.0,Hartford County,90034713003.0
3507,sg:49c302bc45da4d53a93cf57fd8bce24d,A A Milford Driving School,CT,2019-02-01T00:00:00-05:00,2019-03-01T00:00:00-05:00,6460,33,14.0,"{""<5"":0,""5-20"":22,""21-60"":11,""61-240"":0,"">240"":0}",720.5,41.226742,-73.069864,453310.0,CT,9.0,9009.0,New Haven County,90091501003.0
3644,sg:57c9c4de7bb44939b9019ea0bead84cb,Soundbridge Academy Of Aerospace & Engineering Elementary,CT,2019-02-01T00:00:00-05:00,2019-03-01T00:00:00-05:00,6067,166,300.5,"{""<5"":3,""5-20"":29,""21-60"":20,""61-240"":25,"">240"":89}",26302.5,41.644365,-72.664689,611110.0,CT,9.0,9003.0,Hartford County,90035242003.0
3805,sg:667384dc2a27448e8e2165e059a2d8ab,Dental Associates of Connecticut,CT,2019-02-01T00:00:00-05:00,2019-03-01T00:00:00-05:00,6484,58,42.5,"{""<5"":2,""5-20"":14,""21-60"":15,""61-240"":19,"">240"":8}",5567.0,41.27717,-73.12086,621210.0,CT,9.0,9001.0,Fairfield County,90011102023.0
3995,sg:7891c069715a4404872fb9bf0874ddeb,All United Locksmith,CT,2019-02-01T00:00:00-05:00,2019-03-01T00:00:00-05:00,6460,6,21.5,"{""<5"":1,""5-20"":2,""21-60"":2,""61-240"":0,"">240"":1}",348.5,41.223065999999996,-73.04414399999999,621511.0,CT,9.0,9009.0,New Haven County,90091509002.0
4065,sg:7e5e6f46e9c14bb9857520fc5617562f,Partners,CT,2019-02-01T00:00:00-05:00,2019-03-01T00:00:00-05:00,6511,373,42.0,"{""<5"":10,""5-20"":114,""21-60"":93,""61-240"":118,"">240"":38}",32095.5,41.308004,-72.934048,722511.0,CT,9.0,9009.0,New Haven County,90093614011.0
4096,sg:81d6f09efa17431db9c9b55c121bda13,CrossFit,CT,2019-02-01T00:00:00-05:00,2019-03-01T00:00:00-05:00,6074,346,67.5,"{""<5"":0,""5-20"":83,""21-60"":72,""61-240"":143,"">240"":48}",36995.0,41.822406,-72.607109,713940.0,CT,9.0,9003.0,Hartford County,90034874003.0
4138,sg:86c20005dd014722b61cd3abc39d0b20,TD Bank,CT,2019-02-01T00:00:00-05:00,2019-03-01T00:00:00-05:00,6001,71,19.0,"{""<5"":2,""5-20"":36,""21-60"":10,""61-240"":1,"">240"":22}",6290.5,41.811715,-72.852522,522110.0,CT,9.0,9003.0,Hartford County,90034622011.0
4199,sg:8be9a3011cd24af59065df1a3f2cc4a2,St Vincent's Stratford Urgent Care Center,CT,2019-02-01T00:00:00-05:00,2019-03-01T00:00:00-05:00,6614,90,54.5,"{""<5"":1,""5-20"":17,""21-60"":30,""61-240"":18,"">240"":24}",9899.0,41.204908,-73.13114399999999,621493.0,CT,9.0,9001.0,Fairfield County,90010808003.0
4229,sg:8e302d971f6b48c1b6f6554caede3647,Boost Bowls,CT,2019-02-01T00:00:00-05:00,2019-03-01T00:00:00-05:00,6492,102,41.0,"{""<5"":2,""5-20"":33,""21-60"":25,""61-240"":40,"">240"":2}",7930.0,41.48766,-72.80804599999999,722515.0,CT,9.0,9009.0,New Haven County,90091754001.0
4433,sg:a3faab56f9bc4ca0bf92d7493378e286,Creative Hypnosis,CT,2019-02-01T00:00:00-05:00,2019-03-01T00:00:00-05:00,6410,51,46.0,"{""<5"":2,""5-20"":8,""21-60"":27,""61-240"":13,"">240"":1}",3395.0,41.509115,-72.89784399999999,621330.0,CT,9.0,9009.0,New Haven County,90093431022.0
4694,sg:bbbf7d8ddd764d56b09810bde171c086,McLean Clinton OD,CT,2019-02-01T00:00:00-05:00,2019-03-01T00:00:00-05:00,6484,910,20.0,"{""<5"":19,""5-20"":455,""21-60"":346,""61-240"":56,"">240"":34}",36336.0,41.263818,-73.132284,446130.0,CT,9.0,9001.0,Fairfield County,90011103022.0
4696,sg:bbcac646c2ca40ae96f9d1a9a8066e03,Tyler English Fitness,CT,2019-02-01T00:00:00-05:00,2019-03-01T00:00:00-05:00,6066,82,59.5,"{""<5"":0,""5-20"":11,""21-60"":32,""61-240"":38,"">240"":1}",7392.5,41.842046,-72.494569,713940.0,CT,9.0,9013.0,Tolland County,90135303021.0
4699,sg:bc1e825381f14c7796a3beb3cfa854d9,Center for Musculoskeletal Care,CT,2019-02-01T00:00:00-05:00,2019-03-01T00:00:00-05:00,6902,165,56.0,"{""<5"":4,""5-20"":44,""21-60"":37,""61-240"":63,"">240"":17}",15620.0,41.079240000000006,-73.5547,621111.0,CT,9.0,9001.0,Fairfield County,90010213001.0
4713,sg:bd84ddc7f83040aeafc7c8590a1fc2df,The Spice & Tea Exchange,CT,2019-02-01T00:00:00-05:00,2019-03-01T00:00:00-05:00,6355,8,10.5,"{""<5"":1,""5-20"":4,""21-60"":2,""61-240"":1,"">240"":0}",284.0,41.354889,-71.969184,446191.0,CT,9.0,9011.0,New London County,90117030001.0
4723,sg:bef77b81325244e7b3901b3dd76c5f81,Aurora Diner Restaurants,CT,2019-02-01T00:00:00-05:00,2019-03-01T00:00:00-05:00,6708,96,18.5,"{""<5"":1,""5-20"":50,""21-60"":35,""61-240"":8,"">240"":2}",3729.0,41.578267,-73.05461899999999,722511.0,,,,,
4737,sg:c07a30ba598c4cc8ad3839aa072dd07d,Pedal Power,CT,2019-02-01T00:00:00-05:00,2019-03-01T00:00:00-05:00,6426,15,27.0,"{""<5"":1,""5-20"":2,""21-60"":9,""61-240"":2,"">240"":1}",933.0,41.352954,-72.40758100000001,451110.0,CT,9.0,9007.0,Middlesex County,90076301003.0
4819,sg:c7f91edd59aa4e51b70fbaf11d091570,Subway,CT,2019-02-01T00:00:00-05:00,2019-03-01T00:00:00-05:00,6483,130,18.5,"{""<5"":11,""5-20"":60,""21-60"":20,""61-240"":38,"">240"":1}",7546.5,41.360298,-73.095344,722513.0,CT,9.0,9009.0,New Haven County,90091302005.0
4835,sg:c9b08df840604f85ae1381c0363ee17e,Hk Fitness,CT,2019-02-01T00:00:00-05:00,2019-03-01T00:00:00-05:00,6441,55,23.0,"{""<5"":2,""5-20"":20,""21-60"":25,""61-240"":6,"">240"":2}",2650.5,41.495112,-72.558915,713940.0,CT,9.0,9007.0,Middlesex County,90075901001.0
4913,sg:d1595854c7dd42f3bbd3263034a9f470,Mark T Sheehan High School,CT,2019-02-01T00:00:00-05:00,2019-03-01T00:00:00-05:00,6492,1859,108.0,"{""<5"":22,""5-20"":207,""21-60"":281,""61-240"":774,"">240"":575}",268510.0,41.485506,-72.835964,611110.0,CT,9.0,9009.0,New Haven County,90091756004.0
5001,sg:d9576d74992f4545993ac33ce0da6c7f,Michaels Stores,CT,2019-02-01T00:00:00-05:00,2019-03-01T00:00:00-05:00,6804,26,10.0,"{""<5"":0,""5-20"":26,""21-60"":0,""61-240"":0,"">240"":0}",325.0,41.434943,-73.413013,451120.0,CT,9.0,9001.0,Fairfield County,90012053003.0
5031,sg:dc0fba184ba7430d9192cb86d00fa6b6,Cohen Jodi L DDS,CT,2019-02-01T00:00:00-05:00,2019-03-01T00:00:00-05:00,6471,1,10.0,"{""<5"":0,""5-20"":1,""21-60"":0,""61-240"":0,"">240"":0}",12.5,41.327166,-72.767052,621210.0,CT,9.0,9009.0,New Haven County,90091861003.0
5074,sg:df84dddc14ce4c7298cf6eb339f45b3d,Steam,CT,2019-02-01T00:00:00-05:00,2019-03-01T00:00:00-05:00,6820,165,22.0,"{""<5"":3,""5-20"":70,""21-60"":54,""61-240"":36,"">240"":2}",8967.5,41.076378000000005,-73.471287,722511.0,CT,9.0,9001.0,Fairfield County,90010304001.0
5109,sg:e387c087c9d54e72bd8269932a6f944c,Canterbury Children's Academy,CT,2019-02-01T00:00:00-05:00,2019-03-01T00:00:00-05:00,6331,14,5.0,"{""<5"":1,""5-20"":11,""21-60"":1,""61-240"":1,"">240"":0}",331.0,41.707757,-71.987854,624410.0,CT,9.0,9015.0,Windham County,90159061002.0
5229,sg:eecc6df1c0774ec5bd0c8f5ea826c913,Bob's Stores,CT,2019-02-01T00:00:00-05:00,2019-03-01T00:00:00-05:00,6460,107,19.0,"{""<5"":1,""5-20"":64,""21-60"":40,""61-240"":2,"">240"":0}",2723.5,41.22814,-73.04777299999999,448140.0,CT,9.0,9009.0,New Haven County,90091509002.0
5314,sg:f7cd04787e65403abc5bf41b082519e3,Camp Bow Wow,CT,2019-02-01T00:00:00-05:00,2019-03-01T00:00:00-05:00,6074,65,10.0,"{""<5"":2,""5-20"":41,""21-60"":9,""61-240"":8,"">240"":5}",3286.0,41.836443,-72.60378299999999,812910.0,CT,9.0,9003.0,Hartford County,90034873001.0
5372,sg:fcb6fd79dc4b447f8d1972a8bf2714bf,Schoetz Real Estate,CT,2019-02-01T00:00:00-05:00,2019-03-01T00:00:00-05:00,6830,12,71.5,"{""<5"":0,""5-20"":4,""21-60"":1,""61-240"":4,"">240"":3}",1412.5,41.021728,-73.628345,531210.0,CT,9.0,9001.0,Fairfield County,90010105001.0
5373,sg:fcc87f0cd9474ea4b2b2be37c0e21f7c,Brooksvale Park,CT,2019-02-01T00:00:00-05:00,2019-03-01T00:00:00-05:00,6518,2,93.0,"{""<5"":0,""5-20"":0,""21-60"":0,""61-240"":2,"">240"":0}",301.0,41.45387,-72.920576,712190.0,CT,9.0,9009.0,New Haven County,90091659001.0
5531,sg:0a529c40e2dc4434891174e65188ac1c,Reeves Field,CT,2019-02-01T00:00:00-05:00,2019-03-01T00:00:00-05:00,6787,152,25.0,"{""<5"":5,""5-20"":67,""21-60"":46,""61-240"":31,"">240"":3}",8098.5,41.674972,-73.072327,713940.0,CT,9.0,9005.0,Litchfield County,90053492002.0
5587,sg:0f688e5ad92941e7b75386648d5c55e4,Bank of America,CT,2019-02-01T00:00:00-05:00,2019-03-01T00:00:00-05:00,6067,39,6.0,"{""<5"":2,""5-20"":30,""21-60"":3,""61-240"":3,"">240"":1}",1193.0,41.644096000000005,-72.677995,522110.0,CT,9.0,9003.0,Hartford County,90034903024.0
5661,sg:15d4b0b3f355405c8f26067a3173349b,Dunkin',CT,2019-02-01T00:00:00-05:00,2019-03-01T00:00:00-05:00,6379,164,8.0,"{""<5"":19,""5-20"":94,""21-60"":11,""61-240"":12,"">240"":28}",10194.0,41.401990999999995,-71.846861,722515.0,CT,9.0,9011.0,New London County,90117051023.0
5675,sg:17143d20d36a4d32bee713203a552315,Johnson Memorial Hospital,CT,2019-02-01T00:00:00-05:00,2019-03-01T00:00:00-05:00,6076,250,59.5,"{""<5"":5,""5-20"":73,""21-60"":48,""61-240"":58,"">240"":66}",27438.0,41.979136,-72.39097,622110.0,CT,9.0,9013.0,Tolland County,90138902023.0
5695,sg:18c3a6b949e34de78d0510e2736d1b30,Cigar Store & More,CT,2019-02-01T00:00:00-05:00,2019-03-01T00:00:00-05:00,6340,50,11.5,"{""<5"":2,""5-20"":28,""21-60"":12,""61-240"":8,"">240"":0}",2045.0,41.382418,-72.026566,453991.0,CT,9.0,9011.0,New London County,90117021002.0
5750,sg:1df26baaafee4c57a6f68e75c6859b2d,Valero Energy,CT,2019-02-01T00:00:00-05:00,2019-03-01T00:00:00-05:00,6790,27,17.0,"{""<5"":0,""5-20"":16,""21-60"":3,""61-240"":3,"">240"":5}",1973.0,41.797227,-73.12114,447110.0,CT,9.0,9005.0,Litchfield County,90053103002.0
5752,sg:1e25c397fb384bec9d5c71988d491171,Staples,CT,2019-02-01T00:00:00-05:00,2019-03-01T00:00:00-05:00,6241,205,17.0,"{""<5"":6,""5-20"":112,""21-60"":53,""61-240"":29,"">240"":5}",9126.0,41.841463,-71.885159,453210.0,CT,9.0,9015.0,Windham County,90159044003.0
6007,sg:35ad0c1a70904a319edcc24d7f5888a4,BJ's Optical,CT,2019-02-01T00:00:00-05:00,2019-03-01T00:00:00-05:00,6804,508,8.0,"{""<5"":36,""5-20"":352,""21-60"":81,""61-240"":14,"">240"":25}",15877.5,41.437363,-73.411261,621320.0,CT,9.0,9001.0,Fairfield County,90012053003.0
6033,sg:3754e6d74f5b434fb270265b4162e6d1,Comprehensive Psychiatric Care PC,CT,2019-02-01T00:00:00-05:00,2019-03-01T00:00:00-05:00,6360,96,26.0,"{""<5"":0,""5-20"":39,""21-60"":43,""61-240"":12,"">240"":2}",4515.0,41.556319,-72.10878100000001,621111.0,CT,9.0,9011.0,New London County,90116962001.0
6137,sg:4254bde8d5a5437ea7d31150714ff199,Ck Auto Wholesalers,CT,2019-02-01T00:00:00-05:00,2019-03-01T00:00:00-05:00,6479,74,10.0,"{""<5"":5,""5-20"":43,""21-60"":5,""61-240"":9,"">240"":12}",4987.0,41.564118,-72.900221,441120.0,CT,9.0,9003.0,Hartford County,90034304002.0
6143,sg:432fe24f47dc48ca86bc7dbee0cc30dd,The Medicine Shoppe,CT,2019-02-01T00:00:00-05:00,2019-03-01T00:00:00-05:00,6484,47,10.0,"{""<5"":0,""5-20"":34,""21-60"":7,""61-240"":1,"">240"":5}",2059.0,41.331835999999996,-73.137366,446110.0,CT,9.0,9001.0,Fairfield County,90011106002.0
6393,sg:5bb02a3443d84eeabefab7377607d8f5,Pastanch,CT,2019-02-01T00:00:00-05:00,2019-03-01T00:00:00-05:00,6770,29,12.0,"{""<5"":3,""5-20"":13,""21-60"":4,""61-240"":4,"">240"":5}",2134.0,41.507526,-73.037968,445110.0,CT,9.0,9009.0,New Haven County,90093451004.0
6622,sg:701e26c0324d49f18d0e97e57659dd57,Sally & Bob's Eatery,CT,2019-02-01T00:00:00-05:00,2019-03-01T00:00:00-05:00,6107,193,33.0,"{""<5"":7,""5-20"":55,""21-60"":89,""61-240"":37,"">240"":5}",11078.0,41.762739,-72.741538,445120.0,CT,9.0,9003.0,Hartford County,90034971004.0
6785,sg:80ad324db9b94027a0963839217dc528,Firestone Complete Auto Care,CT,2019-02-01T00:00:00-05:00,2019-03-01T00:00:00-05:00,6705,79,11.0,"{""<5"":6,""5-20"":43,""21-60"":20,""61-240"":9,"">240"":1}",2957.0,41.563697999999995,-73.010193,441310.0,CT,9.0,9009.0,New Haven County,90093512001.0
6878,sg:8bb0d913b1724bf38af7ebbbcffedaca,Party Magic N' More,CT,2019-02-01T00:00:00-05:00,2019-03-01T00:00:00-05:00,6477,238,20.0,"{""<5"":4,""5-20"":122,""21-60"":69,""61-240"":37,"">240"":6}",11338.0,41.278249,-72.988642,453220.0,CT,9.0,9009.0,New Haven County,90091571002.0
6963,sg:91ded52f34cb404d9d80512b73fa1741,Kern Park,CT,2019-02-01T00:00:00-05:00,2019-03-01T00:00:00-05:00,6010,130,96.0,"{""<5"":2,""5-20"":24,""21-60"":24,""61-240"":50,"">240"":30}",16002.0,41.702372,-72.901329,712190.0,CT,9.0,9003.0,Hartford County,90034060022.0
7273,sg:b3aeb737b2c94f2d97970c5bbec2a931,Modern Tire & Auto Service,CT,2019-02-01T00:00:00-05:00,2019-03-01T00:00:00-05:00,6032,12,16.5,"{""<5"":2,""5-20"":6,""21-60"":2,""61-240"":1,"">240"":1}",551.5,41.730012,-72.829403,441310.0,CT,9.0,9003.0,Hartford County,90034602031.0
7297,sg:b5c36a3ec54846b4ad278a7ad135ac47,Bill Landan Marine Service,CT,2019-02-01T00:00:00-05:00,2019-03-01T00:00:00-05:00,6854,12,12.0,"{""<5"":0,""5-20"":9,""21-60"":1,""61-240"":2,"">240"":0}",454.0,41.096149,-73.415491,441222.0,CT,9.0,9001.0,Fairfield County,90010441002.0
7466,sg:c4c01131233a4fac96d2483ae457dd2e,Fitness Showrooms,CT,2019-02-01T00:00:00-05:00,2019-03-01T00:00:00-05:00,6905,91,21.0,"{""<5"":5,""5-20"":40,""21-60"":19,""61-240"":9,"">240"":18}",6956.5,41.102134,-73.548479,451110.0,CT,9.0,9001.0,Fairfield County,90010206001.0
7479,sg:c5f0b94e63484fdfbfcd2f875de015a2,Jazzi Auto Sales,CT,2019-02-01T00:00:00-05:00,2019-03-01T00:00:00-05:00,6450,6,316.0,"{""<5"":0,""5-20"":2,""21-60"":0,""61-240"":0,"">240"":4}",985.0,41.514655,-72.804987,,CT,9.0,9009.0,New Haven County,90091711003.0
7675,sg:d8fd32e0550c4e3a842cbb768b4bc43a,Farmers Insurance Group,CT,2019-02-01T00:00:00-05:00,2019-03-01T00:00:00-05:00,6413,1,7.0,"{""<5"":0,""5-20"":1,""21-60"":0,""61-240"":0,"">240"":0}",12.5,41.271378000000006,-72.50439899999999,524210.0,CT,9.0,9007.0,Middlesex County,90076102002.0
7793,sg:e5757d08da954f418b91d8baeb9508fe,Torrington Fire Department North End Station,CT,2019-02-01T00:00:00-05:00,2019-03-01T00:00:00-05:00,6790,38,31.0,"{""<5"":2,""5-20"":10,""21-60"":14,""61-240"":6,"">240"":6}",3040.0,41.818889,-73.122336,922160.0,CT,9.0,9005.0,Litchfield County,90053107004.0
7814,sg:e8684c79eedb493da1bbcb5300b458ab,Dream Builders,CT,2019-02-01T00:00:00-05:00,2019-03-01T00:00:00-05:00,6085,55,84.0,"{""<5"":0,""5-20"":7,""21-60"":17,""61-240"":19,"">240"":12}",6515.5,41.745275,-72.870209,442299.0,CT,9.0,9003.0,Hartford County,90034603011.0
8037,sg:fd47bcb2133640f9b237fb197f8d5172,Founders Movers,CT,2019-02-01T00:00:00-05:00,2019-03-01T00:00:00-05:00,6001,1,5.0,"{""<5"":0,""5-20"":1,""21-60"":0,""61-240"":0,"">240"":0}",12.5,41.814167,-72.85712099999999,484210.0,CT,9.0,9003.0,Hartford County,90034622011.0
8059,sg:ff1ac394cfba4f198bd75f4883b76c76,Hertz,CT,2019-02-01T00:00:00-05:00,2019-03-01T00:00:00-05:00,6478,5,9.0,"{""<5"":0,""5-20"":3,""21-60"":1,""61-240"":0,"">240"":1}",318.0,41.480748,-73.142404,532111.0,,,,,
8225,sg:0d330d8fac524b9d96237857a10ece79,New England Auto World,CT,2019-02-01T00:00:00-05:00,2019-03-01T00:00:00-05:00,6418,959,72.0,"{""<5"":12,""5-20"":265,""21-60"":179,""61-240"":268,"">240"":235}",107326.0,41.33293,-73.09049300000001,,CT,9.0,9009.0,New Haven County,90091202001.0
8226,sg:0d42abd512fa4dccad7b360f08554e75,Hartford Infant Toddler Early Lrng Ctr,CT,2019-02-01T00:00:00-05:00,2019-03-01T00:00:00-05:00,6112,43,15.0,"{""<5"":1,""5-20"":24,""21-60"":8,""61-240"":6,"">240"":4}",2489.5,41.797121000000004,-72.689673,624410.0,CT,9.0,9003.0,Hartford County,90035015001.0
8538,sg:2a11ee31f51141eea456d13bc8fbdc6f,Kaleidoscope Kids,CT,2019-02-01T00:00:00-05:00,2019-03-01T00:00:00-05:00,6877,27,78.0,"{""<5"":0,""5-20"":5,""21-60"":6,""61-240"":13,"">240"":3}",2982.0,41.361474,-73.52432900000001,624410.0,CT,9.0,9001.0,Fairfield County,90012456001.0
8577,sg:2da1d7c6d649403b8d38cf057758403f,American Institute,CT,2019-02-01T00:00:00-05:00,2019-03-01T00:00:00-05:00,6110,100,152.0,"{""<5"":0,""5-20"":12,""21-60"":10,""61-240"":55,"">240"":23}",14352.5,41.726875,-72.725973,611310.0,CT,9.0,9003.0,Hartford County,90034961002.0
8648,sg:346043020948434ea8c560172ee77c24,Quest Diagnostics,CT,2019-02-01T00:00:00-05:00,2019-03-01T00:00:00-05:00,6105,143,52.0,"{""<5"":2,""5-20"":28,""21-60"":48,""61-240"":32,"">240"":33}",15035.0,41.769022,-72.702476,621511.0,CT,9.0,9003.0,Hartford County,90035031004.0
8677,sg:37a4a9a59146439e98867026e30324f7,Prospect Pizza Restaurant,CT,2019-02-01T00:00:00-05:00,2019-03-01T00:00:00-05:00,6119,42,102.5,"{""<5"":0,""5-20"":14,""21-60"":5,""61-240"":9,"">240"":14}",5092.0,41.752528999999996,-72.718023,722511.0,CT,9.0,9003.0,Hartford County,90034967001.0
8681,sg:380d39a79de54a5f9de9c3c90f6e7904,Edward Jones,CT,2019-02-01T00:00:00-05:00,2019-03-01T00:00:00-05:00,6082,5,57.0,"{""<5"":0,""5-20"":2,""21-60"":2,""61-240"":1,"">240"":0}",256.5,41.988727000000004,-72.560331,523999.0,CT,9.0,9003.0,Hartford County,90034808002.0
8741,sg:3d99f44d099a420c9e8b9dc3fed5289c,WinWholesale,CT,2019-02-01T00:00:00-05:00,2019-03-01T00:00:00-05:00,6340,1,106.0,"{""<5"":0,""5-20"":0,""21-60"":0,""61-240"":1,"">240"":0}",150.5,41.377034,-72.02473499999999,423990.0,CT,9.0,9011.0,New London County,90117021002.0
8766,sg:40322636e188445394fb6d80f35d3fad,Planned Parenthood,CT,2019-02-01T00:00:00-05:00,2019-03-01T00:00:00-05:00,6511,132,187.5,"{""<5"":1,""5-20"":16,""21-60"":20,""61-240"":38,"">240"":57}",20411.5,41.319855,-72.91830300000001,621410.0,CT,9.0,9009.0,New Haven County,90091419001.0
8902,sg:4cae41a3fa6c4d8eb5fc26932a8770a1,Sams Food Store,CT,2019-02-01T00:00:00-05:00,2019-03-01T00:00:00-05:00,6118,76,10.0,"{""<5"":6,""5-20"":47,""21-60"":10,""61-240"":6,"">240"":7}",3590.5,41.736743,-72.628703,445110.0,CT,9.0,9003.0,Hartford County,90035108002.0
9087,sg:5d75ecb30d394107b807786e0d302715,Southern Connecticut Freightliner,CT,2019-02-01T00:00:00-05:00,2019-03-01T00:00:00-05:00,6405,83,26.0,"{""<5"":1,""5-20"":36,""21-60"":18,""61-240"":15,"">240"":13}",6559.0,41.297615,-72.75630799999999,441310.0,CT,9.0,9009.0,New Haven County,90091847001.0
9248,sg:6be9c3913cce4ee79a051c1b12fb7034,ALDI,CT,2019-02-01T00:00:00-05:00,2019-03-01T00:00:00-05:00,6351,303,16.0,"{""<5"":8,""5-20"":166,""21-60"":117,""61-240"":9,"">240"":3}",8908.0,41.58551,-71.99443000000001,445110.0,CT,9.0,9011.0,New London County,90117101002.0
9304,sg:711f26a632ed4c779954f979ac1c3bed,Family Dental Practice Of Southington,CT,2019-02-01T00:00:00-05:00,2019-03-01T00:00:00-05:00,6489,4,17.0,"{""<5"":1,""5-20"":1,""21-60"":1,""61-240"":1,"">240"":0}",206.0,41.607449,-72.878423,621210.0,CT,9.0,9003.0,Hartford County,90034306022.0
9336,sg:75247527f92f4762a40abb2b3a0fefbf,Charter Oak Landing,CT,2019-02-01T00:00:00-05:00,2019-03-01T00:00:00-05:00,6114,5,13.0,"{""<5"":0,""5-20"":3,""21-60"":0,""61-240"":2,"">240"":0}",338.5,41.746177,-72.655406,712190.0,CT,9.0,9003.0,Hartford County,90035025001.0
9395,sg:7ac0c26f73474d1bae854a354c66c54d,Stop &amp Shop,CT,2019-02-01T00:00:00-05:00,2019-03-01T00:00:00-05:00,6033,465,20.0,"{""<5"":11,""5-20"":248,""21-60"":155,""61-240"":36,"">240"":15}",18423.0,41.722273,-72.624894,445110.0,,,,,
9470,sg:82a50b1fbbe7405bac3a7fd78f0584a0,Domino's Pizza,CT,2019-02-01T00:00:00-05:00,2019-03-01T00:00:00-05:00,6457,24,16.0,"{""<5"":1,""5-20"":13,""21-60"":7,""61-240"":2,"">240"":1}",989.5,41.546155,-72.650911,722513.0,CT,9.0,9007.0,Middlesex County,90075420003.0
9488,sg:84ade943f6b9449b8de6ead06131e6de,Fit4Mom,CT,2019-02-01T00:00:00-05:00,2019-03-01T00:00:00-05:00,6371,96,21.5,"{""<5"":4,""5-20"":41,""21-60"":18,""61-240"":26,"">240"":7}",6844.5,41.31886,-72.329163,713940.0,,,,,
9634,sg:9307294624c74f269da61373232f9109,TJ's Landscaping,CT,2019-02-01T00:00:00-05:00,2019-03-01T00:00:00-05:00,6109,46,27.5,"{""<5"":1,""5-20"":19,""21-60"":13,""61-240"":11,"">240"":2}",2902.0,41.703926,-72.672434,444130.0,CT,9.0,9003.0,Hartford County,90034922004.0
9642,sg:9483087bab3849aba6b2b2c5086fa3e4,Yale New Haven Hospital,CT,2019-02-01T00:00:00-05:00,2019-03-01T00:00:00-05:00,6405,90,98.5,"{""<5"":1,""5-20"":16,""21-60"":17,""61-240"":34,"">240"":22}",11288.0,41.284667999999996,-72.82118100000001,622110.0,CT,9.0,9009.0,New Haven County,90091842001.0
9647,sg:94c72db8637f44148ce59ae4b3292017,Storrs Wine and Spirits,CT,2019-02-01T00:00:00-05:00,2019-03-01T00:00:00-05:00,6268,58,14.5,"{""<5"":5,""5-20"":27,""21-60"":16,""61-240"":6,"">240"":4}",2861.0,41.804674,-72.242139,445310.0,CT,9.0,9013.0,Tolland County,90138811002.0
9808,sg:a371a271d5d648ab8e1fed11af65f192,Puerto Vallarta,CT,2019-02-01T00:00:00-05:00,2019-03-01T00:00:00-05:00,6477,338,49.5,"{""<5"":9,""5-20"":90,""21-60"":93,""61-240"":134,"">240"":12}",27961.0,41.261503999999995,-73.008673,722511.0,CT,9.0,9009.0,New Haven County,90091571001.0
9874,sg:aa73699a54ce4eb5800a78b2cddad5dc,Subway,CT,2019-02-01T00:00:00-05:00,2019-03-01T00:00:00-05:00,6010,71,10.0,"{""<5"":5,""5-20"":42,""21-60"":15,""61-240"":8,"">240"":1}",2589.0,41.671871,-72.946077,722513.0,CT,9.0,9003.0,Hartford County,90034061002.0
9938,sg:b14f1b6714704dc39055ef34ae1a957e,Skip's 19th Hole,CT,2019-02-01T00:00:00-05:00,2019-03-01T00:00:00-05:00,6604,26,72.5,"{""<5"":0,""5-20"":2,""21-60"":8,""61-240"":10,"">240"":6}",3294.0,41.187179,-73.21969399999999,722511.0,CT,9.0,9001.0,Fairfield County,90010721001.0
9957,sg:b3da40c44b0149b8820f5b8f240a4ed7,Poochies Parlor,CT,2019-02-01T00:00:00-05:00,2019-03-01T00:00:00-05:00,6405,4,434.0,"{""<5"":0,""5-20"":1,""21-60"":0,""61-240"":1,"">240"":2}",643.0,41.294446,-72.782236,453910.0,CT,9.0,9009.0,New Haven County,90091847001.0
10000,sg:b939b03ceed94a3f99b1f6a0e49874ff,Subway,CT,2019-02-01T00:00:00-05:00,2019-03-01T00:00:00-05:00,6484,152,15.0,"{""<5"":6,""5-20"":84,""21-60"":36,""61-240"":20,"">240"":6}",6973.0,41.288188,-73.1127,722513.0,CT,9.0,9001.0,Fairfield County,90011102023.0
10077,sg:c1a0ce3ec2994f67a0ab52e23a087b7c,Kamp William C Housatonic Valley Insurance Agency,CT,2019-02-01T00:00:00-05:00,2019-03-01T00:00:00-05:00,6776,3,410.0,"{""<5"":0,""5-20"":0,""21-60"":0,""61-240"":1,"">240"":2}",630.5,41.577557,-73.410152,524210.0,CT,9.0,9005.0,Litchfield County,90052536002.0
10208,sg:cf05e83e3f75457f8f0269bfa8526d7b,Bear Hugs Child Care Center,CT,2019-02-01T00:00:00-05:00,2019-03-01T00:00:00-05:00,6825,1,587.0,"{""<5"":0,""5-20"":0,""21-60"":0,""61-240"":0,"">240"":1}",240.0,41.17725,-73.23229599999999,624410.0,CT,9.0,9001.0,Fairfield County,90010613001.0
10583,sg:f1b9087cc6aa47ab8ebcf6cf95eb5a9e,Applebee's,CT,2019-02-01T00:00:00-05:00,2019-03-01T00:00:00-05:00,6810,281,42.0,"{""<5"":9,""5-20"":66,""21-60"":125,""61-240"":78,"">240"":3}",18369.0,41.41982,-73.41888,722511.0,CT,9.0,9001.0,Fairfield County,90012114003.0
10614,sg:f56059aba4ff48a2bf0f5c500f94c962,Bank of America,CT,2019-02-01T00:00:00-05:00,2019-03-01T00:00:00-05:00,6460,4,241.5,"{""<5"":0,""5-20"":2,""21-60"":0,""61-240"":0,"">240"":2}",505.0,41.238795,-73.035076,522110.0,CT,9.0,9009.0,New Haven County,90091508001.0
10745,sg:0225cd7d09e443e29022e3e971d4442c,NewBrook Kitchen Artisan Market,CT,2019-02-01T00:00:00-05:00,2019-03-01T00:00:00-05:00,6880,51,83.0,"{""<5"":1,""5-20"":8,""21-60"":11,""61-240"":22,"">240"":9}",6019.0,41.123425,-73.372353,445110.0,CT,9.0,9001.0,Fairfield County,90010504001.0
10794,sg:06388a409f8d45dc93e2cea81f390cb0,Center Spirit Shoppe,CT,2019-02-01T00:00:00-05:00,2019-03-01T00:00:00-05:00,6019,22,7.0,"{""<5"":0,""5-20"":17,""21-60"":1,""61-240"":0,"">240"":4}",1213.0,41.811514,-72.92258100000001,445310.0,CT,9.0,9003.0,Hartford County,90034641023.0
10888,sg:0dd008653025407eb24e37257a6fd2e9,Center For Pain Rehabilitation,CT,2019-02-01T00:00:00-05:00,2019-03-01T00:00:00-05:00,6810,142,39.5,"{""<5"":8,""5-20"":28,""21-60"":59,""61-240"":43,"">240"":4}",10191.0,41.413616,-73.406723,621111.0,CT,9.0,9001.0,Fairfield County,90012104001.0
10890,sg:0e2e866fd31c48138b1db82490ff01f2,NewLife Christian Fellowship,CT,2019-02-01T00:00:00-05:00,2019-03-01T00:00:00-05:00,6109,121,80.0,"{""<5"":1,""5-20"":27,""21-60"":22,""61-240"":41,"">240"":30}",14601.5,41.689896000000005,-72.657013,813110.0,CT,9.0,9003.0,Hartford County,90034926001.0
11119,sg:22efbdf3a88f4810b032d2a6da13626b,Adriana's Italian Restaurant & Catering,CT,2019-02-01T00:00:00-05:00,2019-03-01T00:00:00-05:00,6511,388,71.5,"{""<5"":7,""5-20"":89,""21-60"":82,""61-240"":158,"">240"":52}",40710.0,41.308244,-72.915276,722511.0,CT,9.0,9009.0,New Haven County,90091421001.0
11143,sg:252385e6d93143cbbcc05954bc8ca0ef,G&K Services,CT,2019-02-01T00:00:00-05:00,2019-03-01T00:00:00-05:00,6114,363,24.0,"{""<5"":9,""5-20"":152,""21-60"":77,""61-240"":87,"">240"":38}",27254.5,41.741474,-72.652454,453310.0,CT,9.0,9003.0,Hartford County,90035025001.0
11202,sg:2a683553663d4916a328187a0cdb7e95,Whole Body Wellness & Physical Therapy,CT,2019-02-01T00:00:00-05:00,2019-03-01T00:00:00-05:00,6033,41,53.0,"{""<5"":2,""5-20"":9,""21-60"":10,""61-240"":19,"">240"":1}",3622.0,41.717662,-72.584767,621340.0,CT,9.0,9003.0,Hartford County,90035203011.0
11233,sg:2d188faca6d7466aa081dcf86300c576,Prospect Nursery School,CT,2019-02-01T00:00:00-05:00,2019-03-01T00:00:00-05:00,6712,18,388.0,"{""<5"":0,""5-20"":2,""21-60"":0,""61-240"":1,"">240"":15}",3775.5,41.501759,-72.978711,624410.0,CT,9.0,9009.0,New Haven County,90093471002.0
11250,sg:2e72bc7e2a684e4090d594699f16aa77,The Pickle Barrel,CT,2019-02-01T00:00:00-05:00,2019-03-01T00:00:00-05:00,6615,211,13.0,"{""<5"":7,""5-20"":113,""21-60"":44,""61-240"":24,"">240"":23}",12344.0,41.186721999999996,-73.130652,445120.0,CT,9.0,9001.0,Fairfield County,90010806001.0
11285,sg:3207ee5f16fc43788b9e376dbf55ffe3,Church of the Christian Brotherhood,CT,2019-02-01T00:00:00-05:00,2019-03-01T00:00:00-05:00,6422,3,632.0,"{""<5"":0,""5-20"":0,""21-60"":0,""61-240"":0,"">240"":3}",720.0,41.446739,-72.727868,813110.0,CT,9.0,9007.0,Middlesex County,90075851004.0
11297,sg:3388860129974b47b98ed804e960e815,Greater Hartford Academy of Arts,CT,2019-02-01T00:00:00-05:00,2019-03-01T00:00:00-05:00,6106,982,62.0,"{""<5"":11,""5-20"":227,""21-60"":234,""61-240"":336,"">240"":174}",104670.0,41.750688000000004,-72.685563,611310.0,CT,9.0,9003.0,Hartford County,90035027003.0
11529,sg:4797b327031a48cdbff1c064c6a8f2a8,First Church of Christ Scientist,CT,2019-02-01T00:00:00-05:00,2019-03-01T00:00:00-05:00,6033,5,63.0,"{""<5"":0,""5-20"":0,""21-60"":2,""61-240"":3,"">240"":0}",532.5,41.71075,-72.606094,813110.0,CT,9.0,9003.0,Hartford County,90035203021.0
11571,sg:4acd851910cc4259bfcc760b94d0ac79,Unitarian Universalist Society Shoreline Office,CT,2019-02-01T00:00:00-05:00,2019-03-01T00:00:00-05:00,6443,11,22.0,"{""<5"":0,""5-20"":5,""21-60"":4,""61-240"":2,"">240"":0}",525.5,41.278519,-72.623923,813110.0,CT,9.0,9009.0,New Haven County,90091941004.0
11713,sg:567af48989e44484b7f5d78e0b12fd02,Midas,CT,2019-02-01T00:00:00-05:00,2019-03-01T00:00:00-05:00,6489,4,51.5,"{""<5"":0,""5-20"":1,""21-60"":1,""61-240"":2,"">240"":0}",354.0,41.619181,-72.87425,811111.0,CT,9.0,9003.0,Hartford County,90034306011.0
11826,sg:5f6b29dee7a14d74a1b1ca66977c32da,Mona Lisa Restaurant,CT,2019-02-01T00:00:00-05:00,2019-03-01T00:00:00-05:00,6716,108,83.5,"{""<5"":0,""5-20"":10,""21-60"":26,""61-240"":56,"">240"":16}",13446.0,41.576884,-72.999898,722511.0,CT,9.0,9009.0,New Haven County,90093612003.0
11836,sg:60a29df58c134e35952358cdef6f4179,Friend To Friend Thrift Shop,CT,2019-02-01T00:00:00-05:00,2019-03-01T00:00:00-05:00,6026,5,11.0,"{""<5"":1,""5-20"":3,""21-60"":0,""61-240"":1,"">240"":0}",190.5,41.912521999999996,-72.739527,453310.0,CT,9.0,9003.0,Hartford County,90034701003.0
11840,sg:610df9db4b2b4277b119dcbf9b68f5fb,Jan Fitzgerald Briscoe LMFT,CT,2019-02-01T00:00:00-05:00,2019-03-01T00:00:00-05:00,6371,11,114.0,"{""<5"":0,""5-20"":3,""21-60"":1,""61-240"":4,"">240"":3}",1400.0,41.324259999999995,-72.335452,621330.0,CT,9.0,9011.0,New London County,90116601012.0
11936,sg:69b5afa7acf44fbeaa33092da063b535,Meriden Municipal Federal Credit Union,CT,2019-02-01T00:00:00-05:00,2019-03-01T00:00:00-05:00,6451,26,180.0,"{""<5"":0,""5-20"":3,""21-60"":2,""61-240"":9,"">240"":12}",4353.0,41.553214000000004,-72.846007,522110.0,CT,9.0,9003.0,Hartford County,90034303011.0
12060,sg:75cd1e54c32648c8905689ee3c17906b,Danny's Drive In,CT,2019-02-01T00:00:00-05:00,2019-03-01T00:00:00-05:00,6614,79,14.0,"{""<5"":2,""5-20"":46,""21-60"":16,""61-240"":9,"">240"":6}",4022.5,41.200082,-73.114385,722511.0,CT,9.0,9001.0,Fairfield County,90010807001.0
12116,sg:7b99eda530204bf6ba99a0874657e802,Jenny Mathews DDS MS PhD,CT,2019-02-01T00:00:00-05:00,2019-03-01T00:00:00-05:00,6880,68,61.0,"{""<5"":1,""5-20"":10,""21-60"":20,""61-240"":22,"">240"":15}",7848.5,41.147024,-73.36619300000001,621210.0,CT,9.0,9001.0,Fairfield County,90010501002.0
12123,sg:7c7f717eb4724afcaa0b127e3d1ca778,Aldos,CT,2019-02-01T00:00:00-05:00,2019-03-01T00:00:00-05:00,6110,201,11.0,"{""<5"":8,""5-20"":119,""21-60"":48,""61-240"":22,"">240"":4}",7722.5,41.723807,-72.761637,448120.0,CT,9.0,9003.0,Hartford County,90034962004.0
12139,sg:7d903ed2299e4f1fa226f073db68e637,Weston's Antiques,CT,2019-02-01T00:00:00-05:00,2019-03-01T00:00:00-05:00,6238,149,21.0,"{""<5"":2,""5-20"":72,""21-60"":22,""61-240"":41,"">240"":12}",10846.5,41.796079999999996,-72.414022,453310.0,CT,9.0,9013.0,Tolland County,90138501002.0
12144,sg:7e0552648159471dae5eaef1d903fbd8,GNC (General Nutrition Centers),CT,2019-02-01T00:00:00-05:00,2019-03-01T00:00:00-05:00,6032,12,6.0,"{""<5"":3,""5-20"":8,""21-60"":1,""61-240"":0,"">240"":0}",148.0,41.722524,-72.76241999999999,446191.0,CT,9.0,9003.0,Hartford County,90034962004.0
12230,sg:84eb73090c29495b9ea1e5a4bc02abb7,Dockside Resort Bar,CT,2019-02-01T00:00:00-05:00,2019-03-01T00:00:00-05:00,6320,80,33.0,"{""<5"":0,""5-20"":29,""21-60"":25,""61-240"":22,"">240"":4}",5646.0,41.353596,-72.09397299999999,722515.0,CT,9.0,9011.0,New London County,90116905002.0
12292,sg:8a3aecc500f24270bb332f09b73d3b4c,Park Lane Pizza,CT,2019-02-01T00:00:00-05:00,2019-03-01T00:00:00-05:00,6119,115,14.0,"{""<5"":7,""5-20"":59,""21-60"":22,""61-240"":6,"">240"":21}",7589.0,41.755578,-72.72912099999999,722511.0,CT,9.0,9003.0,Hartford County,90034967003.0
12546,sg:a440fd809c7a483bbca9ac7dbb1cf1e2,Wooster Memorial Park,CT,2019-02-01T00:00:00-05:00,2019-03-01T00:00:00-05:00,6511,160,50.0,"{""<5"":8,""5-20"":34,""21-60"":46,""61-240"":44,"">240"":28}",15650.0,41.303183000000004,-72.919225,712190.0,CT,9.0,9009.0,New Haven County,90091422002.0
12584,sg:a73aefbb362e42c1b25b7d351f2545c1,Charlene Elizabeth Salon,CT,2019-02-01T00:00:00-05:00,2019-03-01T00:00:00-05:00,6492,3,6.0,"{""<5"":0,""5-20"":2,""21-60"":0,""61-240"":1,"">240"":0}",175.5,41.465070000000004,-72.819558,812112.0,CT,9.0,9009.0,New Haven County,90091754001.0
12600,sg:a85499ca572047e2a6866ea5fcb1c593,ZStrict,CT,2019-02-01T00:00:00-05:00,2019-03-01T00:00:00-05:00,6902,3528,54.0,"{""<5"":64,""5-20"":883,""21-60"":964,""61-240"":1413,"">240"":204}",311856.0,41.050876,-73.516317,713910.0,CT,9.0,9001.0,Fairfield County,90010220002.0
12641,sg:ac598c75f3194834ba46607ce7f377a3,Hartford HealthCare Rehabilitation Network,CT,2019-02-01T00:00:00-05:00,2019-03-01T00:00:00-05:00,6035,33,24.0,"{""<5"":1,""5-20"":13,""21-60"":11,""61-240"":7,"">240"":1}",1904.0,41.954137,-72.786233,621340.0,CT,9.0,9003.0,Hartford County,90034681021.0
12713,sg:b2c1d4d78cd04eb3a0d49e5bb96d8731,Lincare,CT,2019-02-01T00:00:00-05:00,2019-03-01T00:00:00-05:00,6385,8,25.5,"{""<5"":0,""5-20"":4,""21-60"":1,""61-240"":3,"">240"":0}",542.0,41.341253,-72.11985,621999.0,CT,9.0,9011.0,New London County,90116934003.0
12744,sg:b57631d8483e455b845c8c6d802d065d,Lisbon Furniture & Appliances,CT,2019-02-01T00:00:00-05:00,2019-03-01T00:00:00-05:00,6106,1,226.0,"{""<5"":0,""5-20"":0,""21-60"":0,""61-240"":1,"">240"":0}",150.5,41.7565,-72.709172,442110.0,CT,9.0,9003.0,Hartford County,90035043002.0
13035,sg:d1406df1cff6429a9261f57bca1950e3,Joe's Yellow Sub Machine,CT,2019-02-01T00:00:00-05:00,2019-03-01T00:00:00-05:00,6256,5,6.0,"{""<5"":1,""5-20"":4,""21-60"":0,""61-240"":0,"">240"":0}",52.5,41.746546,-72.16475799999999,722515.0,CT,9.0,9015.0,Windham County,90158005001.0
13139,sg:dd7596b805fc42f8b504648b764018b7,Shoreline Neuropsychiatric Services,CT,2019-02-01T00:00:00-05:00,2019-03-01T00:00:00-05:00,6460,29,204.0,"{""<5"":3,""5-20"":4,""21-60"":3,""61-240"":10,"">240"":9}",3844.0,41.21976,-73.062986,621111.0,CT,9.0,9009.0,New Haven County,90091501002.0
13173,sg:e09ec129f96c4d65a8def1d7764d9f5e,Northeast Farrier Supply,CT,2019-02-01T00:00:00-05:00,2019-03-01T00:00:00-05:00,6098,36,47.0,"{""<5"":1,""5-20"":10,""21-60"":10,""61-240"":15,"">240"":0}",2790.0,41.92349,-73.058657,451110.0,CT,9.0,9005.0,Litchfield County,90053201002.0
13299,sg:eb982ca9b77e473db02c8acb1f6babd9,Shree Skin Care,CT,2019-02-01T00:00:00-05:00,2019-03-01T00:00:00-05:00,6074,81,21.0,"{""<5"":1,""5-20"":39,""21-60"":19,""61-240"":13,"">240"":9}",5376.0,41.826231,-72.52362600000001,446120.0,CT,9.0,9003.0,Hartford County,90034872013.0
13331,sg:ee4f5e23fab84d9ca8e8051272064e65,Family Dollar Stores,CT,2019-02-01T00:00:00-05:00,2019-03-01T00:00:00-05:00,6515,282,22.0,"{""<5"":10,""5-20"":125,""21-60"":51,""61-240"":43,"">240"":53}",22844.5,41.329108000000005,-72.969538,452319.0,CT,9.0,9009.0,New Haven County,90091412003.0
13453,sg:fb136fd3600c4b56b427a4f25818a7d3,SCRANTON CHEVROLET OF NORWICH,CT,2019-02-01T00:00:00-05:00,2019-03-01T00:00:00-05:00,6360,175,49.0,"{""<5"":2,""5-20"":62,""21-60"":33,""61-240"":31,"">240"":47}",18062.0,41.496408,-72.097649,441110.0,CT,9.0,9011.0,New London County,90116967001.0
13498,sg:ffb158f422e947438db23f18246ba9da,Ultimate MMA & Jiu jitsu Training Center,CT,2019-02-01T00:00:00-05:00,2019-03-01T00:00:00-05:00,6473,94,40.5,"{""<5"":3,""5-20"":31,""21-60"":22,""61-240"":33,"">240"":5}",7452.5,41.386988,-72.873414,713940.0,CT,9.0,9009.0,New Haven County,90091671002.0
13570,sg:069e5b97162040b69d64ea074a399760,Noah's,CT,2019-02-01T00:00:00-05:00,2019-03-01T00:00:00-05:00,6378,132,60.0,"{""<5"":0,""5-20"":22,""21-60"":45,""61-240"":44,"">240"":21}",13759.5,41.333963,-71.90661300000001,722511.0,CT,9.0,9011.0,New London County,90117052002.0
13742,sg:14778b5fc362409aade98fcad98aa7d0,Koutsoukos James D DMD,CT,2019-02-01T00:00:00-05:00,2019-03-01T00:00:00-05:00,6902,1,85.0,"{""<5"":0,""5-20"":0,""21-60"":0,""61-240"":1,"">240"":0}",150.5,41.054967,-73.527823,621210.0,CT,9.0,9001.0,Fairfield County,90010217001.0
13864,sg:20607c1f39fe4c3f8b35d58521622c3a,Oakgrove Montessori Elementary & Preschool,CT,2019-02-01T00:00:00-05:00,2019-03-01T00:00:00-05:00,6250,3,5.0,"{""<5"":1,""5-20"":1,""21-60"":0,""61-240"":1,"">240"":0}",165.5,41.730996999999995,-72.233953,624410.0,CT,9.0,9013.0,Tolland County,90138815003.0
13867,sg:208841c43ba8413ba8ab77adb593d57c,Missionary Society of Connecticut,CT,2019-02-01T00:00:00-05:00,2019-03-01T00:00:00-05:00,6795,14,61.5,"{""<5"":0,""5-20"":4,""21-60"":3,""61-240"":7,"">240"":0}",1225.0,41.598504999999996,-73.137828,813110.0,CT,9.0,9005.0,Litchfield County,90053602002.0
13995,sg:2d487b43ffcc4f57865b9d3503f4294c,Matsu Sushi,CT,2019-02-01T00:00:00-05:00,2019-03-01T00:00:00-05:00,6880,239,61.0,"{""<5"":3,""5-20"":56,""21-60"":60,""61-240"":74,"">240"":46}",25314.5,41.140881,-73.361053,722511.0,CT,9.0,9001.0,Fairfield County,90010505004.0
14030,sg:2fec61bbf4074f5b85f1de8bdaa4351b,Northwest Catholic High School,CT,2019-02-01T00:00:00-05:00,2019-03-01T00:00:00-05:00,6117,1152,211.5,"{""<5"":6,""5-20"":126,""21-60"":157,""61-240"":337,"">240"":526}",184907.0,41.799426000000004,-72.752478,611110.0,CT,9.0,9003.0,Hartford County,90034975002.0
14121,sg:399f3276bbbb434abf794b0dd84b7924,Quakerlane Cooperative Nursery School,CT,2019-02-01T00:00:00-05:00,2019-03-01T00:00:00-05:00,6119,12,13.0,"{""<5"":0,""5-20"":9,""21-60"":2,""61-240"":1,"">240"":0}",344.0,41.75985,-72.728651,624410.0,CT,9.0,9003.0,Hartford County,90034969004.0
14290,sg:4915a0f48dc141168bc94d9007711154,Silver Star Auto Collision,CT,2019-02-01T00:00:00-05:00,2019-03-01T00:00:00-05:00,6810,2,308.5,"{""<5"":0,""5-20"":0,""21-60"":0,""61-240"":1,"">240"":1}",390.5,41.413221,-73.426089,811121.0,CT,9.0,9001.0,Fairfield County,90012103002.0
14421,sg:565efdab8a8e42ec9dd5e5a11a503399,Child and Adult Orthodontics,CT,2019-02-01T00:00:00-05:00,2019-03-01T00:00:00-05:00,6443,41,45.0,"{""<5"":0,""5-20"":12,""21-60"":14,""61-240"":14,"">240"":1}",3064.0,41.281119,-72.599439,621210.0,CT,9.0,9009.0,New Haven County,90091941003.0
14438,sg:57a7c9c85a8449a7ab4914bd5aa64906,Latella Joseph & Sons,CT,2019-02-01T00:00:00-05:00,2019-03-01T00:00:00-05:00,6516,3,500.0,"{""<5"":0,""5-20"":0,""21-60"":1,""61-240"":0,"">240"":2}",520.5,41.265461,-72.991958,445110.0,CT,9.0,9009.0,New Haven County,90091542006.0
14507,sg:5fd4ce384f5e4bf6b0c58931a6af8214,Stop & Shop,CT,2019-02-01T00:00:00-05:00,2019-03-01T00:00:00-05:00,6880,809,19.0,"{""<5"":15,""5-20"":441,""21-60"":316,""61-240"":30,"">240"":7}",24543.0,41.137484,-73.302058,445110.0,CT,9.0,9001.0,Fairfield County,90010506003.0
14649,sg:6e6cf8bf0e0542b8814745a0feda01c1,Comprehensive Hearing,CT,2019-02-01T00:00:00-05:00,2019-03-01T00:00:00-05:00,6410,25,39.0,"{""<5"":0,""5-20"":5,""21-60"":11,""61-240"":7,"">240"":2}",2041.5,41.509131,-72.900304,621511.0,CT,9.0,9009.0,New Haven County,90093431021.0
14712,sg:74547d1131894d0689a440bd7d31f8e2,Hodosi's Auto Body,CT,2019-02-01T00:00:00-05:00,2019-03-01T00:00:00-05:00,6418,48,130.0,"{""<5"":1,""5-20"":12,""21-60"":6,""61-240"":14,"">240"":15}",6102.5,41.322722999999996,-73.09433100000001,811121.0,CT,9.0,9009.0,New Haven County,90091202002.0
14730,sg:75f64a88e7b746c794c63de65bf88aab,Tinker After School,CT,2019-02-01T00:00:00-05:00,2019-03-01T00:00:00-05:00,6708,140,101.5,"{""<5"":2,""5-20"":43,""21-60"":15,""61-240"":19,"">240"":61}",18649.5,41.536134000000004,-73.051353,624410.0,CT,9.0,9009.0,New Haven County,90093516013.0
14805,sg:7e806f3f7b5242c087adb9a488a18927,Staples,CT,2019-02-01T00:00:00-05:00,2019-03-01T00:00:00-05:00,6360,179,75.0,"{""<5"":2,""5-20"":50,""21-60"":24,""61-240"":51,"">240"":52}",21757.5,41.514741,-72.108214,453210.0,CT,9.0,9011.0,New London County,90116966001.0
14970,sg:8dfaf2181eef4105b75bbc4751c17396,Dew Yoga,CT,2019-02-01T00:00:00-05:00,2019-03-01T00:00:00-05:00,6905,140,43.0,"{""<5"":1,""5-20"":38,""21-60"":52,""61-240"":42,"">240"":7}",10584.5,41.076268,-73.549227,713940.0,CT,9.0,9001.0,Fairfield County,90010212002.0
14977,sg:8ea5482b4acb4b8196787d0477a56406,Fitzgerald's Fine Catering Since 1948,CT,2019-02-01T00:00:00-05:00,2019-03-01T00:00:00-05:00,6605,76,80.5,"{""<5"":3,""5-20"":13,""21-60"":14,""61-240"":27,"">240"":19}",9360.5,41.158162,-73.229586,722511.0,CT,9.0,9001.0,Fairfield County,90010701004.0
15265,sg:ad3d6bfe09404ecc86ef7bf00d9f03ff,Academy of Art & Music,CT,2019-02-01T00:00:00-05:00,2019-03-01T00:00:00-05:00,6405,55,56.0,"{""<5"":3,""5-20"":12,""21-60"":15,""61-240"":18,"">240"":7}",5154.0,41.298929,-72.771338,451140.0,CT,9.0,9009.0,New Haven County,90091847001.0
15278,sg:ae4e542e16fa4275905433956461dbd7,Monroe Elementary School,CT,2019-02-01T00:00:00-05:00,2019-03-01T00:00:00-05:00,6468,165,37.0,"{""<5"":8,""5-20"":65,""21-60"":21,""61-240"":29,"">240"":42}",16127.5,41.309173,-73.222503,611110.0,CT,9.0,9001.0,Fairfield County,90011002002.0
15360,sg:b6ab4206b1b440968ceeee910f512383,Bill's Bread and Breakfast,CT,2019-02-01T00:00:00-05:00,2019-03-01T00:00:00-05:00,6260,279,39.0,"{""<5"":7,""5-20"":57,""21-60"":146,""61-240"":43,"">240"":26}",19354.5,41.923716999999996,-71.907943,722511.0,CT,9.0,9015.0,Windham County,90159031003.0
15397,sg:ba50cf4ab7d94acfb1fcc0da2a50fb93,Bright Ideas Tutoring,CT,2019-02-01T00:00:00-05:00,2019-03-01T00:00:00-05:00,6840,14,169.5,"{""<5"":0,""5-20"":0,""21-60"":1,""61-240"":11,"">240"":2}",2176.0,41.148946,-73.49130600000001,611691.0,CT,9.0,9001.0,Fairfield County,90010351001.0
15423,sg:bdd21566dc1b4d759761663b0e3b10f2,Belden Robert H DVM,CT,2019-02-01T00:00:00-05:00,2019-03-01T00:00:00-05:00,6776,2,22.5,"{""<5"":0,""5-20"":1,""21-60"":1,""61-240"":0,"">240"":0}",53.0,41.540729999999996,-73.422539,541940.0,CT,9.0,9005.0,Litchfield County,90052533002.0
15666,sg:d4d742d59d31437a92a2081877113aef,PPG Pittsburgh Paints,CT,2019-02-01T00:00:00-05:00,2019-03-01T00:00:00-05:00,6114,2,12.5,"{""<5"":0,""5-20"":2,""21-60"":0,""61-240"":0,"">240"":0}",25.0,41.735492,-72.656813,444120.0,CT,9.0,9003.0,Hartford County,90035025001.0
15737,sg:dce895a2f9714a5fa5a6fbf792f28977,Sherwin-Williams,CT,2019-02-01T00:00:00-05:00,2019-03-01T00:00:00-05:00,6110,112,27.5,"{""<5"":2,""5-20"":40,""21-60"":35,""61-240"":15,"">240"":20}",8980.0,41.731001,-72.728521,444120.0,CT,9.0,9003.0,Hartford County,90034961002.0
15754,sg:ddfb6935544a40f380621cf55f449bf2,The USA Nursery,CT,2019-02-01T00:00:00-05:00,2019-03-01T00:00:00-05:00,6473,71,65.0,"{""<5"":2,""5-20"":17,""21-60"":15,""61-240"":29,"">240"":8}",7109.5,41.369131,-72.883688,811411.0,CT,9.0,9009.0,New Haven County,90091671002.0
16039,sg:fca4840c9d11456eba33871aaa26b38c,Browne Dental Laboratory,CT,2019-02-01T00:00:00-05:00,2019-03-01T00:00:00-05:00,6360,74,187.0,"{""<5"":0,""5-20"":3,""21-60"":11,""61-240"":28,"">240"":32}",12377.0,41.539871999999995,-72.08715500000001,621210.0,CT,9.0,9011.0,New London County,90116965003.0
16179,sg:0839f36cbf374c9f97fee3460b3471c5,AAA Dura Glaze Bathtub Reglazing & Repairs,CT,2019-02-01T00:00:00-05:00,2019-03-01T00:00:00-05:00,6040,38,114.5,"{""<5"":0,""5-20"":8,""21-60"":5,""61-240"":12,"">240"":13}",5228.5,41.767076,-72.504971,423910.0,CT,9.0,9003.0,Hartford County,90035150002.0
16376,sg:1c5689d56c4b4439a3f2563ea9ca2a1f,Edward Jones,CT,2019-02-01T00:00:00-05:00,2019-03-01T00:00:00-05:00,6413,4,9.0,"{""<5"":1,""5-20"":2,""21-60"":1,""61-240"":0,"">240"":0}",68.0,41.271401000000004,-72.502401,523999.0,CT,9.0,9007.0,Middlesex County,90076102004.0
16378,sg:1c748cb3a8b749a9a97ab7609d922e73,BrightStar Care,CT,2019-02-01T00:00:00-05:00,2019-03-01T00:00:00-05:00,6107,28,73.5,"{""<5"":1,""5-20"":5,""21-60"":5,""61-240"":11,"">240"":6}",3363.0,41.762902000000004,-72.73949,621610.0,CT,9.0,9003.0,Hartford County,90034971004.0
16385,sg:1ce7c06ba9b844caaf4fde68a09b98bc,Hill Regional Career High School,CT,2019-02-01T00:00:00-05:00,2019-03-01T00:00:00-05:00,6519,461,116.0,"{""<5"":6,""5-20"":81,""21-60"":87,""61-240"":114,"">240"":173}",63228.0,41.305659000000006,-72.941046,611110.0,CT,9.0,9009.0,New Haven County,90091406001.0
16410,sg:202fff7eecab45cbb41a147d678749e9,Imperial Nurseries,CT,2019-02-01T00:00:00-05:00,2019-03-01T00:00:00-05:00,6026,53,68.0,"{""<5"":0,""5-20"":13,""21-60"":11,""61-240"":17,"">240"":12}",6046.5,41.928688,-72.781979,811411.0,CT,9.0,9003.0,Hartford County,90034701002.0
16456,sg:249cd2f088614229ae457114314a5b6e,Kato Counseling,CT,2019-02-01T00:00:00-05:00,2019-03-01T00:00:00-05:00,6811,32,32.5,"{""<5"":0,""5-20"":7,""21-60"":17,""61-240"":5,"">240"":3}",2248.5,41.394034000000005,-73.51397800000001,621330.0,CT,9.0,9001.0,Fairfield County,90012108003.0
16470,sg:25391a575a974c8eae82e18cd41b32a1,Harbour Light Baptist Church,CT,2019-02-01T00:00:00-05:00,2019-03-01T00:00:00-05:00,6477,1,6.0,"{""<5"":0,""5-20"":1,""21-60"":0,""61-240"":0,"">240"":0}",12.5,41.259999,-73.007961,813110.0,CT,9.0,9009.0,New Haven County,90091571001.0
16472,sg:2551183ead1f489291dfd9fc7a9816ce,Sunoco,CT,2019-02-01T00:00:00-05:00,2019-03-01T00:00:00-05:00,6902,60,8.0,"{""<5"":4,""5-20"":43,""21-60"":11,""61-240"":2,"">240"":0}",1294.0,41.047911,-73.554829,447110.0,CT,9.0,9001.0,Fairfield County,90010214003.0
16598,sg:3299fb96e0ce4d1ab733d50a38b52893,Pollack Orthodontics,CT,2019-02-01T00:00:00-05:00,2019-03-01T00:00:00-05:00,6226,142,103.0,"{""<5"":0,""5-20"":21,""21-60"":34,""61-240"":52,"">240"":35}",17865.5,41.713452000000004,-72.212866,621210.0,CT,9.0,9015.0,Windham County,90158006003.0
16657,sg:397a7e0cab41465f8f30b49460f909d9,Diamond Kings,CT,2019-02-01T00:00:00-05:00,2019-03-01T00:00:00-05:00,6010,393,46.0,"{""<5"":5,""5-20"":105,""21-60"":125,""61-240"":130,"">240"":28}",32672.5,41.685103000000005,-72.982848,713940.0,CT,9.0,9003.0,Hartford County,90034058001.0
16692,sg:3d1b07d4d4ff4251a226e2442cc1799e,Bliss Bridal,CT,2019-02-01T00:00:00-05:00,2019-03-01T00:00:00-05:00,6410,75,42.0,"{""<5"":2,""5-20"":22,""21-60"":21,""61-240"":27,"">240"":3}",5914.0,41.495465,-72.902821,448120.0,CT,9.0,9009.0,New Haven County,90093433003.0
16954,sg:5377aba9d1d747e1a0a294991dc7b3d1,Autotek,CT,2019-02-01T00:00:00-05:00,2019-03-01T00:00:00-05:00,6071,7,24.0,"{""<5"":0,""5-20"":2,""21-60"":2,""61-240"":2,"">240"":1}",647.0,41.965816,-72.456676,811111.0,CT,9.0,9013.0,Tolland County,90135382013.0
16968,sg:54e4c24b3e304c96a33c93a61dd5bc73,T Maria's,CT,2019-02-01T00:00:00-05:00,2019-03-01T00:00:00-05:00,6071,23,13.0,"{""<5"":1,""5-20"":14,""21-60"":2,""61-240"":4,"">240"":2}",1340.5,41.984895,-72.490215,722511.0,CT,9.0,9013.0,Tolland County,90135382014.0
17021,sg:59a06550c88f4f36926f50a9df5515e7,Jason Scully DDS and Francis Zaino DDS,CT,2019-02-01T00:00:00-05:00,2019-03-01T00:00:00-05:00,6824,11,160.0,"{""<5"":0,""5-20"":0,""21-60"":3,""61-240"":3,"">240"":5}",1773.0,41.139784999999996,-73.258361,621210.0,CT,9.0,9001.0,Fairfield County,90010616001.0
17046,sg:5c637033573749849b6a9d35d6bc9c32,Kbarr,CT,2019-02-01T00:00:00-05:00,2019-03-01T00:00:00-05:00,6106,55,18.0,"{""<5"":4,""5-20"":26,""21-60"":15,""61-240"":6,"">240"":4}",2805.5,41.756096,-72.713537,722511.0,CT,9.0,9003.0,Hartford County,90035043002.0
17115,sg:630c2208ca044f208b7641a04254d35d,Jarrel Photography,CT,2019-02-01T00:00:00-05:00,2019-03-01T00:00:00-05:00,6488,2,228.0,"{""<5"":0,""5-20"":1,""21-60"":0,""61-240"":0,"">240"":1}",252.5,41.428711,-73.199278,541921.0,CT,9.0,9009.0,New Haven County,90093481232.0
17305,sg:75d44f0c0c1c4baa99259c81b033f011,Associated Urologists PC,CT,2019-02-01T00:00:00-05:00,2019-03-01T00:00:00-05:00,6066,31,16.0,"{""<5"":3,""5-20"":16,""21-60"":6,""61-240"":3,"">240"":3}",1622.0,41.834157,-72.468238,621111.0,CT,9.0,9013.0,Tolland County,90135303022.0
17393,sg:7df5a151444e41c1a85324409a583011,Webster Bank,CT,2019-02-01T00:00:00-05:00,2019-03-01T00:00:00-05:00,6604,199,15.0,"{""<5"":12,""5-20"":115,""21-60"":32,""61-240"":27,"">240"":13}",9947.0,41.177853999999996,-73.187353,522110.0,CT,9.0,9001.0,Fairfield County,90010706001.0
17454,sg:832d8c47399d46fcba2165e54f3e8e34,Stamford Physical Medicine,CT,2019-02-01T00:00:00-05:00,2019-03-01T00:00:00-05:00,6905,109,70.0,"{""<5"":2,""5-20"":25,""21-60"":22,""61-240"":21,"">240"":39}",13729.0,41.064425,-73.53656,621340.0,CT,9.0,9001.0,Fairfield County,90010216004.0
17456,sg:83368eb49ade40788516fbb02d06980f,St Peter & St Andrew Coptic Orthodox Church,CT,2019-02-01T00:00:00-05:00,2019-03-01T00:00:00-05:00,6902,157,62.0,"{""<5"":2,""5-20"":44,""21-60"":31,""61-240"":40,"">240"":40}",17430.5,41.058647,-73.524147,712190.0,CT,9.0,9001.0,Fairfield County,90010218013.0
17513,sg:8862bbd72ee84a27ad12d8f360db218d,Crafters Haven,CT,2019-02-01T00:00:00-05:00,2019-03-01T00:00:00-05:00,6511,11,10.0,"{""<5"":1,""5-20"":7,""21-60"":0,""61-240"":0,"">240"":3}",810.0,41.316039,-72.90341,451130.0,CT,9.0,9009.0,New Haven County,90091424001.0
17516,sg:888e2c81e2e44574889e216f43148e4f,Officers Club of Conn,CT,2019-02-01T00:00:00-05:00,2019-03-01T00:00:00-05:00,6105,569,107.0,"{""<5"":17,""5-20"":113,""21-60"":92,""61-240"":172,"">240"":175}",73067.0,41.764972,-72.685806,721110.0,CT,9.0,9003.0,Hartford County,90035021002.0
17738,sg:a066864453274548826dee838ac0fa68,Subway,CT,2019-02-01T00:00:00-05:00,2019-03-01T00:00:00-05:00,6357,185,23.0,"{""<5"":8,""5-20"":73,""21-60"":38,""61-240"":58,"">240"":8}",13120.5,41.323305,-72.19433199999999,722513.0,CT,9.0,9011.0,New London County,90118707042.0
17790,sg:a60b9ecea1b544e18ae496226b4f5b53,County Mall,CT,2019-02-01T00:00:00-05:00,2019-03-01T00:00:00-05:00,6851,665,42.0,"{""<5"":14,""5-20"":208,""21-60"":176,""61-240"":205,"">240"":62}",55495.5,41.124132,-73.396103,531120.0,CT,9.0,9001.0,Fairfield County,90010435002.0
17864,sg:acea5836dc994ce3a32237b3148584e1,Inner Healing Therapy,CT,2019-02-01T00:00:00-05:00,2019-03-01T00:00:00-05:00,6067,10,24.0,"{""<5"":0,""5-20"":3,""21-60"":7,""61-240"":0,"">240"":0}",321.0,41.655485,-72.681478,621330.0,CT,9.0,9003.0,Hartford County,90034903022.0
17913,sg:b226cdd742b440d49e4d361fdf6739bc,Seymour Historical Society,CT,2019-02-01T00:00:00-05:00,2019-03-01T00:00:00-05:00,6483,6,13.0,"{""<5"":0,""5-20"":5,""21-60"":1,""61-240"":0,"">240"":0}",103.0,41.394116,-73.079565,712120.0,CT,9.0,9009.0,New Haven County,90091302002.0
17923,sg:b33dfc94ebec40f6a3797db267bbf621,StonePost Bakery Cafe,CT,2019-02-01T00:00:00-05:00,2019-03-01T00:00:00-05:00,6001,34,230.0,"{""<5"":0,""5-20"":2,""21-60"":4,""61-240"":11,"">240"":17}",5922.5,41.814187,-72.856437,722515.0,CT,9.0,9003.0,Hartford County,90034622011.0
17959,sg:b6885d87384c4f52bdcd05656eadcc88,Seventh Day Adventist Church Calvary,CT,2019-02-01T00:00:00-05:00,2019-03-01T00:00:00-05:00,6606,5,16.0,"{""<5"":0,""5-20"":4,""21-60"":1,""61-240"":0,"">240"":0}",90.5,41.218647,-73.201584,813110.0,CT,9.0,9001.0,Fairfield County,90010728002.0
18189,sg:cc4a8cfa08fd4731bc19de25b2b71de4,Midstate Tractor & Equipment,CT,2019-02-01T00:00:00-05:00,2019-03-01T00:00:00-05:00,6457,48,13.0,"{""<5"":2,""5-20"":27,""21-60"":13,""61-240"":2,"">240"":4}",2130.0,41.541295,-72.652422,444130.0,CT,9.0,9007.0,Middlesex County,90075420003.0
18217,sg:cf2acd658edd4b1992003a2644e5c381,Dumas Tree Farm,CT,2019-02-01T00:00:00-05:00,2019-03-01T00:00:00-05:00,6455,8,115.0,"{""<5"":0,""5-20"":0,""21-60"":3,""61-240"":2,"">240"":3}",1142.5,41.497671000000004,-72.684382,111421.0,CT,9.0,9007.0,Middlesex County,90075801004.0
18241,sg:d12eb8619e9247b68ec7bde9b80b5457,Shoreline Quick Lube And Car Wash,CT,2019-02-01T00:00:00-05:00,2019-03-01T00:00:00-05:00,6475,206,27.5,"{""<5"":4,""5-20"":78,""21-60"":59,""61-240"":32,"">240"":33}",16110.5,41.286833,-72.411173,811111.0,CT,9.0,9007.0,Middlesex County,90076701002.0
18505,sg:ecd373406b7949eea8f5475791ccef13,Carini's Restaurant,CT,2019-02-01T00:00:00-05:00,2019-03-01T00:00:00-05:00,6492,77,30.0,"{""<5"":4,""5-20"":25,""21-60"":32,""61-240"":15,"">240"":1}",4116.0,41.448122999999995,-72.802835,722511.0,CT,9.0,9009.0,New Haven County,90091759003.0
18630,sg:fb2f429b1d304c478bc86cc680e99560,Il Panino Eatery & Bakery,CT,2019-02-01T00:00:00-05:00,2019-03-01T00:00:00-05:00,6450,3,564.0,"{""<5"":0,""5-20"":0,""21-60"":0,""61-240"":0,"">240"":3}",720.0,41.541940000000004,-72.79091700000001,722511.0,CT,9.0,9009.0,New Haven County,90091714001.0
18692,sg:014dbeb149484af58194d727802268d3,RaMa LuNa Center for Yoga & Well being,CT,2019-02-01T00:00:00-05:00,2019-03-01T00:00:00-05:00,6457,149,63.0,"{""<5"":2,""5-20"":28,""21-60"":36,""61-240"":57,"">240"":26}",16631.5,41.54996,-72.641129,713940.0,CT,9.0,9007.0,Middlesex County,90075417002.0
18740,sg:058951578df84765999ab7fb59dd592d,Allingtown Fire District Minor Park Station,CT,2019-02-01T00:00:00-05:00,2019-03-01T00:00:00-05:00,6516,116,143.0,"{""<5"":1,""5-20"":15,""21-60"":17,""61-240"":36,"">240"":47}",17576.5,41.296717,-72.975532,922160.0,CT,9.0,9009.0,New Haven County,90091541006.0
18868,sg:1076a62c36a84a5ba30244b2375f0a8a,May Bonee & Walsh,CT,2019-02-01T00:00:00-05:00,2019-03-01T00:00:00-05:00,6033,159,237.0,"{""<5"":2,""5-20"":5,""21-60"":10,""61-240"":64,"">240"":78}",28824.5,41.720586,-72.622647,524210.0,CT,9.0,9003.0,Hartford County,90035203022.0
18924,sg:146862ce01474bb9a5950cb8c0972f42,Living Right Health Bar,CT,2019-02-01T00:00:00-05:00,2019-03-01T00:00:00-05:00,6770,41,17.0,"{""<5"":3,""5-20"":22,""21-60"":9,""61-240"":1,"">240"":6}",2237.5,41.501292,-73.047042,446191.0,CT,9.0,9009.0,New Haven County,90093451001.0
18949,sg:172fc16f1a344863a2a9cdcc57ff3a23,Seymour Park,CT,2019-02-01T00:00:00-05:00,2019-03-01T00:00:00-05:00,6010,32,26.0,"{""<5"":0,""5-20"":13,""21-60"":9,""61-240"":2,"">240"":8}",2748.0,41.715855,-72.936376,712190.0,CT,9.0,9003.0,Hartford County,90034059001.0
19044,sg:1e8f03aaf701499595cb4561a8487e44,Greater Hartford Physical Therapy PC,CT,2019-02-01T00:00:00-05:00,2019-03-01T00:00:00-05:00,6489,2,537.0,"{""<5"":0,""5-20"":0,""21-60"":0,""61-240"":0,"">240"":2}",480.0,41.619136,-72.89869200000001,621340.0,CT,9.0,9003.0,Hartford County,90034306012.0
19149,sg:27b9d12f6df7494480a72fca236fc558,Advance Auto Parts,CT,2019-02-01T00:00:00-05:00,2019-03-01T00:00:00-05:00,6413,46,27.0,"{""<5"":3,""5-20"":18,""21-60"":7,""61-240"":14,"">240"":4}",3583.0,41.270214,-72.50074000000001,441310.0,CT,9.0,9007.0,Middlesex County,90076102002.0
19273,sg:34170934999c4cfc8fe89ff0f870c5cd,Suzio L Concrete,CT,2019-02-01T00:00:00-05:00,2019-03-01T00:00:00-05:00,6450,52,212.5,"{""<5"":0,""5-20"":4,""21-60"":6,""61-240"":19,"">240"":23}",8672.5,41.556467,-72.753496,444130.0,CT,9.0,9009.0,New Haven County,90091717003.0
19274,sg:3452695c1bfd47a580153e41e0aa766d,Sullivan's Discount Liquors,CT,2019-02-01T00:00:00-05:00,2019-03-01T00:00:00-05:00,6708,59,8.0,"{""<5"":9,""5-20"":36,""21-60"":11,""61-240"":1,"">240"":2}",1548.5,41.549362,-73.04398499999999,445310.0,CT,9.0,9009.0,New Haven County,90093519002.0
19490,sg:488d6a7bb5874557bd429fe83d8a9492,The Fan Sports Bar & Restaurant,CT,2019-02-01T00:00:00-05:00,2019-03-01T00:00:00-05:00,6525,317,50.0,"{""<5"":4,""5-20"":79,""21-60"":96,""61-240"":130,"">240"":8}",26370.5,41.339462,-72.982361,722511.0,CT,9.0,9009.0,New Haven County,90091602001.0
19545,sg:4e6cd5f9e67844b9b775ed8d69062f38,Sunrise Senior Living,CT,2019-02-01T00:00:00-05:00,2019-03-01T00:00:00-05:00,6897,27,36.0,"{""<5"":0,""5-20"":11,""21-60"":4,""61-240"":7,"">240"":5}",2553.0,41.186309,-73.42327,623312.0,CT,9.0,9001.0,Fairfield County,90010452002.0
19655,sg:582ba14ccf544564b32c1015e61d5acc,Cumberland Farms,CT,2019-02-01T00:00:00-05:00,2019-03-01T00:00:00-05:00,6471,286,6.0,"{""<5"":43,""5-20"":198,""21-60"":16,""61-240"":24,"">240"":5}",8042.5,41.335737,-72.756606,447110.0,CT,9.0,9009.0,New Haven County,90091861001.0
19696,sg:5c0393af6a7a4f5db9d23968ccbcb981,Yan's Acupuncture Clinic,CT,2019-02-01T00:00:00-05:00,2019-03-01T00:00:00-05:00,6473,11,76.0,"{""<5"":0,""5-20"":1,""21-60"":3,""61-240"":4,"">240"":3}",1456.0,41.412205,-72.8769,621111.0,CT,9.0,9009.0,New Haven County,90091671001.0
20001,sg:79869f76b9c94675b90026e92debd387,A Family Chiropractic Center,CT,2019-02-01T00:00:00-05:00,2019-03-01T00:00:00-05:00,6443,4,11.0,"{""<5"":0,""5-20"":4,""21-60"":0,""61-240"":0,"">240"":0}",50.0,41.2854,-72.63799300000001,621310.0,CT,9.0,9009.0,New Haven County,90091942014.0
20177,sg:8b704468140149b2a59477443519a716,AutoZone,CT,2019-02-01T00:00:00-05:00,2019-03-01T00:00:00-05:00,6114,297,17.0,"{""<5"":4,""5-20"":160,""21-60"":54,""61-240"":35,"">240"":44}",20024.5,41.741035,-72.672586,441310.0,CT,9.0,9003.0,Hartford County,90035024002.0
20220,sg:8f3c329742f341a6a196ecc24e95ffe3,Hope Academy,CT,2019-02-01T00:00:00-05:00,2019-03-01T00:00:00-05:00,6477,139,216.0,"{""<5"":3,""5-20"":24,""21-60"":12,""61-240"":38,"">240"":62}",21392.5,41.251160999999996,-72.999178,624410.0,CT,9.0,9009.0,New Haven County,90091571001.0
20247,sg:91e684f927cc4453a6813cb3cad1c970,La Tavola Ristorante,CT,2019-02-01T00:00:00-05:00,2019-03-01T00:00:00-05:00,6708,187,60.0,"{""<5"":1,""5-20"":36,""21-60"":57,""61-240"":84,"">240"":9}",17563.0,41.53882,-73.053248,722511.0,CT,9.0,9009.0,New Haven County,90093516022.0
20461,sg:a555db46c3ca42519169866790451f8e,Shell Oil,CT,2019-02-01T00:00:00-05:00,2019-03-01T00:00:00-05:00,6611,518,8.0,"{""<5"":53,""5-20"":304,""21-60"":73,""61-240"":42,"">240"":46}",24250.0,41.294498,-73.23116,447110.0,CT,9.0,9001.0,Fairfield County,90010901002.0
20516,sg:aac518f6bfe84f3fb426713892dc94e4,Eugene Markowski DMD,CT,2019-02-01T00:00:00-05:00,2019-03-01T00:00:00-05:00,6078,16,71.0,"{""<5"":0,""5-20"":1,""21-60"":6,""61-240"":7,"">240"":2}",1789.0,41.984138,-72.656824,621210.0,CT,9.0,9003.0,Hartford County,90034771011.0
20639,sg:b804127222c4438db6069e68cf736b2c,Meriden City of Board of Education,CT,2019-02-01T00:00:00-05:00,2019-03-01T00:00:00-05:00,6451,48,199.0,"{""<5"":0,""5-20"":2,""21-60"":7,""61-240"":21,"">240"":18}",7789.0,41.542297999999995,-72.799667,624410.0,CT,9.0,9009.0,New Haven County,90091702001.0
20730,sg:c0e8c8fc740e44799999183168b9c1ca,All Star Kids,CT,2019-02-01T00:00:00-05:00,2019-03-01T00:00:00-05:00,6033,35,224.0,"{""<5"":0,""5-20"":7,""21-60"":0,""61-240"":11,"">240"":17}",5823.0,41.679527,-72.58933,451140.0,CT,9.0,9003.0,Hartford County,90035204002.0
20761,sg:c48f32f9894440cea1a0b5e066a619a1,Milford Farmers Market,CT,2019-02-01T00:00:00-05:00,2019-03-01T00:00:00-05:00,6460,116,21.5,"{""<5"":7,""5-20"":48,""21-60"":25,""61-240"":25,"">240"":11}",8032.5,41.223783000000005,-73.057967,445230.0,CT,9.0,9009.0,New Haven County,90091501001.0
20777,sg:c5c728e15944407f89556e91fc4c701b,Academy Of St Therese,CT,2019-02-01T00:00:00-05:00,2019-03-01T00:00:00-05:00,6335,10,66.0,"{""<5"":0,""5-20"":3,""21-60"":1,""61-240"":3,"">240"":3}",1249.5,41.428546000000004,-72.08577,611110.0,CT,9.0,9011.0,New London County,90117012005.0
20793,sg:c6e18ef6daa04abf95c00bb51811177a,Yanagisawa Eiji PC,CT,2019-02-01T00:00:00-05:00,2019-03-01T00:00:00-05:00,6460,75,28.0,"{""<5"":0,""5-20"":21,""21-60"":35,""61-240"":17,"">240"":2}",4718.5,41.218865,-73.063833,621111.0,CT,9.0,9009.0,New Haven County,90091501002.0
20986,sg:d8e40b60d42047d4a79473c18e2bb4c2,Aware Recovery Care,CT,2019-02-01T00:00:00-05:00,2019-03-01T00:00:00-05:00,6473,119,175.0,"{""<5"":1,""5-20"":8,""21-60"":16,""61-240"":43,"">240"":51}",19462.0,41.418502000000004,-72.84009499999999,621610.0,CT,9.0,9009.0,New Haven County,90091672021.0
21029,sg:dc50f93c21274336b40bee13fa9bf815,Henry Park,CT,2019-02-01T00:00:00-05:00,2019-03-01T00:00:00-05:00,6114,454,83.5,"{""<5"":5,""5-20"":120,""21-60"":69,""61-240"":89,"">240"":171}",58741.5,41.863799,-72.44385799999999,712190.0,CT,9.0,9013.0,Tolland County,90135302001.0
21045,sg:ddbcc59749bd4c2fb64ca66a0577f32d,Walter I Davison DDS,CT,2019-02-01T00:00:00-05:00,2019-03-01T00:00:00-05:00,6790,8,88.0,"{""<5"":0,""5-20"":3,""21-60"":1,""61-240"":2,"">240"":2}",859.0,41.826067,-73.103721,621210.0,CT,9.0,9005.0,Litchfield County,90053101001.0
21160,sg:e89125bd8edf48be801bc2b913aaa3a7,Reruns Bar & Grill,CT,2019-02-01T00:00:00-05:00,2019-03-01T00:00:00-05:00,6516,126,37.0,"{""<5"":7,""5-20"":40,""21-60"":39,""61-240"":19,"">240"":21}",9996.5,41.270139,-72.958155,722511.0,CT,9.0,9009.0,New Haven County,90091546002.0
21178,sg:e9ae5308a3f248d7add082e04edc46f6,Eye Physicians of Central Ct PC,CT,2019-02-01T00:00:00-05:00,2019-03-01T00:00:00-05:00,6492,39,199.0,"{""<5"":0,""5-20"":1,""21-60"":10,""61-240"":15,"">240"":13}",5795.0,41.452549,-72.817358,621111.0,CT,9.0,9009.0,New Haven County,90091752001.0
21326,sg:f918bc2241594ad8be4a2bd92a6cbda4,Harvest Country Store,CT,2019-02-01T00:00:00-05:00,2019-03-01T00:00:00-05:00,6119,32,975.0,"{""<5"":0,""5-20"":4,""21-60"":1,""61-240"":1,"">240"":26}",6481.0,41.752292,-72.722212,722515.0,CT,9.0,9003.0,Hartford County,90034967002.0
21342,sg:fa8fb7852b1343afb851665c67e69f40,McDonald's,CT,2019-02-01T00:00:00-05:00,2019-03-01T00:00:00-05:00,6776,606,7.0,"{""<5"":46,""5-20"":431,""21-60"":92,""61-240"":20,"">240"":17}",16318.5,41.567399,-73.414862,722513.0,CT,9.0,9005.0,Litchfield County,90052536001.0
21401,sg:0029951baf2a4a4a9346c1d54eb3db0b,Dragon East,CT,2019-02-01T00:00:00-05:00,2019-03-01T00:00:00-05:00,6405,58,10.0,"{""<5"":2,""5-20"":43,""21-60"":11,""61-240"":0,"">240"":2}",1468.0,41.286776,-72.816924,722511.0,CT,9.0,9009.0,New Haven County,90091841005.0
21413,sg:01239a8876ca41458c46fa2554c6590d,Dunkin',CT,2019-02-01T00:00:00-05:00,2019-03-01T00:00:00-05:00,6880,61,6.0,"{""<5"":5,""5-20"":46,""21-60"":8,""61-240"":2,"">240"":0}",1212.5,41.138872,-73.311001,722515.0,CT,9.0,9001.0,Fairfield County,90010503003.0
21572,sg:0e40cb87854a48fbb0828b9c215214ea,Dolly Madison Inn & Restaurant,CT,2019-02-01T00:00:00-05:00,2019-03-01T00:00:00-05:00,6443,332,51.0,"{""<5"":6,""5-20"":54,""21-60"":143,""61-240"":122,"">240"":7}",26522.5,41.272107,-72.60759499999999,721110.0,CT,9.0,9009.0,New Haven County,90091941005.0
21653,sg:146d36e665da42c18ff82b8818058fe8,Exxon Fuels Lindstedt Oil Co,CT,2019-02-01T00:00:00-05:00,2019-03-01T00:00:00-05:00,6776,14,8.5,"{""<5"":1,""5-20"":9,""21-60"":2,""61-240"":2,"">240"":0}",497.0,41.579744,-73.41723,447110.0,CT,9.0,9005.0,Litchfield County,90052536002.0
21709,sg:186240ee8c6d49e59bf60f38185b1dc5,Breiner Whole Body Health Center,CT,2019-02-01T00:00:00-05:00,2019-03-01T00:00:00-05:00,6825,4,545.5,"{""<5"":1,""5-20"":0,""21-60"":0,""61-240"":0,"">240"":3}",722.5,41.17219,-73.228086,621210.0,CT,9.0,9001.0,Fairfield County,90010614001.0
21718,sg:1954c544c350494faab8986355d3bd47,Dollar General,CT,2019-02-01T00:00:00-05:00,2019-03-01T00:00:00-05:00,6063,145,11.0,"{""<5"":8,""5-20"":98,""21-60"":23,""61-240"":10,"">240"":6}",5121.5,41.909929,-73.044605,452319.0,CT,9.0,9005.0,Litchfield County,90052901003.0
21728,sg:19fd155c574d40e889a85a3586c002a9,Barnum Benefit Advisors,CT,2019-02-01T00:00:00-05:00,2019-03-01T00:00:00-05:00,6484,245,175.0,"{""<5"":3,""5-20"":28,""21-60"":38,""61-240"":85,"">240"":91}",36529.0,41.275534,-73.127204,524210.0,CT,9.0,9001.0,Fairfield County,90011103022.0
21811,sg:22c3e3fc5e534f2f8b9b2fb65eaece5c,Shell Oil,CT,2019-02-01T00:00:00-05:00,2019-03-01T00:00:00-05:00,6854,216,10.0,"{""<5"":11,""5-20"":122,""21-60"":24,""61-240"":25,"">240"":34}",14447.0,41.105249,-73.419978,447110.0,CT,9.0,9001.0,Fairfield County,90010440001.0
21871,sg:29a5212ab0b649ff884286a3d2ebe5e6,Breakwater Books,CT,2019-02-01T00:00:00-05:00,2019-03-01T00:00:00-05:00,6437,223,23.0,"{""<5"":4,""5-20"":98,""21-60"":69,""61-240"":45,"">240"":7}",12482.0,41.281372,-72.682041,451211.0,CT,9.0,9009.0,New Haven County,90091901001.0
21935,sg:2fcb85cb6ae44299b884b12af07d1f2e,Middlesex Hospital Marlborough Medical Center,CT,2019-02-01T00:00:00-05:00,2019-03-01T00:00:00-05:00,6447,95,121.0,"{""<5"":0,""5-20"":23,""21-60"":14,""61-240"":36,"">240"":22}",11552.5,41.633565000000004,-72.46038399999999,623312.0,CT,9.0,9003.0,Hartford County,90035241004.0
21961,sg:32945d1801fb45e89f6917c21360bed8,Ren Dumpling & Noodle House,CT,2019-02-01T00:00:00-05:00,2019-03-01T00:00:00-05:00,6897,18,20.5,"{""<5"":0,""5-20"":9,""21-60"":4,""61-240"":5,"">240"":0}",1027.0,41.161429999999996,-73.41793100000001,722511.0,CT,9.0,9001.0,Fairfield County,90010454002.0
22014,sg:376a733505064d67877394589b5eaa11,BJ's Wholesale Club,CT,2019-02-01T00:00:00-05:00,2019-03-01T00:00:00-05:00,6614,1579,22.0,"{""<5"":34,""5-20"":676,""21-60"":693,""61-240"":143,"">240"":33}",66043.0,41.20282,-73.11279499999999,452319.0,CT,9.0,9001.0,Fairfield County,90010808001.0
22017,sg:37916c238d804b4db70c4d215c9c9437,Hallmark Cards,CT,2019-02-01T00:00:00-05:00,2019-03-01T00:00:00-05:00,6019,139,25.0,"{""<5"":2,""5-20"":46,""21-60"":51,""61-240"":29,"">240"":11}",9650.0,41.821785,-72.880054,453220.0,CT,9.0,9003.0,Hartford County,90034641023.0
22100,sg:4032abbb3a0d4012866c099917495fff,St Patrick Church Religous Education,CT,2019-02-01T00:00:00-05:00,2019-03-01T00:00:00-05:00,6355,29,41.0,"{""<5"":0,""5-20"":10,""21-60"":16,""61-240"":3,"">240"":0}",1224.5,41.353839,-71.96526800000001,813110.0,CT,9.0,9011.0,New London County,90117053002.0
22176,sg:4654ec7b83054bd98def643ca025f69f,Jw Home Construction,CT,2019-02-01T00:00:00-05:00,2019-03-01T00:00:00-05:00,6513,211,232.0,"{""<5"":4,""5-20"":27,""21-60"":29,""61-240"":48,"">240"":103}",33466.0,41.307142,-72.897315,621610.0,CT,9.0,9009.0,New Haven County,90091423004.0
22320,sg:52f3238b07c2485d9db4e1d0353e9321,Phillips 66,CT,2019-02-01T00:00:00-05:00,2019-03-01T00:00:00-05:00,6479,4,5.5,"{""<5"":0,""5-20"":4,""21-60"":0,""61-240"":0,"">240"":0}",50.0,41.562504,-72.872437,447110.0,CT,9.0,9003.0,Hartford County,90034303011.0
22357,sg:5686509ba3144c17bbbe8accce54c998,Charles Cheney Inn,CT,2019-02-01T00:00:00-05:00,2019-03-01T00:00:00-05:00,6040,6,95.0,"{""<5"":1,""5-20"":1,""21-60"":0,""61-240"":3,"">240"":1}",706.5,41.765803000000005,-72.526337,721110.0,CT,9.0,9003.0,Hartford County,90035147003.0
22394,sg:59f11c5037b14a709185428553396151,Michael Reiss LMFT PhD,CT,2019-02-01T00:00:00-05:00,2019-03-01T00:00:00-05:00,6492,5,62.0,"{""<5"":0,""5-20"":1,""21-60"":1,""61-240"":2,"">240"":1}",594.0,41.439735,-72.750463,621330.0,CT,9.0,9009.0,New Haven County,90091760003.0
22420,sg:5d03472eb86f4c5787d02ebecdc7b16d,Walgreens,CT,2019-02-01T00:00:00-05:00,2019-03-01T00:00:00-05:00,6053,321,12.0,"{""<5"":16,""5-20"":190,""21-60"":41,""61-240"":21,"">240"":53}",19956.0,41.68392,-72.76804399999999,446110.0,CT,9.0,9003.0,Hartford County,90034168001.0
22457,sg:605c2f4fabdd41c9ba4756b5c3844ae9,Jos. A. Bank Clothiers,CT,2019-02-01T00:00:00-05:00,2019-03-01T00:00:00-05:00,6033,124,30.0,"{""<5"":0,""5-20"":44,""21-60"":48,""61-240"":26,"">240"":6}",7847.0,41.719808,-72.620991,448110.0,CT,9.0,9003.0,Hartford County,90035203022.0
22473,sg:618bb7e1d3f742419d311ae9c83507b6,Recreation Commission,CT,2019-02-01T00:00:00-05:00,2019-03-01T00:00:00-05:00,6880,5,7.0,"{""<5"":0,""5-20"":4,""21-60"":1,""61-240"":0,"">240"":0}",90.5,41.117665,-73.319204,712190.0,CT,9.0,9001.0,Fairfield County,90010506002.0
22519,sg:66d158d2358b42fba96cdc5a92ac4e42,T.J. Maxx,CT,2019-02-01T00:00:00-05:00,2019-03-01T00:00:00-05:00,6109,706,21.0,"{""<5"":13,""5-20"":316,""21-60"":285,""61-240"":83,"">240"":9}",30176.5,41.692336,-72.657749,452210.0,CT,9.0,9003.0,Hartford County,90034926001.0
22660,sg:7261d038ad394b45977d3dcc8885ce03,Stafford Fun Club,CT,2019-02-01T00:00:00-05:00,2019-03-01T00:00:00-05:00,6010,17,13.0,"{""<5"":0,""5-20"":11,""21-60"":2,""61-240"":0,"">240"":4}",1178.5,41.688579,-72.917732,624410.0,CT,9.0,9003.0,Hartford County,90034052002.0
22714,sg:77ef23bf51a74e1dbd78c3e67b662f89,0degree Thai Ice Cream,CT,2019-02-01T00:00:00-05:00,2019-03-01T00:00:00-05:00,6119,60,37.5,"{""<5"":1,""5-20"":14,""21-60"":17,""61-240"":14,"">240"":14}",6333.0,41.757773,-72.720075,722515.0,CT,9.0,9003.0,Hartford County,90034969003.0
23009,sg:946c95af72a443a2a2d8d7d228ed9575,Blackledge Soccer Field,CT,2019-02-01T00:00:00-05:00,2019-03-01T00:00:00-05:00,6447,4,7.5,"{""<5"":1,""5-20"":2,""21-60"":1,""61-240"":0,"">240"":0}",68.0,41.668693,-72.462963,451140.0,CT,9.0,9003.0,Hartford County,90035241002.0
23095,sg:9c9e0d1f16ea48e88694af1346057f7d,La Piccolina,CT,2019-02-01T00:00:00-05:00,2019-03-01T00:00:00-05:00,6776,126,10.0,"{""<5"":4,""5-20"":99,""21-60"":8,""61-240"":3,"">240"":12}",4903.0,41.578041999999996,-73.411488,722511.0,CT,9.0,9005.0,Litchfield County,90052536002.0
23102,sg:9d6ed6de29c9495aba8645aa7af40bb0,Sutton Dental,CT,2019-02-01T00:00:00-05:00,2019-03-01T00:00:00-05:00,6511,8,579.5,"{""<5"":0,""5-20"":1,""21-60"":0,""61-240"":0,"">240"":7}",1692.5,41.314306,-72.93771600000001,621210.0,CT,9.0,9009.0,New Haven County,90091407005.0
23110,sg:9e13912aa61749d5b1e6dda17cd2e806,CubeSmart,CT,2019-02-01T00:00:00-05:00,2019-03-01T00:00:00-05:00,6514,19,87.0,"{""<5"":0,""5-20"":5,""21-60"":4,""61-240"":6,"">240"":4}",2087.5,41.40247,-72.915702,531130.0,CT,9.0,9009.0,New Haven County,90091659004.0
23118,sg:9f23cf7f09ab4b8f96ea34857739efff,UBS,CT,2019-02-01T00:00:00-05:00,2019-03-01T00:00:00-05:00,6103,1,408.0,"{""<5"":0,""5-20"":0,""21-60"":0,""61-240"":0,"">240"":1}",240.0,41.767127,-72.672632,522110.0,CT,9.0,9003.0,Hartford County,90035021002.0
23147,sg:a221da2fba73438f9d8e88143f43f91d,St Lawrence Cemetery,CT,2019-02-01T00:00:00-05:00,2019-03-01T00:00:00-05:00,6516,185,82.0,"{""<5"":4,""5-20"":38,""21-60"":30,""61-240"":93,"">240"":20}",20496.5,41.309667,-72.961904,812210.0,,,,,
23162,sg:a3c2c990f0d242a18b1313c01bd90986,Buy Rite Liquors,CT,2019-02-01T00:00:00-05:00,2019-03-01T00:00:00-05:00,6109,114,13.0,"{""<5"":6,""5-20"":72,""21-60"":21,""61-240"":12,"">240"":3}",4291.5,41.701927000000005,-72.65949499999999,445310.0,CT,9.0,9003.0,Hartford County,90034922002.0
23211,sg:a7ddc56811ba4ef38bf25805fbb032db,Bunting and Somma Ameriprise Financial Services,CT,2019-02-01T00:00:00-05:00,2019-03-01T00:00:00-05:00,6890,8,209.0,"{""<5"":0,""5-20"":2,""21-60"":2,""61-240"":0,"">240"":4}",1066.0,41.139497,-73.274912,523930.0,CT,9.0,9001.0,Fairfield County,90010606001.0
23216,sg:a81717561a3f4a22a6ac48710507efe8,Calvary Baptist Church,CT,2019-02-01T00:00:00-05:00,2019-03-01T00:00:00-05:00,6096,28,88.5,"{""<5"":0,""5-20"":7,""21-60"":4,""61-240"":15,"">240"":2}",2987.0,41.926632,-72.660374,813110.0,CT,9.0,9003.0,Hartford County,90034762001.0
23218,sg:a83b93d9963b4f14b432a6da623b4dbf,BRBG Insurance,CT,2019-02-01T00:00:00-05:00,2019-03-01T00:00:00-05:00,6484,5,510.0,"{""<5"":0,""5-20"":0,""21-60"":0,""61-240"":0,"">240"":5}",1200.0,41.267595,-73.128498,524210.0,CT,9.0,9001.0,Fairfield County,90011103022.0
23240,sg:a9a54eca858c46c79969d419517bf297,C&C Delicatessen,CT,2019-02-01T00:00:00-05:00,2019-03-01T00:00:00-05:00,6810,122,8.5,"{""<5"":8,""5-20"":76,""21-60"":13,""61-240"":5,"">240"":20}",7049.0,41.404589,-73.459386,722511.0,CT,9.0,9001.0,Fairfield County,90012101001.0
23347,sg:b3390f9f22c4458ab17cf23f3fdaf591,Navy Federal Credit Union Restricted Access,CT,2019-02-01T00:00:00-05:00,2019-03-01T00:00:00-05:00,6340,376,51.0,"{""<5"":8,""5-20"":116,""21-60"":78,""61-240"":91,"">240"":83}",38244.5,41.3903,-72.080738,522110.0,CT,9.0,9011.0,New London County,90119800001.0
23366,sg:b516055942a64f2a98acf8e9309e17fd,North Town Center,CT,2019-02-01T00:00:00-05:00,2019-03-01T00:00:00-05:00,6614,1886,20.0,"{""<5"":39,""5-20"":974,""21-60"":677,""61-240"":132,"">240"":64}",74917.0,41.232116,-73.14850200000001,531120.0,CT,9.0,9001.0,Fairfield County,90010811003.0
23367,sg:b5350ef6226d4cd99ad97ea61927fbf3,Medical Laser Systems,CT,2019-02-01T00:00:00-05:00,2019-03-01T00:00:00-05:00,6405,3,174.0,"{""<5"":0,""5-20"":1,""21-60"":0,""61-240"":1,"">240"":1}",403.0,41.307227000000005,-72.756738,621111.0,CT,9.0,9009.0,New Haven County,90091847001.0
23369,sg:b5420024af89446b842cf9f93618e808,Bristol Pizza Restaurant,CT,2019-02-01T00:00:00-05:00,2019-03-01T00:00:00-05:00,6010,288,38.0,"{""<5"":5,""5-20"":93,""21-60"":94,""61-240"":61,"">240"":35}",22562.5,41.67521,-72.950549,722511.0,CT,9.0,9003.0,Hartford County,90034057002.0
23398,sg:b87712db559c40539d413b45ef7b8964,Achieve,CT,2019-02-01T00:00:00-05:00,2019-03-01T00:00:00-05:00,6117,1,1268.0,"{""<5"":0,""5-20"":0,""21-60"":0,""61-240"":0,"">240"":1}",240.0,41.800042,-72.750546,611110.0,CT,9.0,9003.0,Hartford County,90034975002.0
23430,sg:bbc06f660a7d4045b4d6e6691fed64af,Best Buy Auto,CT,2019-02-01T00:00:00-05:00,2019-03-01T00:00:00-05:00,6457,23,18.0,"{""<5"":1,""5-20"":13,""21-60"":4,""61-240"":4,"">240"":1}",1169.0,41.589873,-72.67511999999999,441120.0,CT,9.0,9007.0,Middlesex County,90075412001.0
23435,sg:bbe5feb48ef1446c8be1a9b9988de429,Cove Landing Marine,CT,2019-02-01T00:00:00-05:00,2019-03-01T00:00:00-05:00,6371,8,147.0,"{""<5"":0,""5-20"":1,""21-60"":1,""61-240"":3,"">240"":3}",1224.5,41.38534,-72.350946,441222.0,CT,9.0,9011.0,New London County,90116501001.0
23574,sg:cbc61d38038041848e3d65027cecd288,Kingdom Way Pentecostal Church,CT,2019-02-01T00:00:00-05:00,2019-03-01T00:00:00-05:00,6810,66,77.0,"{""<5"":1,""5-20"":12,""21-60"":16,""61-240"":31,"">240"":6}",6906.0,41.397698999999996,-73.460298,813110.0,CT,9.0,9001.0,Fairfield County,90012107012.0
23594,sg:ce26c308b29e4a1993a71b19d4ef82f4,Granby Historical Marker,CT,2019-02-01T00:00:00-05:00,2019-03-01T00:00:00-05:00,6035,3,18.0,"{""<5"":0,""5-20"":2,""21-60"":0,""61-240"":0,"">240"":1}",265.0,41.945904999999996,-72.789948,712120.0,CT,9.0,9003.0,Hartford County,90034681022.0
23619,sg:d0a07a29d9a04064a04a06c0925af641,Timeless By Erika Bessette,CT,2019-02-01T00:00:00-05:00,2019-03-01T00:00:00-05:00,6467,5,63.0,"{""<5"":0,""5-20"":2,""21-60"":0,""61-240"":3,"">240"":0}",476.5,41.565427,-72.90000500000001,812112.0,CT,9.0,9003.0,Hartford County,90034304002.0
23888,sg:ea0f8a1d2f484d5ba121026e51df362c,People's Choice,CT,2019-02-01T00:00:00-05:00,2019-03-01T00:00:00-05:00,6040,22,17.0,"{""<5"":2,""5-20"":13,""21-60"":2,""61-240"":4,"">240"":1}",1090.5,41.782540999999995,-72.532657,722511.0,CT,9.0,9003.0,Hartford County,90035144004.0
23894,sg:ea88d5f73c124f76b2af6c1d82a65ac2,Happy Nails 2,CT,2019-02-01T00:00:00-05:00,2019-03-01T00:00:00-05:00,6226,1,13.0,"{""<5"":0,""5-20"":1,""21-60"":0,""61-240"":0,"">240"":0}",12.5,41.712193,-72.21445200000001,812113.0,CT,9.0,9015.0,Windham County,90158006003.0
24148,sg:04266d61020847898f7a6beac44ad7c8,Wayback Burgers,CT,2019-02-01T00:00:00-05:00,2019-03-01T00:00:00-05:00,6810,159,15.0,"{""<5"":5,""5-20"":90,""21-60"":44,""61-240"":15,"">240"":5}",6377.0,41.408221000000005,-73.415263,722513.0,CT,9.0,9001.0,Fairfield County,90012104001.0
24150,sg:047181b0a1294878bd156ee25c0304e1,Connecticut Golf Academy,CT,2019-02-01T00:00:00-05:00,2019-03-01T00:00:00-05:00,6040,42,45.5,"{""<5"":3,""5-20"":13,""21-60"":6,""61-240"":10,"">240"":10}",4318.0,41.751343,-72.569109,713910.0,CT,9.0,9003.0,Hartford County,90035151022.0
24224,sg:0a45e80f38ee4c46a77b8f764ac441c1,The Home Depot,CT,2019-02-01T00:00:00-05:00,2019-03-01T00:00:00-05:00,6473,854,19.0,"{""<5"":15,""5-20"":450,""21-60"":271,""61-240"":80,"">240"":38}",37798.0,41.354751,-72.870134,444130.0,CT,9.0,9009.0,New Haven County,90091672012.0
24225,sg:0a57dc1f3aec489f9359bac30131c849,Hindu Mandir,CT,2019-02-01T00:00:00-05:00,2019-03-01T00:00:00-05:00,6897,60,59.0,"{""<5"":1,""5-20"":11,""21-60"":20,""61-240"":19,"">240"":9}",5969.5,41.180212,-73.409797,445230.0,CT,9.0,9001.0,Fairfield County,90010454001.0
24239,sg:0bf922f6cac4467fb653894b0f05f8ea,Hampton,CT,2019-02-01T00:00:00-05:00,2019-03-01T00:00:00-05:00,6340,305,127.0,"{""<5"":7,""5-20"":55,""21-60"":50,""61-240"":72,"">240"":121}",42606.0,41.358522,-72.061954,721110.0,CT,9.0,9011.0,New London County,90117027002.0
24246,sg:0c7314e4964644acb8a1b943431a79b8,Keko's Deli,CT,2019-02-01T00:00:00-05:00,2019-03-01T00:00:00-05:00,6051,31,1000.0,"{""<5"":0,""5-20"":1,""21-60"":1,""61-240"":7,"">240"":22}",6386.5,41.668440000000004,-72.765693,722511.0,CT,9.0,9003.0,Hartford County,90034153001.0
24316,sg:12b866e9abf146fb85121c60014bf802,Bunny Village Child Development Center,CT,2019-02-01T00:00:00-05:00,2019-03-01T00:00:00-05:00,6410,29,13.0,"{""<5"":1,""5-20"":19,""21-60"":6,""61-240"":3,"">240"":0}",934.5,41.499153,-72.91521999999999,624410.0,CT,9.0,9009.0,New Haven County,90093434004.0
24653,sg:321e51bf46e64145ba39ae1b931adeac,Enlighten Therapy Center,CT,2019-02-01T00:00:00-05:00,2019-03-01T00:00:00-05:00,6443,52,70.0,"{""<5"":0,""5-20"":10,""21-60"":15,""61-240"":19,"">240"":8}",5512.0,41.288990999999996,-72.60373299999999,621330.0,CT,9.0,9009.0,New Haven County,90091942014.0
24731,sg:3900a6c354bf4efe97a225c8dd11c4d8,Mobil,CT,2019-02-01T00:00:00-05:00,2019-03-01T00:00:00-05:00,6810,21,5.0,"{""<5"":3,""5-20"":14,""21-60"":4,""61-240"":0,"">240"":0}",344.5,41.415959,-73.407934,447110.0,CT,9.0,9001.0,Fairfield County,90012114003.0
24810,sg:3f489fed533e41048d16a3bbb5e6ad49,Sea Tea Improv Studios,CT,2019-02-01T00:00:00-05:00,2019-03-01T00:00:00-05:00,6103,11,33.0,"{""<5"":0,""5-20"":0,""21-60"":8,""61-240"":2,"">240"":1}",865.0,41.767581,-72.6747,451140.0,CT,9.0,9003.0,Hartford County,90035021001.0
24811,sg:3f7b3406356141cf9e753ab5b2681068,Dunkin',CT,2019-02-01T00:00:00-05:00,2019-03-01T00:00:00-05:00,6002,164,6.0,"{""<5"":15,""5-20"":137,""21-60"":7,""61-240"":4,"">240"":1}",2875.5,41.814634999999996,-72.695273,722515.0,CT,9.0,9003.0,Hartford County,90034712002.0
24901,sg:47e3b76e76654746aad23453826d182d,My Country Store,CT,2019-02-01T00:00:00-05:00,2019-03-01T00:00:00-05:00,6512,86,11.0,"{""<5"":2,""5-20"":54,""21-60"":21,""61-240"":6,"">240"":3}",3153.5,41.285548,-72.886944,445110.0,CT,9.0,9009.0,New Haven County,90091802001.0
24924,sg:49e8f17e244040838f364c0dd12dac3a,Essex Coffee & Tea Company,CT,2019-02-01T00:00:00-05:00,2019-03-01T00:00:00-05:00,6426,99,46.0,"{""<5"":4,""5-20"":27,""21-60"":26,""61-240"":22,"">240"":20}",9511.5,41.351454,-72.386262,722515.0,CT,9.0,9007.0,Middlesex County,90076301004.0
24925,sg:49fc12a4a61941499238a80dff7605cd,Genoa Deli & Pizza,CT,2019-02-01T00:00:00-05:00,2019-03-01T00:00:00-05:00,6877,136,19.5,"{""<5"":4,""5-20"":74,""21-60"":50,""61-240"":7,"">240"":1}",4253.5,41.293986,-73.494398,722511.0,CT,9.0,9001.0,Fairfield County,90012453003.0
24987,sg:500108b993ac4e8ea442f652a829d808,Club Pilates,CT,2019-02-01T00:00:00-05:00,2019-03-01T00:00:00-05:00,6824,18,41.0,"{""<5"":0,""5-20"":3,""21-60"":9,""61-240"":6,"">240"":0}",1305.0,41.141834,-73.26587099999999,713940.0,CT,9.0,9001.0,Fairfield County,90010607002.0
25027,sg:530e445100e0468ca829daae6d1d38f5,Colchester Wine & Spirits,CT,2019-02-01T00:00:00-05:00,2019-03-01T00:00:00-05:00,6415,212,13.0,"{""<5"":8,""5-20"":134,""21-60"":51,""61-240"":12,"">240"":7}",7246.5,41.571293,-72.333444,445310.0,CT,9.0,9011.0,New London County,90117141013.0
25140,sg:5e06908e3ab14786ac03f6567e44e74a,Town Fair Tire,CT,2019-02-01T00:00:00-05:00,2019-03-01T00:00:00-05:00,6040,128,15.0,"{""<5"":2,""5-20"":73,""21-60"":17,""61-240"":12,"">240"":24}",9172.0,41.780633,-72.538088,441310.0,CT,9.0,9003.0,Hartford County,90035145002.0
25205,sg:6491aac4b1ad4739aa8f463c35d96bff,Ambassador Wheelchair,CT,2019-02-01T00:00:00-05:00,2019-03-01T00:00:00-05:00,6067,82,57.5,"{""<5"":2,""5-20"":18,""21-60"":22,""61-240"":38,"">240"":2}",7320.0,41.671894,-72.644114,722511.0,CT,9.0,9003.0,Hartford County,90034901003.0
25360,sg:71df58cf3e6941e99faa8699b7e89a7d,Chez Coby,CT,2019-02-01T00:00:00-05:00,2019-03-01T00:00:00-05:00,6851,90,186.5,"{""<5"":1,""5-20"":22,""21-60"":12,""61-240"":13,"">240"":42}",12800.0,41.122323,-73.41526800000001,722511.0,CT,9.0,9001.0,Fairfield County,90010434002.0
25570,sg:86cb92b18941404ab3128893950c4e11,Moe's Southwest Grill,CT,2019-02-01T00:00:00-05:00,2019-03-01T00:00:00-05:00,6461,308,18.0,"{""<5"":8,""5-20"":171,""21-60"":79,""61-240"":29,"">240"":21}",14761.5,41.246706,-73.01022900000001,722511.0,CT,9.0,9009.0,New Haven County,90091508001.0
25871,sg:a32a3c1a719d4e88b36a1625b39cf8d4,Liberty Tax Service,CT,2019-02-01T00:00:00-05:00,2019-03-01T00:00:00-05:00,6114,2,751.0,"{""<5"":0,""5-20"":0,""21-60"":0,""61-240"":1,"">240"":1}",390.5,41.741197,-72.675669,541213.0,CT,9.0,9003.0,Hartford County,90035024001.0
25918,sg:a701ae6eb9ca45218237b853a864a2b5,Gatehouse Tavern,CT,2019-02-01T00:00:00-05:00,2019-03-01T00:00:00-05:00,6340,177,17.0,"{""<5"":11,""5-20"":85,""21-60"":30,""61-240"":26,"">240"":25}",12218.0,41.34747,-72.07848299999999,722410.0,CT,9.0,9011.0,New London County,90117025002.0
25958,sg:abcd570ebfb94776ab5e7791045d5d8f,Educational Playcare,CT,2019-02-01T00:00:00-05:00,2019-03-01T00:00:00-05:00,6611,2,380.5,"{""<5"":0,""5-20"":0,""21-60"":0,""61-240"":0,"">240"":2}",480.0,41.238723,-73.14585500000001,624410.0,CT,9.0,9001.0,Fairfield County,90010905001.0
25990,sg:afef366594834fd59c39f81da4976cff,Alyson's School of Dance,CT,2019-02-01T00:00:00-05:00,2019-03-01T00:00:00-05:00,6415,152,45.5,"{""<5"":4,""5-20"":40,""21-60"":50,""61-240"":45,"">240"":13}",12427.5,41.57451,-72.325122,713940.0,CT,9.0,9011.0,New London County,90117141013.0
26154,sg:c01e764bd70e41c489384a793193cd7e,The Perfect Pair,CT,2019-02-01T00:00:00-05:00,2019-03-01T00:00:00-05:00,6824,16,21.5,"{""<5"":1,""5-20"":7,""21-60"":4,""61-240"":3,"">240"":1}",943.5,41.141469,-73.25722900000001,448120.0,CT,9.0,9001.0,Fairfield County,90010616001.0
26180,sg:c3225c0f4ddc4807b601315033f0f0e0,Highway Animal Hospital,CT,2019-02-01T00:00:00-05:00,2019-03-01T00:00:00-05:00,6825,19,139.0,"{""<5"":0,""5-20"":5,""21-60"":2,""61-240"":3,"">240"":9}",2755.0,41.171396,-73.229295,541940.0,CT,9.0,9001.0,Fairfield County,90010614001.0
26271,sg:cbd6c8a451c74f3b9d0658e65e43b214,OLD SAYBROOK CHRYSLER DODGE JEEP RAM,CT,2019-02-01T00:00:00-05:00,2019-03-01T00:00:00-05:00,6475,64,26.0,"{""<5"":1,""5-20"":26,""21-60"":25,""61-240"":11,"">240"":1}",3235.5,41.307644,-72.382687,441110.0,CT,9.0,9007.0,Middlesex County,90076701003.0
26308,sg:cfc3e0d129e445aaa169740afef2f598,Quick Stop,CT,2019-02-01T00:00:00-05:00,2019-03-01T00:00:00-05:00,6422,56,19.5,"{""<5"":2,""5-20"":26,""21-60"":25,""61-240"":2,"">240"":1}",1883.5,41.429413000000004,-72.732461,447110.0,CT,9.0,9007.0,Middlesex County,90075851004.0
26471,sg:e1063e943e0c4ef0a8bffb6b6536b3d0,Happy Holiday Chinese Restaurant,CT,2019-02-01T00:00:00-05:00,2019-03-01T00:00:00-05:00,6114,68,84.0,"{""<5"":4,""5-20"":24,""21-60"":2,""61-240"":8,"">240"":30}",8795.0,41.737008,-72.67501899999999,722511.0,CT,9.0,9003.0,Hartford County,90035024003.0
26485,sg:e1f16a1e981848dba8b3687345f5c36e,Flower Wonderland Flowers And Gifts,CT,2019-02-01T00:00:00-05:00,2019-03-01T00:00:00-05:00,6405,186,44.0,"{""<5"":1,""5-20"":35,""21-60"":82,""61-240"":31,"">240"":37}",17306.5,41.307902,-72.752039,453110.0,CT,9.0,9009.0,New Haven County,90091847001.0
26587,sg:ecb41d71c5b84f909c66da461dcb7df1,Southwood Pharmacy,CT,2019-02-01T00:00:00-05:00,2019-03-01T00:00:00-05:00,6082,110,6.0,"{""<5"":9,""5-20"":87,""21-60"":9,""61-240"":3,"">240"":2}",2406.0,41.964659999999995,-72.565349,446110.0,CT,9.0,9003.0,Hartford County,90034811001.0
26588,sg:ecb714fd537e43039c63d96d3ea9b4fb,Viera Lilian R DMD,CT,2019-02-01T00:00:00-05:00,2019-03-01T00:00:00-05:00,6850,36,27.5,"{""<5"":1,""5-20"":13,""21-60"":17,""61-240"":3,"">240"":2}",1785.0,41.116329,-73.41703199999999,621210.0,CT,9.0,9001.0,Fairfield County,90010437001.0
26653,sg:f3754912ca5a48f5bf4c6acec69f505d,Nassau's,CT,2019-02-01T00:00:00-05:00,2019-03-01T00:00:00-05:00,6074,221,104.0,"{""<5"":9,""5-20"":39,""21-60"":49,""61-240"":50,"">240"":74}",27779.5,41.841699,-72.602263,442110.0,CT,9.0,9003.0,Hartford County,90034873001.0
26704,sg:f7ea841d63ed432291e81e6a3d64909e,Domino's Pizza,CT,2019-02-01T00:00:00-05:00,2019-03-01T00:00:00-05:00,6705,22,7.5,"{""<5"":2,""5-20"":14,""21-60"":0,""61-240"":3,"">240"":3}",1351.5,41.548457,-73.015724,722513.0,CT,9.0,9009.0,New Haven County,90093513005.0
26778,sg:ff529a564a4b494088aadfae9998d76b,Crt Middletown Early Care & Education,CT,2019-02-01T00:00:00-05:00,2019-03-01T00:00:00-05:00,6457,85,79.0,"{""<5"":2,""5-20"":18,""21-60"":18,""61-240"":21,"">240"":26}",10359.5,41.557031,-72.65177,624410.0,,,,,
26823,sg:03b862e15f5c48659e4b3716164d2105,Thompsonville Fire Department District 2,CT,2019-02-01T00:00:00-05:00,2019-03-01T00:00:00-05:00,6082,13,207.0,"{""<5"":0,""5-20"":3,""21-60"":2,""61-240"":2,"">240"":6}",1859.5,41.998275,-72.600043,922160.0,CT,9.0,9003.0,Hartford County,90034806004.0
26974,sg:1113c993969c445ca8d3b751157aa8ec,Prime Sales Auto Dealers LLC,CT,2019-02-01T00:00:00-05:00,2019-03-01T00:00:00-05:00,6787,27,12.0,"{""<5"":2,""5-20"":15,""21-60"":7,""61-240"":3,"">240"":0}",927.5,41.659766,-73.08182,441228.0,CT,9.0,9005.0,Litchfield County,90053491003.0
27030,sg:16d167c3cb1141eba4097d81aecc5493,Highland School,CT,2019-02-01T00:00:00-05:00,2019-03-01T00:00:00-05:00,6492,329,103.0,"{""<5"":1,""5-20"":83,""21-60"":64,""61-240"":64,"">240"":117}",41344.0,41.487922999999995,-72.838479,611110.0,CT,9.0,9009.0,New Haven County,90091756004.0
27055,sg:192cc01dab36410cbac03bbc74327b3e,Go Buses,CT,2019-02-01T00:00:00-05:00,2019-03-01T00:00:00-05:00,6103,185,8.0,"{""<5"":23,""5-20"":123,""21-60"":18,""61-240"":15,"">240"":6}",6021.5,41.768832,-72.66994,482111.0,CT,9.0,9003.0,Hartford County,90035021002.0
27100,sg:1dd892721e534d9b8c8e5d2631b8aa69,4Structures com LLC,CT,2019-02-01T00:00:00-05:00,2019-03-01T00:00:00-05:00,6902,25,91.0,"{""<5"":1,""5-20"":5,""21-60"":4,""61-240"":6,"">240"":9}",3290.0,41.039592,-73.529679,524210.0,CT,9.0,9001.0,Fairfield County,90010221003.0
27276,sg:2c99371ae0c448e781adcd6cef6dd2aa,Classy Clipper,CT,2019-02-01T00:00:00-05:00,2019-03-01T00:00:00-05:00,6108,1461,141.0,"{""<5"":17,""5-20"":244,""21-60"":211,""61-240"":493,"">240"":496}",204874.5,41.769032,-72.67463000000001,453910.0,CT,9.0,9003.0,Hartford County,90035021002.0
27335,sg:31e36918251943e989fa35af693838f3,True Value Hardware,CT,2019-02-01T00:00:00-05:00,2019-03-01T00:00:00-05:00,6473,70,55.0,"{""<5"":2,""5-20"":24,""21-60"":11,""61-240"":24,"">240"":9}",6522.5,41.388115,-72.874329,444130.0,,,,,
27362,sg:34a30cf7dbee4d398922deaefe601867,Lyme Academy College of Fine Arts,CT,2019-02-01T00:00:00-05:00,2019-03-01T00:00:00-05:00,6371,99,152.0,"{""<5"":1,""5-20"":15,""21-60"":10,""61-240"":51,"">240"":22}",13550.5,41.322368,-72.329192,611310.0,CT,9.0,9011.0,New London County,90116601013.0
27371,sg:358d72336ffd4779995b9e8aad742228,Patco Handy Stop,CT,2019-02-01T00:00:00-05:00,2019-03-01T00:00:00-05:00,6786,96,10.0,"{""<5"":4,""5-20"":53,""21-60"":20,""61-240"":8,"">240"":11}",5326.5,41.678402,-73.00354,447110.0,CT,9.0,9005.0,Litchfield County,90054255003.0
27409,sg:38cc70a81af646049808ec400bb96469,Vein Centers of Ct,CT,2019-02-01T00:00:00-05:00,2019-03-01T00:00:00-05:00,6443,4,253.0,"{""<5"":0,""5-20"":2,""21-60"":0,""61-240"":0,"">240"":2}",505.0,41.278865,-72.594325,621111.0,CT,9.0,9009.0,New Haven County,90091941005.0
27429,sg:3ab32853bd604c1d8aa03e01b8901532,Elmwood Pastry Shop,CT,2019-02-01T00:00:00-05:00,2019-03-01T00:00:00-05:00,6110,12,10.0,"{""<5"":1,""5-20"":8,""21-60"":0,""61-240"":1,"">240"":2}",733.0,41.733284000000005,-72.732934,722515.0,CT,9.0,9003.0,Hartford County,90034963001.0
27506,sg:41f0043791d7485babe742a52e58f7d9,Gifted Hands Massage &amp Spa,CT,2019-02-01T00:00:00-05:00,2019-03-01T00:00:00-05:00,6770,150,95.5,"{""<5"":4,""5-20"":34,""21-60"":30,""61-240"":38,"">240"":44}",17929.0,41.490132,-73.054727,446120.0,CT,9.0,9009.0,New Haven County,90093453001.0
27553,sg:4510af2678e3480d9e132f9823f467c9,Monroe Psychic Readings By Stephanie,CT,2019-02-01T00:00:00-05:00,2019-03-01T00:00:00-05:00,6468,7,708.0,"{""<5"":0,""5-20"":0,""21-60"":0,""61-240"":2,"">240"":5}",1501.0,41.319556,-73.26280200000001,621330.0,CT,9.0,9001.0,Fairfield County,90011001003.0
27654,sg:4f808f4dedd04bf794f2f5d253146794,Danielle R Pannese DDS,CT,2019-02-01T00:00:00-05:00,2019-03-01T00:00:00-05:00,6825,3,525.0,"{""<5"":0,""5-20"":0,""21-60"":0,""61-240"":1,"">240"":2}",630.5,41.166451,-73.234735,621210.0,CT,9.0,9001.0,Fairfield County,90010614001.0
27733,sg:5844dce7691540f6806047569aa8764b,Arrow Cab CT,CT,2019-02-01T00:00:00-05:00,2019-03-01T00:00:00-05:00,6117,19,109.0,"{""<5"":0,""5-20"":4,""21-60"":5,""61-240"":5,"">240"":5}",2205.0,41.78371,-72.737833,485310.0,CT,9.0,9003.0,Hartford County,90034972002.0
27833,sg:62bb60d9f4d143adb5435e904baa2327,Knotty Pine Package Store,CT,2019-02-01T00:00:00-05:00,2019-03-01T00:00:00-05:00,6704,36,24.5,"{""<5"":3,""5-20"":15,""21-60"":4,""61-240"":4,"">240"":10}",3359.0,41.575725,-73.02611,445310.0,CT,9.0,9009.0,New Haven County,90093511001.0
28018,sg:73d54907915d4ec080f12bc78490826a,Hartford Tow Truck Company,CT,2019-02-01T00:00:00-05:00,2019-03-01T00:00:00-05:00,6106,359,46.0,"{""<5"":16,""5-20"":122,""21-60"":54,""61-240"":57,"">240"":110}",38730.5,41.759407,-72.695759,488410.0,CT,9.0,9003.0,Hartford County,90035029002.0
28047,sg:76bfe2f0aeab4d8abc93605bfc097ac3,Guilford Savings Bank,CT,2019-02-01T00:00:00-05:00,2019-03-01T00:00:00-05:00,6443,1,6.0,"{""<5"":0,""5-20"":1,""21-60"":0,""61-240"":0,"">240"":0}",12.5,41.360214,-72.635898,522110.0,CT,9.0,9009.0,New Haven County,90091942021.0
28070,sg:78c5e7a60d5344bbaaef8c7e069b6016,Candlewood Lake Club,CT,2019-02-01T00:00:00-05:00,2019-03-01T00:00:00-05:00,6776,18,31.5,"{""<5"":2,""5-20"":6,""21-60"":3,""61-240"":5,"">240"":2}",1434.0,41.49726,-73.44155500000001,453998.0,CT,9.0,9005.0,Litchfield County,90052534003.0
28312,sg:9173b93b12d94e97b7319a45e9ddb4a4,Greenwich Dance Studio,CT,2019-02-01T00:00:00-05:00,2019-03-01T00:00:00-05:00,6830,239,64.0,"{""<5"":4,""5-20"":55,""21-60"":55,""61-240"":68,"">240"":57}",26839.0,41.036507,-73.601861,713940.0,CT,9.0,9001.0,Fairfield County,90010108002.0
28424,sg:9a4f471f98514760b6ae8b8e7b388a02,Jane's Place,CT,2019-02-01T00:00:00-05:00,2019-03-01T00:00:00-05:00,6062,317,46.0,"{""<5"":6,""5-20"":95,""21-60"":83,""61-240"":121,"">240"":12}",25654.5,41.67188,-72.854469,722515.0,CT,9.0,9003.0,Hartford County,90034206004.0
28544,sg:a63a37648d8a43cb89e53594791b64ac,Stevens Alternate High School,CT,2019-02-01T00:00:00-05:00,2019-03-01T00:00:00-05:00,6118,88,323.0,"{""<5"":1,""5-20"":10,""21-60"":7,""61-240"":16,"">240"":54}",15779.0,41.755495,-72.596323,611110.0,CT,9.0,9003.0,Hartford County,90035111002.0
28562,sg:a86b7d696673431d87a8e8a1184db400,Priority Automation & Security,CT,2019-02-01T00:00:00-05:00,2019-03-01T00:00:00-05:00,6351,8,8.5,"{""<5"":1,""5-20"":4,""21-60"":3,""61-240"":0,"">240"":0}",174.0,41.599579999999996,-71.989876,443142.0,CT,9.0,9011.0,New London County,90117101001.0
28821,sg:c3711567dcfe4032879815c9c9f8adf4,Effi's Salon,CT,2019-02-01T00:00:00-05:00,2019-03-01T00:00:00-05:00,6880,2,81.5,"{""<5"":0,""5-20"":0,""21-60"":0,""61-240"":2,"">240"":0}",301.0,41.124075,-73.37208100000001,812112.0,CT,9.0,9001.0,Fairfield County,90010504001.0
28825,sg:c3b701ed3fff45bf8ac041a33956b11b,Brito's Restaurant,CT,2019-02-01T00:00:00-05:00,2019-03-01T00:00:00-05:00,6810,262,54.0,"{""<5"":7,""5-20"":70,""21-60"":62,""61-240"":76,"">240"":47}",26121.5,41.389069,-73.434628,722511.0,CT,9.0,9001.0,Fairfield County,90012104002.0
28912,sg:cce9119b3c3b49f7ac30c0f72e9c5a13,Scott Cameron PT,CT,2019-02-01T00:00:00-05:00,2019-03-01T00:00:00-05:00,6498,2,42.0,"{""<5"":0,""5-20"":1,""21-60"":0,""61-240"":1,"">240"":0}",163.0,41.295394,-72.489008,621340.0,CT,9.0,9007.0,Middlesex County,90076801001.0
