,safegraph_place_id,location_name,region,date_range_start,date_range_end,postal_code,raw_visit_counts,median_dwell,bucketed_dwell_times,est_total_dwell,latitude,longitude,naics_code,state,stateFIPS,countyFIPS,countyName,CBGFIPS
25,sg:0359eef778a94204a9dadf89e407d506,Bloomfield Motors,CT,2019-10-01T00:00:00-04:00,2019-11-01T00:00:00-04:00,6002,143,134.0,"{""<5"":1,""5-20"":26,""21-60"":18,""61-240"":52,"">240"":46}",19922.5,41.811035,-72.708085,441120.0,CT,9.0,9003.0,Hartford County,90034712002.0
32,sg:0446eefb34d3436ab8c6773c2ea6b578,Chelsea Piers Connecticut,CT,2019-10-01T00:00:00-04:00,2019-11-01T00:00:00-04:00,6902,162,56.5,"{""<5"":0,""5-20"":31,""21-60"":55,""61-240"":62,"">240"":14}",15306.0,41.050861,-73.516358,713940.0,CT,9.0,9001.0,Fairfield County,90010220002.0
82,sg:0722da502c3c402c870d210f08b9b125,Duques Alan Lcsw,CT,2019-10-01T00:00:00-04:00,2019-11-01T00:00:00-04:00,6443,19,52.0,"{""<5"":0,""5-20"":1,""21-60"":13,""61-240"":4,"">240"":1}",1381.0,41.289334999999994,-72.60377,621330.0,CT,9.0,9009.0,New Haven County,90091942014.0
181,sg:0e6da0b04fb047808c91c43052cf65f3,Precision Collision,CT,2019-10-01T00:00:00-04:00,2019-11-01T00:00:00-04:00,6259,11,12.0,"{""<5"":0,""5-20"":10,""21-60"":1,""61-240"":0,"">240"":0}",165.5,41.84897,-71.926294,811121.0,CT,9.0,9015.0,Windham County,90159025002.0
206,sg:110dcb577ec64375a53114213c5e13f5,Lashgari Michael D DMD,CT,2019-10-01T00:00:00-04:00,2019-11-01T00:00:00-04:00,6035,2,25.0,"{""<5"":0,""5-20"":1,""21-60"":1,""61-240"":0,"">240"":0}",53.0,41.949904,-72.78513000000001,621210.0,CT,9.0,9003.0,Hartford County,90034681022.0
488,sg:2af7a09978e4462ca1a113e8e7038b46,Herb N Stuff,CT,2019-10-01T00:00:00-04:00,2019-11-01T00:00:00-04:00,6516,119,22.0,"{""<5"":2,""5-20"":50,""21-60"":37,""61-240"":26,"">240"":4}",7001.5,41.279801,-72.955058,446191.0,CT,9.0,9009.0,New Haven County,90091545001.0
698,sg:3e8e7913965a4ed58a427404d5fa11dc,SHiFT CYCLING,CT,2019-10-01T00:00:00-04:00,2019-11-01T00:00:00-04:00,6510,76,50.5,"{""<5"":0,""5-20"":10,""21-60"":45,""61-240"":21,"">240"":0}",5108.0,41.305558000000005,-72.92831,713940.0,CT,9.0,9009.0,New Haven County,90091401001.0
727,sg:42e2dea16e7a4d9faced97447f19e9e8,DSW (Designer Shoe Warehouse),CT,2019-10-01T00:00:00-04:00,2019-11-01T00:00:00-04:00,6032,451,22.0,"{""<5"":8,""5-20"":189,""21-60"":187,""61-240"":54,"">240"":13}",21203.0,41.7179,-72.761024,448210.0,CT,9.0,9003.0,Hartford County,90034946002.0
824,sg:4bd8210520f74d3797f5b8d7134a0315,Commerce Park Children's Dentistry & Orthodontics,CT,2019-10-01T00:00:00-04:00,2019-11-01T00:00:00-04:00,6484,2,536.5,"{""<5"":0,""5-20"":0,""21-60"":0,""61-240"":0,"">240"":2}",480.0,41.295843,-73.144836,621210.0,CT,9.0,9001.0,Fairfield County,90011103014.0
861,sg:4ff5fd9c0bff46e1a1b8df84e8ac7f7c,Shoreline Pet Grooming,CT,2019-10-01T00:00:00-04:00,2019-11-01T00:00:00-04:00,6460,15,11.0,"{""<5"":0,""5-20"":10,""21-60"":3,""61-240"":2,"">240"":0}",547.5,41.2232,-73.040497,453910.0,CT,9.0,9009.0,New Haven County,90091509002.0
899,sg:52a78ce40fb24f01931d8076445b4112,Casa Mia On The Green,CT,2019-10-01T00:00:00-04:00,2019-11-01T00:00:00-04:00,6067,129,80.0,"{""<5"":1,""5-20"":23,""21-60"":30,""61-240"":74,"">240"":1}",12882.0,41.639516,-72.688654,722511.0,CT,9.0,9003.0,Hartford County,90034903025.0
980,sg:5980797e60624df087db416b8c96c3d5,Riverside Restaurant Cafe,CT,2019-10-01T00:00:00-04:00,2019-11-01T00:00:00-04:00,6010,139,30.0,"{""<5"":5,""5-20"":49,""21-60"":55,""61-240"":23,"">240"":7}",7994.0,41.67021,-72.937338,722511.0,CT,9.0,9003.0,Hartford County,90034061003.0
1017,sg:5c0880e6a0b64b639d516fb3ba9faaea,Silas Deane Pawn,CT,2019-10-01T00:00:00-04:00,2019-11-01T00:00:00-04:00,6002,298,17.5,"{""<5"":10,""5-20"":151,""21-60"":53,""61-240"":59,"">240"":25}",18938.5,41.827422,-72.73189,453310.0,CT,9.0,9003.0,Hartford County,90034713003.0
1102,sg:6639bc36abb64b9dac7efab1ee44e627,Infinity Bistro,CT,2019-10-01T00:00:00-04:00,2019-11-01T00:00:00-04:00,6058,157,115.0,"{""<5"":0,""5-20"":13,""21-60"":16,""61-240"":83,"">240"":45}",24102.0,41.99078,-73.19988000000001,722511.0,CT,9.0,9005.0,Litchfield County,90054256003.0
1146,sg:6baea1911dd0422a9b94c3ecb3658f7d,Dunkin',CT,2019-10-01T00:00:00-04:00,2019-11-01T00:00:00-04:00,6332,160,7.0,"{""<5"":23,""5-20"":99,""21-60"":10,""61-240"":12,"">240"":16}",7346.0,41.719770000000004,-71.898361,722515.0,CT,9.0,9015.0,Windham County,90159071002.0
1168,sg:6dd1293b638a4054a0233761b323fac1,Rockville Bank,CT,2019-10-01T00:00:00-04:00,2019-11-01T00:00:00-04:00,6117,169,39.0,"{""<5"":0,""5-20"":38,""21-60"":96,""61-240"":30,"">240"":5}",10078.0,41.796036,-72.750985,522110.0,CT,9.0,9003.0,Hartford County,90034975004.0
1374,sg:84a19c0316ce4d02b4ad1373cf0cf027,Hair Design & Color Studio,CT,2019-10-01T00:00:00-04:00,2019-11-01T00:00:00-04:00,6040,49,45.0,"{""<5"":0,""5-20"":13,""21-60"":15,""61-240"":5,"">240"":16}",5362.5,41.780271,-72.503108,812112.0,CT,9.0,9003.0,Hartford County,90035150003.0
1463,sg:8cddd92c5aeb4aa8a262200c00dd844d,Precious Touch Home Healthcare,CT,2019-10-01T00:00:00-04:00,2019-11-01T00:00:00-04:00,6705,22,43.0,"{""<5"":0,""5-20"":10,""21-60"":4,""61-240"":2,"">240"":6}",2028.0,41.55471,-72.990959,621610.0,CT,9.0,9009.0,New Haven County,90093526004.0
1606,sg:999050ef18874e9c95360286d464a76b,Charles N Wilkinson Jr DMD,CT,2019-10-01T00:00:00-04:00,2019-11-01T00:00:00-04:00,6107,26,50.5,"{""<5"":2,""5-20"":5,""21-60"":7,""61-240"":6,"">240"":6}",2694.0,41.756503,-72.744017,621210.0,CT,9.0,9003.0,Hartford County,90034965001.0
1739,sg:a6dcfd6e71544dcfa419716a77e57c54,Microtel Inn and Suites,CT,2019-10-01T00:00:00-04:00,2019-11-01T00:00:00-04:00,6801,193,107.0,"{""<5"":2,""5-20"":38,""21-60"":34,""61-240"":48,"">240"":71}",26121.0,41.416095,-73.395328,721110.0,CT,9.0,9001.0,Fairfield County,90012003013.0
1789,sg:abdabab4915a41aeaaf524ec29be61d6,Puritan Distribution Outlet,CT,2019-10-01T00:00:00-04:00,2019-11-01T00:00:00-04:00,6109,87,270.0,"{""<5"":0,""5-20"":13,""21-60"":9,""61-240"":20,"">240"":45}",14337.0,41.688412,-72.652328,442110.0,CT,9.0,9003.0,Hartford County,90034926001.0
1840,sg:af9f30ba60464669b87d638e6c54c616,Regal Entertainment Group,CT,2019-10-01T00:00:00-04:00,2019-11-01T00:00:00-04:00,6385,775,83.0,"{""<5"":5,""5-20"":66,""21-60"":207,""61-240"":473,"">240"":24}",86167.5,41.373006,-72.161546,512131.0,CT,9.0,9011.0,New London County,90116937001.0
1966,sg:bed3eba1c61c46f5bd2902913a5557f8,Gary's Tire Sales,CT,2019-10-01T00:00:00-04:00,2019-11-01T00:00:00-04:00,6374,10,8.5,"{""<5"":1,""5-20"":7,""21-60"":2,""61-240"":0,"">240"":0}",171.0,41.677288,-71.934069,441310.0,CT,9.0,9015.0,Windham County,90159073003.0
2064,sg:c88e55e5800f4821a2e0b32a52f17435,Gaetano's Tavern On Main,CT,2019-10-01T00:00:00-04:00,2019-11-01T00:00:00-04:00,6492,756,41.0,"{""<5"":17,""5-20"":207,""21-60"":256,""61-240"":232,"">240"":44}",58474.0,41.455059999999996,-72.81832,722511.0,CT,9.0,9009.0,New Haven County,90091751001.0
2178,sg:d24bba9f3fe84b98a4e7d4683df6e397,Uncle Bob's Flower and Garden Center,CT,2019-10-01T00:00:00-04:00,2019-11-01T00:00:00-04:00,6455,465,59.0,"{""<5"":8,""5-20"":104,""21-60"":124,""61-240"":187,"">240"":42}",44565.5,41.544973,-72.71083,453110.0,CT,9.0,9007.0,Middlesex County,90075801001.0
2279,sg:dd9ed44268b9490aa9b054263050ea9a,Advanced BioStructural Correction,CT,2019-10-01T00:00:00-04:00,2019-11-01T00:00:00-04:00,6825,1,70.0,"{""<5"":0,""5-20"":0,""21-60"":0,""61-240"":1,"">240"":0}",150.5,41.18483,-73.255602,621310.0,CT,9.0,9001.0,Fairfield County,90010602004.0
2290,sg:deeb7d19cb2c42edb005820ac99923a0,Petals 2 Go Florist,CT,2019-10-01T00:00:00-04:00,2019-11-01T00:00:00-04:00,6471,130,21.0,"{""<5"":5,""5-20"":59,""21-60"":40,""61-240"":21,"">240"":5}",6730.5,41.325239,-72.771057,453110.0,CT,9.0,9009.0,New Haven County,90091861006.0
2362,sg:e60a6401a10c48178fea2baa82ec3eaf,Futuron Systems,CT,2019-10-01T00:00:00-04:00,2019-11-01T00:00:00-04:00,6096,135,263.0,"{""<5"":3,""5-20"":27,""21-60"":19,""61-240"":12,"">240"":74}",20680.5,41.931938,-72.65949499999999,541213.0,CT,9.0,9003.0,Hartford County,90034762001.0
2448,sg:ed8c43c19d8044d2a33a26831126288e,Child & Family Development Resource Center,CT,2019-10-01T00:00:00-04:00,2019-11-01T00:00:00-04:00,6226,247,59.0,"{""<5"":1,""5-20"":66,""21-60"":58,""61-240"":57,"">240"":65}",27355.0,41.715105,-72.218699,624410.0,CT,9.0,9015.0,Windham County,90158007002.0
2488,sg:f2ec1baf923840238e860e33630fa5c5,Gil's Auto & Truck Repair,CT,2019-10-01T00:00:00-04:00,2019-11-01T00:00:00-04:00,6812,4,58.0,"{""<5"":0,""5-20"":1,""21-60"":2,""61-240"":0,"">240"":1}",333.5,41.465524,-73.483926,811111.0,CT,9.0,9001.0,Fairfield County,90012202004.0
2700,sg:082817a431604518852e4e10c0afa004,Staples,CT,2019-10-01T00:00:00-04:00,2019-11-01T00:00:00-04:00,6514,365,21.0,"{""<5"":9,""5-20"":173,""21-60"":100,""61-240"":50,"">240"":33}",21680.0,41.371303000000005,-72.914825,453210.0,CT,9.0,9009.0,New Haven County,90091660013.0
2703,sg:0860af01a15e46b383a8e2dd75f98789,Zia's cucina,CT,2019-10-01T00:00:00-04:00,2019-11-01T00:00:00-04:00,6702,189,18.0,"{""<5"":14,""5-20"":87,""21-60"":34,""61-240"":21,"">240"":33}",13580.0,41.554947999999996,-73.03411899999999,722511.0,CT,9.0,9009.0,New Haven County,90093504003.0
2859,sg:1736c017199e44bbbd6a5e5e505ac5f1,Bath Fitter,CT,2019-10-01T00:00:00-04:00,2019-11-01T00:00:00-04:00,6460,48,70.5,"{""<5"":1,""5-20"":16,""21-60"":7,""61-240"":5,"">240"":19}",5798.5,41.2404,-73.024077,236118.0,CT,9.0,9009.0,New Haven County,90091508001.0
2981,sg:21edd010999a4db0a40ca6cd41479a5f,Jay's Bubble Bath,CT,2019-10-01T00:00:00-04:00,2019-11-01T00:00:00-04:00,6111,28,21.0,"{""<5"":1,""5-20"":12,""21-60"":13,""61-240"":2,"">240"":0}",980.0,41.71894,-72.735466,811192.0,CT,9.0,9003.0,Hartford County,90034946001.0
3017,sg:24f9c4428ef04afbae6969b10ffeeef6,Superfly Motorsports,CT,2019-10-01T00:00:00-04:00,2019-11-01T00:00:00-04:00,6787,68,44.0,"{""<5"":2,""5-20"":18,""21-60"":19,""61-240"":25,"">240"":4}",5722.0,41.693326,-73.065393,441228.0,CT,9.0,9005.0,Litchfield County,90053492003.0
3111,sg:2dc58ccf2871484e9bc673159e0d5d4f,Severed Ties Antiques,CT,2019-10-01T00:00:00-04:00,2019-11-01T00:00:00-04:00,6840,151,19.0,"{""<5"":3,""5-20"":89,""21-60"":43,""61-240"":15,"">240"":1}",5359.0,41.146907,-73.49046700000001,453310.0,CT,9.0,9001.0,Fairfield County,90010351002.0
3112,sg:2df25f5604c74ad1b3266732440adc2c,Cid Noelbis OD,CT,2019-10-01T00:00:00-04:00,2019-11-01T00:00:00-04:00,6825,98,52.0,"{""<5"":3,""5-20"":27,""21-60"":26,""61-240"":30,"">240"":12}",8793.0,41.173562,-73.236375,446130.0,CT,9.0,9001.0,Fairfield County,90010613002.0
3152,sg:311d331e768a42cfb175d24c974ee24c,Over The Edge Automotive,CT,2019-10-01T00:00:00-04:00,2019-11-01T00:00:00-04:00,6477,38,43.0,"{""<5"":0,""5-20"":11,""21-60"":11,""61-240"":5,"">240"":11}",3975.5,41.269364,-72.996498,811121.0,CT,9.0,9009.0,New Haven County,90091571001.0
3202,sg:37175ee7bd2d4aa78dea51a7e490952b,Bridgeport International Academy,CT,2019-10-01T00:00:00-04:00,2019-11-01T00:00:00-04:00,6604,274,144.0,"{""<5"":3,""5-20"":46,""21-60"":38,""61-240"":100,"">240"":87}",38051.5,41.167198,-73.188311,611110.0,CT,9.0,9001.0,Fairfield County,90010705001.0
3214,sg:38bce5b80c61415c82438a5a0a98d31d,Charlene Elizabeth Salon,CT,2019-10-01T00:00:00-04:00,2019-11-01T00:00:00-04:00,6492,1,72.0,"{""<5"":0,""5-20"":0,""21-60"":0,""61-240"":1,"">240"":0}",150.5,41.48385,-72.815248,812112.0,CT,9.0,9009.0,New Haven County,90091754001.0
3230,sg:39ee248fdf6940b69aaf16265f3b2424,Plainfield Memorial School,CT,2019-10-01T00:00:00-04:00,2019-11-01T00:00:00-04:00,6374,139,50.0,"{""<5"":1,""5-20"":50,""21-60"":20,""61-240"":19,"">240"":49}",16057.0,41.683426000000004,-71.931815,611110.0,CT,9.0,9015.0,Windham County,90159073003.0
3306,sg:40480cef2c9d48c38ef4a1804372c370,B.GOOD,CT,2019-10-01T00:00:00-04:00,2019-11-01T00:00:00-04:00,6033,323,22.0,"{""<5"":5,""5-20"":127,""21-60"":127,""61-240"":37,"">240"":27}",18792.0,41.720317,-72.620921,722513.0,CT,9.0,9003.0,Hartford County,90035203022.0
3326,sg:426affa599c441e29242dab5ef43f5a8,Hphs Academy Of Nursing And Health Science,CT,2019-10-01T00:00:00-04:00,2019-11-01T00:00:00-04:00,6105,1,6.0,"{""<5"":0,""5-20"":1,""21-60"":0,""61-240"":0,"">240"":0}",12.5,41.765219,-72.701001,611110.0,CT,9.0,9003.0,Hartford County,90035042002.0
3436,sg:4c512fc79db340c8b40a6b48cb5d1080,Toyota of Stamford,CT,2019-10-01T00:00:00-04:00,2019-11-01T00:00:00-04:00,6902,261,13.0,"{""<5"":11,""5-20"":141,""21-60"":51,""61-240"":44,"">240"":14}",13837.5,41.055496000000005,-73.52329399999999,441110.0,CT,9.0,9001.0,Fairfield County,90010218023.0
3439,sg:4cc1f0d167b04d348535c4645deff235,Zita David F Phd,CT,2019-10-01T00:00:00-04:00,2019-11-01T00:00:00-04:00,6371,5,56.0,"{""<5"":0,""5-20"":1,""21-60"":3,""61-240"":1,"">240"":0}",284.5,41.337159,-72.264315,621111.0,CT,9.0,9011.0,New London County,90116601021.0
3569,sg:56d8beeb89e040e8907031b2cc6fe897,The Chrysalis,CT,2019-10-01T00:00:00-04:00,2019-11-01T00:00:00-04:00,6511,7,56.0,"{""<5"":0,""5-20"":2,""21-60"":2,""61-240"":0,"">240"":3}",826.0,41.310970000000005,-72.91983499999999,812112.0,CT,9.0,9009.0,New Haven County,90091420002.0
3586,sg:598457942e4a4a5dafddc69e2c6ddcf5,La Taqueria,CT,2019-10-01T00:00:00-04:00,2019-11-01T00:00:00-04:00,6830,338,32.0,"{""<5"":8,""5-20"":106,""21-60"":107,""61-240"":71,"">240"":46}",27404.0,41.0306,-73.627183,722511.0,CT,9.0,9001.0,Fairfield County,90010106003.0
3640,sg:5eafe07195c7498f8e23ff560af8b43f,Malta Services of Ct,CT,2019-10-01T00:00:00-04:00,2019-11-01T00:00:00-04:00,6855,4,89.5,"{""<5"":0,""5-20"":0,""21-60"":0,""61-240"":4,"">240"":0}",602.0,41.10561,-73.405573,813110.0,CT,9.0,9001.0,Fairfield County,90010442002.0
3741,sg:6ac268ce0f1e48df9b36b166bad2c468,Mennonite Bible Fellowship Church,CT,2019-10-01T00:00:00-04:00,2019-11-01T00:00:00-04:00,6519,259,76.0,"{""<5"":2,""5-20"":63,""21-60"":54,""61-240"":67,"">240"":73}",30583.0,41.293254,-72.93496400000001,813110.0,CT,9.0,9009.0,New Haven County,90091405001.0
3809,sg:7143212391b34736a61058c690780b1b,Muzzy Athletic Field,CT,2019-10-01T00:00:00-04:00,2019-11-01T00:00:00-04:00,6010,205,26.0,"{""<5"":5,""5-20"":91,""21-60"":53,""61-240"":40,"">240"":16}",13156.5,41.673183,-72.960259,713940.0,CT,9.0,9003.0,Hartford County,90034057001.0
3814,sg:717336b3b07f47d790c790e60932aaed,Waave W Hartford Applied Academic Voc'l Experience,CT,2019-10-01T00:00:00-04:00,2019-11-01T00:00:00-04:00,6117,5,11.0,"{""<5"":0,""5-20"":3,""21-60"":0,""61-240"":2,"">240"":0}",338.5,41.8005,-72.75055400000001,611110.0,CT,9.0,9003.0,Hartford County,90034975002.0
3961,sg:7f98a75ccd0642319849a5c431e3c230,Mecca Marlborough Elem Child Care,CT,2019-10-01T00:00:00-04:00,2019-11-01T00:00:00-04:00,6447,126,9.5,"{""<5"":3,""5-20"":92,""21-60"":15,""61-240"":12,"">240"":4}",4531.0,41.627893,-72.45958399999999,624410.0,CT,9.0,9003.0,Hartford County,90035241005.0
4180,sg:94841171b04e41798f91e310933b7800,Sundara Massage & Wellness,CT,2019-10-01T00:00:00-04:00,2019-11-01T00:00:00-04:00,6479,1,158.0,"{""<5"":0,""5-20"":0,""21-60"":0,""61-240"":1,"">240"":0}",150.5,41.562893,-72.882064,812199.0,CT,9.0,9009.0,New Haven County,90093431013.0
4279,sg:9ef54fd31057499c99c97d6e5adb5f08,Christo's Pizza Mystic,CT,2019-10-01T00:00:00-04:00,2019-11-01T00:00:00-04:00,6355,208,40.0,"{""<5"":6,""5-20"":59,""21-60"":77,""61-240"":54,"">240"":12}",14878.0,41.377862,-71.957595,722511.0,CT,9.0,9011.0,New London County,90117054002.0
4310,sg:a18114e3db30432da3dde3471eb2ab87,Gingerbread School House Monroe,CT,2019-10-01T00:00:00-04:00,2019-11-01T00:00:00-04:00,6468,7,27.0,"{""<5"":0,""5-20"":3,""21-60"":3,""61-240"":1,"">240"":0}",309.5,41.333315999999996,-73.206653,624410.0,CT,9.0,9001.0,Fairfield County,90011003001.0
4330,sg:a3432653b0a344aabb71750e6fd35186,7-Eleven,CT,2019-10-01T00:00:00-04:00,2019-11-01T00:00:00-04:00,6447,157,9.0,"{""<5"":15,""5-20"":123,""21-60"":14,""61-240"":5,"">240"":0}",2894.5,41.631503,-72.460323,445120.0,CT,9.0,9003.0,Hartford County,90035241004.0
4368,sg:a790e22471724af29275a80ea8501500,MacWear Athletic Apparel & Equipment,CT,2019-10-01T00:00:00-04:00,2019-11-01T00:00:00-04:00,6890,51,250.0,"{""<5"":4,""5-20"":16,""21-60"":0,""61-240"":4,"">240"":27}",7292.0,41.138902,-73.290253,451110.0,CT,9.0,9001.0,Fairfield County,90010606001.0
4401,sg:aad2381b1fbd4048afeb0ab4a103d9cc,Supreme Blenz,CT,2019-10-01T00:00:00-04:00,2019-11-01T00:00:00-04:00,6340,16,29.5,"{""<5"":0,""5-20"":8,""21-60"":1,""61-240"":1,"">240"":6}",1731.0,41.344666,-72.067684,812112.0,CT,9.0,9011.0,New London County,90117025001.0
4541,sg:b9827880b7124b1fadb0e74e566f7020,West Shore Fire District Benham Hill Station,CT,2019-10-01T00:00:00-04:00,2019-11-01T00:00:00-04:00,6516,65,74.0,"{""<5"":3,""5-20"":14,""21-60"":13,""61-240"":14,"">240"":21}",7856.0,41.249526,-72.983434,922160.0,CT,9.0,9009.0,New Haven County,90091547007.0
4575,sg:bd53fcbe3e48468c955e338d28ffef01,Big Baller Kennels,CT,2019-10-01T00:00:00-04:00,2019-11-01T00:00:00-04:00,6907,49,20.0,"{""<5"":3,""5-20"":22,""21-60"":11,""61-240"":5,"">240"":8}",3400.5,41.099067,-73.514626,812910.0,CT,9.0,9001.0,Fairfield County,90010209001.0
4620,sg:c23a32690d8f4c85adceda601d181cd2,The Milford Bank,CT,2019-10-01T00:00:00-04:00,2019-11-01T00:00:00-04:00,6460,67,41.0,"{""<5"":1,""5-20"":25,""21-60"":17,""61-240"":22,"">240"":2}",4794.5,41.227197,-72.997312,522110.0,CT,9.0,9009.0,New Haven County,90091511002.0
4636,sg:c3abbe0f42fa4933a1533a05a948352a,Nonnewaug Falls,CT,2019-10-01T00:00:00-04:00,2019-11-01T00:00:00-04:00,6751,26,32.0,"{""<5"":0,""5-20"":8,""21-60"":13,""61-240"":5,"">240"":0}",1379.0,41.612984999999995,-73.171948,712190.0,CT,9.0,9005.0,Litchfield County,90053421003.0
4735,sg:cceb433d63c34625a1c8334207873a0f,Dynamite Academy Of Gymnastics,CT,2019-10-01T00:00:00-04:00,2019-11-01T00:00:00-04:00,6705,73,41.0,"{""<5"":0,""5-20"":17,""21-60"":34,""61-240"":22,"">240"":0}",4900.5,41.538222999999995,-72.994805,713940.0,CT,9.0,9009.0,New Haven County,90093528001.0
4748,sg:ce8214cd788841f0b5fb4e12cf73cf90,Aaron's,CT,2019-10-01T00:00:00-04:00,2019-11-01T00:00:00-04:00,6514,11,21.0,"{""<5"":1,""5-20"":4,""21-60"":3,""61-240"":2,"">240"":1}",715.0,41.340662,-72.934691,532289.0,CT,9.0,9009.0,New Haven County,90091655001.0
4775,sg:d1f9f147988b41f4949615262d0c7c4f,Wendy's,CT,2019-10-01T00:00:00-04:00,2019-11-01T00:00:00-04:00,6106,414,10.0,"{""<5"":11,""5-20"":314,""21-60"":68,""61-240"":20,"">240"":1}",9956.5,41.755119,-72.714516,722513.0,CT,9.0,9003.0,Hartford County,90035043002.0
4783,sg:d28d0ed98def4e04afd725e37b71af3c,Reaz Hoque SYNERGY Web Apps,CT,2019-10-01T00:00:00-04:00,2019-11-01T00:00:00-04:00,6907,141,100.0,"{""<5"":0,""5-20"":35,""21-60"":25,""61-240"":41,"">240"":40}",17220.5,41.094109,-73.519413,443142.0,CT,9.0,9001.0,Fairfield County,90010209002.0
4799,sg:d3f9696e2e124d3b926b1836fa9eb8a8,ALDI,CT,2019-10-01T00:00:00-04:00,2019-11-01T00:00:00-04:00,6241,328,15.0,"{""<5"":9,""5-20"":194,""21-60"":118,""61-240"":5,"">240"":2}",8459.0,41.841034,-71.874257,445110.0,CT,9.0,9015.0,Windham County,90159041001.0
4908,sg:e110b5f456c24eb9a9d0ab0688930415,Jila Threading Salon & Spa,CT,2019-10-01T00:00:00-04:00,2019-11-01T00:00:00-04:00,6241,26,31.5,"{""<5"":1,""5-20"":7,""21-60"":11,""61-240"":4,"">240"":3}",1857.5,41.872032,-71.873777,812199.0,CT,9.0,9015.0,Windham County,90159041001.0
4934,sg:e39a1bd6532b4fe19f865a13327c7e95,School Age Program Vogel Wetmore,CT,2019-10-01T00:00:00-04:00,2019-11-01T00:00:00-04:00,6790,26,63.5,"{""<5"":1,""5-20"":4,""21-60"":8,""61-240"":8,"">240"":5}",2780.5,41.8042,-73.123263,624410.0,CT,9.0,9005.0,Litchfield County,90053102001.0
5164,sg:faba928f6e63428e81b3f251de1e934b,United Way,CT,2019-10-01T00:00:00-04:00,2019-11-01T00:00:00-04:00,6702,21,52.0,"{""<5"":0,""5-20"":5,""21-60"":9,""61-240"":7,"">240"":0}",1480.5,41.556913,-73.03577800000001,813219.0,CT,9.0,9009.0,New Haven County,90093501001.0
5176,sg:fbaba45739544c09a42ba4162255b686,Education Employment Hotline,CT,2019-10-01T00:00:00-04:00,2019-11-01T00:00:00-04:00,6105,657,117.0,"{""<5"":10,""5-20"":132,""21-60"":119,""61-240"":189,"">240"":207}",84619.0,41.771875,-72.701713,611310.0,CT,9.0,9003.0,Hartford County,90035031004.0
5450,sg:153a1df160bc4925a7ba8ed4442923e7,Ecker Hill Disc Golf Course,CT,2019-10-01T00:00:00-04:00,2019-11-01T00:00:00-04:00,6066,45,19.0,"{""<5"":2,""5-20"":25,""21-60"":7,""61-240"":7,"">240"":4}",2614.5,41.843140999999996,-72.464451,713910.0,CT,9.0,9013.0,Tolland County,90135303022.0
5538,sg:1e53f158020544e690ca88c7dce0caba,The Root System,CT,2019-10-01T00:00:00-04:00,2019-11-01T00:00:00-04:00,6067,28,14.0,"{""<5"":1,""5-20"":19,""21-60"":5,""61-240"":3,"">240"":0}",894.0,41.64168,-72.646863,453110.0,CT,9.0,9003.0,Hartford County,90034901002.0
5560,sg:201a5ff0b7a14a4cbcd3a1032678bffa,Coynes Shoreline Collision,CT,2019-10-01T00:00:00-04:00,2019-11-01T00:00:00-04:00,6498,4,8.5,"{""<5"":0,""5-20"":3,""21-60"":1,""61-240"":0,"">240"":0}",78.0,41.289739000000004,-72.450898,811121.0,CT,9.0,9007.0,Middlesex County,90076801003.0
5575,sg:21f7ff3a3f0c47988e9dbe9cd9a93826,Kim Bechtold Ameriprise Financial Services,CT,2019-10-01T00:00:00-04:00,2019-11-01T00:00:00-04:00,6880,3,477.0,"{""<5"":0,""5-20"":0,""21-60"":0,""61-240"":0,"">240"":3}",720.0,41.14108,-73.3654,523930.0,CT,9.0,9001.0,Fairfield County,90010501003.0
5579,sg:224372113b634df582c4acdcbb3de37d,Restaurant Equipment Paradise,CT,2019-10-01T00:00:00-04:00,2019-11-01T00:00:00-04:00,6108,103,137.0,"{""<5"":1,""5-20"":21,""21-60"":16,""61-240"":22,"">240"":43}",14544.0,41.782608,-72.614671,442299.0,CT,9.0,9003.0,Hartford County,90035103002.0
5601,sg:246c74118a5e4abda461094ffb09562d,Mobil,CT,2019-10-01T00:00:00-04:00,2019-11-01T00:00:00-04:00,6478,244,8.0,"{""<5"":21,""5-20"":154,""21-60"":31,""61-240"":32,"">240"":6}",9489.0,41.399431,-73.088977,447110.0,CT,9.0,9009.0,New Haven County,90091302003.0
5613,sg:252de34915ae456987ea195a83e2729d,The Center for Cancer Care at Griffin Hospital,CT,2019-10-01T00:00:00-04:00,2019-11-01T00:00:00-04:00,6418,135,155.0,"{""<5"":1,""5-20"":11,""21-60"":25,""61-240"":48,"">240"":50}",20376.5,41.337443,-73.091074,621111.0,CT,9.0,9009.0,New Haven County,90091202001.0
5671,sg:2b3d78cc468f47f2aa4c7369e5df04a8,Shell Oil,CT,2019-10-01T00:00:00-04:00,2019-11-01T00:00:00-04:00,6040,187,6.0,"{""<5"":31,""5-20"":140,""21-60"":12,""61-240"":3,"">240"":1}",3005.0,41.764223,-72.539276,447110.0,CT,9.0,9003.0,Hartford County,90035151011.0
5696,sg:2dd08ae7fca342b493e187971e282c1b,Alves Tax LLC,CT,2019-10-01T00:00:00-04:00,2019-11-01T00:00:00-04:00,6403,336,51.0,"{""<5"":5,""5-20"":94,""21-60"":79,""61-240"":91,"">240"":67}",34162.5,41.43672,-73.058374,541213.0,CT,9.0,9009.0,New Haven County,90093411003.0
5829,sg:3b1e9c7af1514fe6bd8be398bc78065d,Assurance Glass,CT,2019-10-01T00:00:00-04:00,2019-11-01T00:00:00-04:00,6108,93,48.0,"{""<5"":2,""5-20"":29,""21-60"":18,""61-240"":22,"">240"":22}",9687.5,41.792654,-72.618169,444120.0,CT,9.0,9003.0,Hartford County,90035103001.0
5857,sg:3d7786306e0a411884808820741343f9,Goldman Sachs,CT,2019-10-01T00:00:00-04:00,2019-11-01T00:00:00-04:00,6850,66,264.0,"{""<5"":0,""5-20"":5,""21-60"":3,""61-240"":22,"">240"":36}",12135.0,41.143907,-73.427637,523110.0,CT,9.0,9001.0,Fairfield County,90010427001.0
5981,sg:47fe81737ab5467c940845da62dafb2e,New England Ski & Scuba,CT,2019-10-01T00:00:00-04:00,2019-11-01T00:00:00-04:00,6066,114,23.0,"{""<5"":2,""5-20"":51,""21-60"":27,""61-240"":23,"">240"":11}",7837.5,41.865956,-72.471896,451110.0,CT,9.0,9013.0,Tolland County,90135303012.0
6055,sg:4f5e64e638e14eedab1558eb1ddfaea1,Gaudi tapas and Wine,CT,2019-10-01T00:00:00-04:00,2019-11-01T00:00:00-04:00,6811,95,132.0,"{""<5"":1,""5-20"":17,""21-60"":12,""61-240"":28,"">240"":37}",13795.0,41.44342,-73.473145,722511.0,CT,9.0,9001.0,Fairfield County,90012110001.0
6221,sg:5e58271b878c4f8fb6e5b6119d7e00cc,Cecila's Beauty Salon,CT,2019-10-01T00:00:00-04:00,2019-11-01T00:00:00-04:00,6511,38,29.5,"{""<5"":0,""5-20"":9,""21-60"":17,""61-240"":10,"">240"":2}",2786.0,41.334608,-72.93494799999999,812112.0,CT,9.0,9009.0,New Haven County,90091415004.0
6250,sg:6165b176c2c440658c55668c5b478ec2,Radiology Associates of Hartford PC,CT,2019-10-01T00:00:00-04:00,2019-11-01T00:00:00-04:00,6002,57,11.0,"{""<5"":1,""5-20"":33,""21-60"":8,""61-240"":10,"">240"":5}",3444.0,41.816651,-72.732063,621111.0,CT,9.0,9003.0,Hartford County,90034713002.0
6263,sg:62ac9bcc90fb442f8ceb2fb0b9035e7d,Taqueria,CT,2019-10-01T00:00:00-04:00,2019-11-01T00:00:00-04:00,6033,576,20.0,"{""<5"":14,""5-20"":279,""21-60"":216,""61-240"":44,"">240"":23}",24412.5,41.714779,-72.60808399999999,722511.0,CT,9.0,9003.0,Hartford County,90035203022.0
6479,sg:76be23b7457e43bda4c63d781e6b8a5e,Fellowship Baptist Church,CT,2019-10-01T00:00:00-04:00,2019-11-01T00:00:00-04:00,6042,11,117.0,"{""<5"":0,""5-20"":3,""21-60"":2,""61-240"":4,"">240"":2}",1200.5,41.811677,-72.533611,813110.0,CT,9.0,9003.0,Hartford County,90035141021.0
6626,sg:87c9683b722646be938e7843c5b3353d,Matthew's Bakery,CT,2019-10-01T00:00:00-04:00,2019-11-01T00:00:00-04:00,6902,2,24.0,"{""<5"":0,""5-20"":1,""21-60"":1,""61-240"":0,"">240"":0}",53.0,41.055851000000004,-73.54786899999999,311811.0,CT,9.0,9001.0,Fairfield County,90010213003.0
6725,sg:91262561f9bd40509712f747a3c3f382,Bloom Yoga Fitness Studios,CT,2019-10-01T00:00:00-04:00,2019-11-01T00:00:00-04:00,6489,230,69.5,"{""<5"":1,""5-20"":24,""21-60"":63,""61-240"":130,"">240"":12}",25299.0,41.601483,-72.893012,713940.0,CT,9.0,9003.0,Hartford County,90034306021.0
6783,sg:966c8a853fa44d8e834a3d7e8845d2c4,Insure net,CT,2019-10-01T00:00:00-04:00,2019-11-01T00:00:00-04:00,6473,28,448.5,"{""<5"":2,""5-20"":5,""21-60"":0,""61-240"":4,"">240"":17}",4749.5,41.367641,-72.880145,524210.0,CT,9.0,9009.0,New Haven County,90091671002.0
6795,sg:97a5bdf8b8a3405995d44071e0de1adc,UBS,CT,2019-10-01T00:00:00-04:00,2019-11-01T00:00:00-04:00,6901,1280,201.0,"{""<5"":23,""5-20"":289,""21-60"":116,""61-240"":282,"">240"":570}",187609.0,41.047779999999996,-73.543654,522110.0,CT,9.0,9001.0,Fairfield County,90010201003.0
6844,sg:9c50d50ba630486390757805db96d4ac,AutoZone,CT,2019-10-01T00:00:00-04:00,2019-11-01T00:00:00-04:00,6811,2,8.5,"{""<5"":0,""5-20"":2,""21-60"":0,""61-240"":0,"">240"":0}",25.0,41.412842,-73.456517,441310.0,CT,9.0,9001.0,Fairfield County,90012112002.0
6954,sg:a7889d5254c74c2fb108927edd2a881c,Pawloski Car Star Collision Center,CT,2019-10-01T00:00:00-04:00,2019-11-01T00:00:00-04:00,6492,17,15.0,"{""<5"":2,""5-20"":9,""21-60"":3,""61-240"":3,"">240"":0}",690.5,41.500116,-72.816278,811121.0,CT,9.0,9009.0,New Haven County,90091754004.0
7323,sg:cacaeefba596483b8afb819044462e7e,Marco William P DMD,CT,2019-10-01T00:00:00-04:00,2019-11-01T00:00:00-04:00,6095,1,13.0,"{""<5"":0,""5-20"":1,""21-60"":0,""61-240"":0,"">240"":0}",12.5,41.880165000000005,-72.705393,621210.0,CT,9.0,9003.0,Hartford County,90034735011.0
7425,sg:d5bf75755204464d9e5ec09ca3f9f889,Nina's Kitchen,CT,2019-10-01T00:00:00-04:00,2019-11-01T00:00:00-04:00,6062,131,22.0,"{""<5"":2,""5-20"":62,""21-60"":36,""61-240"":17,"">240"":14}",8156.5,41.669498,-72.880073,722511.0,CT,9.0,9003.0,Hartford County,90034205001.0
7468,sg:d94863a5d0394f42bb05a4140688e3b8,Walgreens,CT,2019-10-01T00:00:00-04:00,2019-11-01T00:00:00-04:00,6226,571,24.0,"{""<5"":15,""5-20"":239,""21-60"":108,""61-240"":64,"">240"":145}",51831.0,41.71781,-72.233368,446110.0,CT,9.0,9015.0,Windham County,90158003002.0
7486,sg:db373416380c4dd6b2f0d9f9ea96bd86,Solidus,CT,2019-10-01T00:00:00-04:00,2019-11-01T00:00:00-04:00,6067,292,76.5,"{""<5"":3,""5-20"":70,""21-60"":60,""61-240"":94,"">240"":65}",33059.5,41.642557000000004,-72.679602,453210.0,CT,9.0,9003.0,Hartford County,90034903024.0
7511,sg:ddf08bee19114475a6c82c3d725a6c9c,Mary Taylor Memorial United Methodist Church,CT,2019-10-01T00:00:00-04:00,2019-11-01T00:00:00-04:00,6460,18,24.5,"{""<5"":0,""5-20"":7,""21-60"":5,""61-240"":4,"">240"":2}",1372.0,41.215832,-73.046996,813110.0,CT,9.0,9009.0,New Haven County,90091509001.0
7545,sg:e1f0676129f344edb344646779cbf6ef,Sally Beauty Supply,CT,2019-10-01T00:00:00-04:00,2019-11-01T00:00:00-04:00,6067,12,9.5,"{""<5"":0,""5-20"":10,""21-60"":2,""61-240"":0,"">240"":0}",206.0,41.680566999999996,-72.65681500000001,446120.0,CT,9.0,9003.0,Hartford County,90034901003.0
7579,sg:e51e256a5fa546a78f29c9fafaf6f132,Bare Life,CT,2019-10-01T00:00:00-04:00,2019-11-01T00:00:00-04:00,6110,230,14.0,"{""<5"":6,""5-20"":128,""21-60"":38,""61-240"":52,"">240"":6}",12420.0,41.727287,-72.723359,445292.0,CT,9.0,9003.0,Hartford County,90034961001.0
7785,sg:fc7172e8921e441db7b6207792fa0180,Sunoco,CT,2019-10-01T00:00:00-04:00,2019-11-01T00:00:00-04:00,6374,115,19.0,"{""<5"":4,""5-20"":63,""21-60"":41,""61-240"":7,"">240"":0}",3511.5,41.672616999999995,-71.914825,447110.0,CT,9.0,9015.0,Windham County,90159073004.0
7884,sg:05e188c8f1af45bab673d0529cfc36bd,Pappadella's Restaurant,CT,2019-10-01T00:00:00-04:00,2019-11-01T00:00:00-04:00,6811,48,42.0,"{""<5"":1,""5-20"":11,""21-60"":21,""61-240"":15,"">240"":0}",3248.0,41.437744,-73.497649,722511.0,CT,9.0,9001.0,Fairfield County,90012110001.0
7931,sg:0b36b4a86edd4f9f8a43c651968b4b99,Exxon Mobil,CT,2019-10-01T00:00:00-04:00,2019-11-01T00:00:00-04:00,6716,262,7.0,"{""<5"":21,""5-20"":201,""21-60"":29,""61-240"":4,"">240"":7}",6021.5,41.568712,-73.006941,447110.0,CT,9.0,9009.0,New Haven County,90093511002.0
7945,sg:0c6ca5e1a6b04fe4a8d0b443a4ee6d89,Joni's Child Care & Preschool,CT,2019-10-01T00:00:00-04:00,2019-11-01T00:00:00-04:00,6032,46,10.0,"{""<5"":1,""5-20"":30,""21-60"":9,""61-240"":2,"">240"":4}",2003.0,41.748278000000006,-72.855183,624410.0,CT,9.0,9003.0,Hartford County,90034602032.0
7946,sg:0c6eb80930724a11823987baa894245e,Helen King Reynolds Private School,CT,2019-10-01T00:00:00-04:00,2019-11-01T00:00:00-04:00,6615,26,39.5,"{""<5"":0,""5-20"":8,""21-60"":7,""61-240"":9,"">240"":2}",2218.0,41.192997,-73.127422,624410.0,CT,9.0,9001.0,Fairfield County,90010807002.0
8006,sg:128ee5b506634f819a240f93fcbb3427,Price Chopper New England,CT,2019-10-01T00:00:00-04:00,2019-11-01T00:00:00-04:00,6010,851,18.0,"{""<5"":33,""5-20"":448,""21-60"":316,""61-240"":37,"">240"":17}",28129.0,41.685981,-72.940412,445110.0,CT,9.0,9003.0,Hartford County,90034059003.0
8285,sg:2ce81b7be256466ab3d01d8845a98d5b,Unique Eyebrow Threading,CT,2019-10-01T00:00:00-04:00,2019-11-01T00:00:00-04:00,6033,256,35.0,"{""<5"":7,""5-20"":71,""21-60"":97,""61-240"":75,"">240"":6}",17561.0,41.726929999999996,-72.617915,446120.0,CT,9.0,9003.0,Hartford County,90035203022.0
8327,sg:305d4406fb184787985aa36f600e31a3,Middlesex Hospital Radiology,CT,2019-10-01T00:00:00-04:00,2019-11-01T00:00:00-04:00,6457,3,20.0,"{""<5"":0,""5-20"":2,""21-60"":1,""61-240"":0,"">240"":0}",65.5,41.547459,-72.636087,621111.0,CT,9.0,9007.0,Middlesex County,90075417001.0
8406,sg:36c01c77a2464629a113d6aa62b4966b,GameStop,CT,2019-10-01T00:00:00-04:00,2019-11-01T00:00:00-04:00,6770,29,10.0,"{""<5"":3,""5-20"":24,""21-60"":2,""61-240"":0,"">240"":0}",388.5,41.473339,-73.04260699999999,451120.0,CT,9.0,9009.0,New Haven County,90093452013.0
8426,sg:387f9721ffe14b889c60bbb111360caa,Worthington Hooker School,CT,2019-10-01T00:00:00-04:00,2019-11-01T00:00:00-04:00,6511,171,88.0,"{""<5"":6,""5-20"":37,""21-60"":32,""61-240"":50,"">240"":46}",20338.5,41.323778999999995,-72.914191,611110.0,CT,9.0,9009.0,New Haven County,90091419001.0
8557,sg:43f78caa4bf5433e9392d9951bda3e42,Caribbean Restaurant,CT,2019-10-01T00:00:00-04:00,2019-11-01T00:00:00-04:00,6450,435,30.0,"{""<5"":16,""5-20"":161,""21-60"":98,""61-240"":57,"">240"":103}",39320.0,41.542374,-72.793418,722511.0,CT,9.0,9009.0,New Haven County,90091714001.0
8694,sg:5062c91d701d4c448e472a443a47b747,DSW (Designer Shoe Warehouse),CT,2019-10-01T00:00:00-04:00,2019-11-01T00:00:00-04:00,6824,192,20.0,"{""<5"":4,""5-20"":101,""21-60"":77,""61-240"":10,"">240"":0}",5896.0,41.149578999999996,-73.24724,448210.0,CT,9.0,9001.0,Fairfield County,90010615001.0
8731,sg:53b2b51d208a4de4a3a1a56db356ab70,Planet Fitness,CT,2019-10-01T00:00:00-04:00,2019-11-01T00:00:00-04:00,6477,795,40.0,"{""<5"":3,""5-20"":178,""21-60"":389,""61-240"":215,"">240"":10}",52744.5,41.258339,-73.010199,713940.0,CT,9.0,9009.0,New Haven County,90091571001.0
8753,sg:55e5af066aff4d8185d4fd32e5835122,Nathan Hale Obedience Club,CT,2019-10-01T00:00:00-04:00,2019-11-01T00:00:00-04:00,6268,1,10.0,"{""<5"":0,""5-20"":1,""21-60"":0,""61-240"":0,"">240"":0}",12.5,41.830409,-72.22716199999999,812910.0,CT,9.0,9013.0,Tolland County,90138811001.0
8793,sg:59c2ff0b5d954341b6af1e4916b18072,Prime Care Medical Group P C,CT,2019-10-01T00:00:00-04:00,2019-11-01T00:00:00-04:00,6705,8,51.5,"{""<5"":0,""5-20"":2,""21-60"":3,""61-240"":1,"">240"":2}",777.0,41.543079999999996,-73.000147,621493.0,CT,9.0,9009.0,New Haven County,90093527022.0
9098,sg:77ed1ce3b2154a7d80b75d5668c9cf4e,People's United Bank,CT,2019-10-01T00:00:00-04:00,2019-11-01T00:00:00-04:00,6385,8,62.0,"{""<5"":0,""5-20"":1,""21-60"":3,""61-240"":2,"">240"":2}",915.0,41.344696,-72.125642,522110.0,CT,9.0,9011.0,New London County,90116934003.0
9349,sg:8fe1e3fe2cdf41fbb18583bbae5b039a,Devs On State,CT,2019-10-01T00:00:00-04:00,2019-11-01T00:00:00-04:00,6320,178,36.5,"{""<5"":2,""5-20"":63,""21-60"":41,""61-240"":39,"">240"":33}",16242.5,41.355042,-72.09937099999999,722511.0,CT,9.0,9011.0,New London County,90116905002.0
9395,sg:94c36368350c4adda75fc3a11e435b40,State Farm,CT,2019-10-01T00:00:00-04:00,2019-11-01T00:00:00-04:00,6820,11,8.0,"{""<5"":2,""5-20"":5,""21-60"":1,""61-240"":2,"">240"":1}",649.0,41.074998,-73.468875,524210.0,CT,9.0,9001.0,Fairfield County,90010304001.0
9441,sg:9804ee7a106144bda484c153e8360a89,Shiloh Missionary Baptist Church,CT,2019-10-01T00:00:00-04:00,2019-11-01T00:00:00-04:00,6511,19,75.0,"{""<5"":0,""5-20"":7,""21-60"":2,""61-240"":3,"">240"":7}",2300.0,41.317994,-72.91226400000001,813110.0,CT,9.0,9009.0,New Haven County,90091419003.0
9623,sg:ab5097314e1048efa1ec294b6c63a455,A Winning Smile,CT,2019-10-01T00:00:00-04:00,2019-11-01T00:00:00-04:00,6611,96,102.5,"{""<5"":1,""5-20"":5,""21-60"":21,""61-240"":35,"">240"":34}",14343.0,41.295471,-73.228847,621210.0,CT,9.0,9001.0,Fairfield County,90010907002.0
9628,sg:abdda8b7083447539e940bee23e2c1fe,Danielson Glass & Mirror,CT,2019-10-01T00:00:00-04:00,2019-11-01T00:00:00-04:00,6234,4,23.0,"{""<5"":0,""5-20"":2,""21-60"":1,""61-240"":1,"">240"":0}",216.0,41.79642,-71.916777,444120.0,CT,9.0,9015.0,Windham County,90159051004.0
9653,sg:ae69b16fd8ac4d3d921c1e446d498a61,The Endoscopy Center of Fairfield,CT,2019-10-01T00:00:00-04:00,2019-11-01T00:00:00-04:00,6824,167,62.0,"{""<5"":1,""5-20"":32,""21-60"":48,""61-240"":54,"">240"":32}",18153.5,41.150514,-73.243588,621111.0,CT,9.0,9001.0,Fairfield County,90010615001.0
9692,sg:b1fb5f1a45234f2b9fbbdd9c13167042,Di Franco's Restaurant & Pizzeria,CT,2019-10-01T00:00:00-04:00,2019-11-01T00:00:00-04:00,6759,84,31.5,"{""<5"":2,""5-20"":23,""21-60"":36,""61-240"":22,"">240"":1}",5301.5,41.746479,-73.191634,722511.0,CT,9.0,9005.0,Litchfield County,90053005002.0
9742,sg:b5674ede2fc64027ad9f2b7008160eed,Elite Hair Studio,CT,2019-10-01T00:00:00-04:00,2019-11-01T00:00:00-04:00,6515,5,221.0,"{""<5"":0,""5-20"":1,""21-60"":0,""61-240"":2,"">240"":2}",793.5,41.333582,-72.97679000000001,812112.0,CT,9.0,9009.0,New Haven County,90091412004.0
9762,sg:b6ea509c3e7e412694ecf653ff39b489,Durante Pasta,CT,2019-10-01T00:00:00-04:00,2019-11-01T00:00:00-04:00,6516,69,120.0,"{""<5"":2,""5-20"":16,""21-60"":8,""61-240"":20,"">240"":23}",9059.0,41.298806,-72.973923,445110.0,CT,9.0,9009.0,New Haven County,90091541006.0
9979,sg:ca82ae285bc04a499acf59c9b9a81ec9,Vineyard Valley Golf Club,CT,2019-10-01T00:00:00-04:00,2019-11-01T00:00:00-04:00,6259,11,15.0,"{""<5"":0,""5-20"":6,""21-60"":3,""61-240"":2,"">240"":0}",497.5,41.894719,-71.978854,451110.0,CT,9.0,9015.0,Windham County,90159025001.0
10008,sg:cda61a35ea7a431eae614b9b13af4c70,People's Plaza,CT,2019-10-01T00:00:00-04:00,2019-11-01T00:00:00-04:00,6120,498,39.5,"{""<5"":14,""5-20"":179,""21-60"":88,""61-240"":125,"">240"":92}",46729.0,41.776654,-72.676928,445110.0,CT,9.0,9003.0,Hartford County,90035018001.0
10157,sg:ddd2854225d24255a81943adcf1d191a,Community Acupuncture of Woodbury,CT,2019-10-01T00:00:00-04:00,2019-11-01T00:00:00-04:00,6798,27,84.0,"{""<5"":0,""5-20"":6,""21-60"":4,""61-240"":10,"">240"":7}",3422.0,41.551685,-73.204162,621111.0,CT,9.0,9005.0,Litchfield County,90053621022.0
10331,sg:f0ed72cb56ab4de2a527b14a9c04882e,Dan's Automotive,CT,2019-10-01T00:00:00-04:00,2019-11-01T00:00:00-04:00,6790,9,18.0,"{""<5"":1,""5-20"":4,""21-60"":3,""61-240"":1,"">240"":0}",324.5,41.802552,-73.117366,811111.0,CT,9.0,9005.0,Litchfield County,90053103001.0
10335,sg:f11fbc59d64d451e8a3fcb028ba9e18b,Magic Marker Studios,CT,2019-10-01T00:00:00-04:00,2019-11-01T00:00:00-04:00,6082,16,34.5,"{""<5"":0,""5-20"":7,""21-60"":5,""61-240"":4,"">240"":0}",892.0,42.014262,-72.55039599999999,811121.0,CT,9.0,9003.0,Hartford County,90035243004.0
10527,sg:04d7dc9964e34ffeb82763815fed42f1,Nantucket Vacation rentals,CT,2019-10-01T00:00:00-04:00,2019-11-01T00:00:00-04:00,6074,30,182.0,"{""<5"":0,""5-20"":3,""21-60"":8,""61-240"":9,"">240"":10}",4116.0,41.82163,-72.507577,423910.0,CT,9.0,9003.0,Hartford County,90034872013.0
10590,sg:0a545b98f1304a25bcf7e5054b4a7bad,Courtyard by Marriott,CT,2019-10-01T00:00:00-04:00,2019-11-01T00:00:00-04:00,6702,629,106.0,"{""<5"":10,""5-20"":131,""21-60"":105,""61-240"":206,"">240"":177}",79398.0,41.553046,-73.040839,721110.0,CT,9.0,9009.0,New Haven County,90093501002.0
10608,sg:0c9cebaf25eb4efaa5b0e5cb3e757905,Adembroidery,CT,2019-10-01T00:00:00-04:00,2019-11-01T00:00:00-04:00,6026,2,55.5,"{""<5"":0,""5-20"":1,""21-60"":0,""61-240"":1,"">240"":0}",163.0,41.93322,-72.766998,451130.0,CT,9.0,9003.0,Hartford County,90034701002.0
10716,sg:1601348c62a241c18746f1aba7ef6929,BRADSHAW CHRYSLER JEEP,CT,2019-10-01T00:00:00-04:00,2019-11-01T00:00:00-04:00,6779,54,87.5,"{""<5"":4,""5-20"":16,""21-60"":2,""61-240"":14,"">240"":18}",6718.0,41.589760999999996,-73.091255,441110.0,CT,9.0,9005.0,Litchfield County,90053604005.0
10777,sg:1c2f43fb86904cc891e88339fc8103a2,Life's Precious Moments,CT,2019-10-01T00:00:00-04:00,2019-11-01T00:00:00-04:00,6716,5,63.0,"{""<5"":0,""5-20"":0,""21-60"":2,""61-240"":3,"">240"":0}",532.5,41.593016,-72.989471,812199.0,CT,9.0,9009.0,New Haven County,90093612003.0
10849,sg:2265ce581c204cc9b8d2de1e3397c2a2,Mary Anne Zeh APRN,CT,2019-10-01T00:00:00-04:00,2019-11-01T00:00:00-04:00,6040,28,234.0,"{""<5"":0,""5-20"":4,""21-60"":6,""61-240"":4,"">240"":14}",4255.0,41.769394,-72.520138,621330.0,CT,9.0,9003.0,Hartford County,90035147001.0
10905,sg:2802401f89874dd9ad15bcedd24aa87e,Vazzy's,CT,2019-10-01T00:00:00-04:00,2019-11-01T00:00:00-04:00,6610,45,22.0,"{""<5"":3,""5-20"":13,""21-60"":22,""61-240"":7,"">240"":0}",2114.5,41.222246000000005,-73.16802,722511.0,CT,9.0,9001.0,Fairfield County,90010731001.0
10928,sg:2a7623824b3a44bda894e49c792235a5,Tranquil Tymes,CT,2019-10-01T00:00:00-04:00,2019-11-01T00:00:00-04:00,6473,1,538.0,"{""<5"":0,""5-20"":0,""21-60"":0,""61-240"":0,"">240"":1}",240.0,41.394830999999996,-72.855736,812199.0,CT,9.0,9009.0,New Haven County,90091672022.0
11049,sg:34788bcfdf7a432cae1fc1aa0730c803,b&v Jewelers,CT,2019-10-01T00:00:00-04:00,2019-11-01T00:00:00-04:00,6489,664,19.0,"{""<5"":32,""5-20"":323,""21-60"":206,""61-240"":94,"">240"":9}",28767.5,41.602907,-72.878539,448310.0,CT,9.0,9003.0,Hartford County,90034306021.0
11123,sg:3af10d62874b44f6b0f35c88de85a017,J.Jill,CT,2019-10-01T00:00:00-04:00,2019-11-01T00:00:00-04:00,6460,2,23.5,"{""<5"":0,""5-20"":1,""21-60"":1,""61-240"":0,"">240"":0}",53.0,41.248103,-73.026916,448120.0,CT,9.0,9009.0,New Haven County,90091508001.0
11125,sg:3b0c7c6413284c01b8fa862762d93127,Canterbury American Grill,CT,2019-10-01T00:00:00-04:00,2019-11-01T00:00:00-04:00,6331,153,31.0,"{""<5"":6,""5-20"":43,""21-60"":67,""61-240"":36,"">240"":1}",8924.0,41.697175,-71.994977,722511.0,CT,9.0,9015.0,Windham County,90159061001.0
11333,sg:4c7b21a321d2471f957357b9be64a05e,Edward Jones,CT,2019-10-01T00:00:00-04:00,2019-11-01T00:00:00-04:00,6473,6,112.0,"{""<5"":0,""5-20"":1,""21-60"":2,""61-240"":3,"">240"":0}",545.0,41.394529,-72.856329,523999.0,CT,9.0,9009.0,New Haven County,90091672022.0
11353,sg:4e6ec80c7bf541078771ed5d0d9ab168,Whitie Bensen Athletic Equipment,CT,2019-10-01T00:00:00-04:00,2019-11-01T00:00:00-04:00,6516,183,15.0,"{""<5"":4,""5-20"":108,""21-60"":48,""61-240"":19,"">240"":4}",7123.5,41.270841,-72.95973000000001,451110.0,CT,9.0,9009.0,New Haven County,90091546002.0
11442,sg:58343f56b5284f4bae0d8777f65b30a5,Sport Field 33,CT,2019-10-01T00:00:00-04:00,2019-11-01T00:00:00-04:00,6105,32,31.0,"{""<5"":2,""5-20"":12,""21-60"":11,""61-240"":1,"">240"":6}",2191.0,41.764573,-72.702738,713940.0,CT,9.0,9003.0,Hartford County,90035042002.0
11459,sg:598c2734439b472c9c4186a1fb304c30,Witter's Web,CT,2019-10-01T00:00:00-04:00,2019-11-01T00:00:00-04:00,6457,260,209.0,"{""<5"":3,""5-20"":61,""21-60"":32,""61-240"":41,"">240"":123}",37756.5,41.559019,-72.65174300000001,453110.0,CT,9.0,9007.0,Middlesex County,90075416001.0
11590,sg:66bb1868d40b46768beb6a18374e4fef,HomeGoods,CT,2019-10-01T00:00:00-04:00,2019-11-01T00:00:00-04:00,6611,276,17.0,"{""<5"":13,""5-20"":151,""21-60"":86,""61-240"":19,"">240"":7}",9942.5,41.232518,-73.151668,442299.0,CT,9.0,9001.0,Fairfield County,90010905002.0
11611,sg:692a112eae6a46a595254eb95b6a62aa,Town & Country Auto Body,CT,2019-10-01T00:00:00-04:00,2019-11-01T00:00:00-04:00,6088,9,10.0,"{""<5"":1,""5-20"":5,""21-60"":3,""61-240"":0,"">240"":0}",186.5,41.936592,-72.573306,811121.0,CT,9.0,9003.0,Hartford County,90034841002.0
11623,sg:69e950110c854f479a0d0df488fb4569,Boulevard Flea Market,CT,2019-10-01T00:00:00-04:00,2019-11-01T00:00:00-04:00,6519,580,24.0,"{""<5"":12,""5-20"":237,""21-60"":185,""61-240"":101,"">240"":45}",36485.5,41.29311,-72.944202,445230.0,CT,9.0,9009.0,New Haven County,90091405002.0
11663,sg:6e0d82adb5a4482ba68a81221e9513de,United Financial Bancorp,CT,2019-10-01T00:00:00-04:00,2019-11-01T00:00:00-04:00,6078,61,32.0,"{""<5"":4,""5-20"":22,""21-60"":9,""61-240"":6,"">240"":20}",6352.5,41.983109000000006,-72.660726,522110.0,CT,9.0,9003.0,Hartford County,90034771011.0
11766,sg:77581ceba9ff4f66bd7c94542ab4f0ae,West Haven Computer Solutions,CT,2019-10-01T00:00:00-04:00,2019-11-01T00:00:00-04:00,6516,165,112.0,"{""<5"":1,""5-20"":48,""21-60"":22,""61-240"":38,"">240"":56}",20652.5,41.260736,-72.942298,443142.0,CT,9.0,9009.0,New Haven County,90091551003.0
11782,sg:7928546ddc8548ce9cfc9c886e40e27b,Arethusa Farm,CT,2019-10-01T00:00:00-04:00,2019-11-01T00:00:00-04:00,6750,103,21.0,"{""<5"":3,""5-20"":46,""21-60"":32,""61-240"":21,"">240"":1}",5279.0,41.724362,-73.237539,722515.0,CT,9.0,9005.0,Litchfield County,90053001002.0
11790,sg:79dacf0d6da04a3bb0ffeb1ad4cb7053,Webster Bank,CT,2019-10-01T00:00:00-04:00,2019-11-01T00:00:00-04:00,6604,1291,61.0,"{""<5"":17,""5-20"":273,""21-60"":355,""61-240"":611,"">240"":35}",118188.0,41.172076000000004,-73.18730500000001,522110.0,CT,9.0,9001.0,Fairfield County,90010706002.0
11935,sg:88c8140509074e6184c60c7bfed52901,Loving Lotus Healing Arts,CT,2019-10-01T00:00:00-04:00,2019-11-01T00:00:00-04:00,6095,122,116.5,"{""<5"":2,""5-20"":19,""21-60"":24,""61-240"":40,"">240"":37}",16114.5,41.898679,-72.643836,812199.0,CT,9.0,9003.0,Hartford County,90034735023.0
12125,sg:9a3cea58df874a93b1bd90350ee5b00e,Agonist Gallery,CT,2019-10-01T00:00:00-04:00,2019-11-01T00:00:00-04:00,6016,62,30.0,"{""<5"":1,""5-20"":23,""21-60"":15,""61-240"":15,"">240"":8}",5075.0,41.917482,-72.546305,453920.0,CT,9.0,9003.0,Hartford County,90034842001.0
12204,sg:a266895b57014ef6a11d8fbf749a7b15,Quester Gallery,CT,2019-10-01T00:00:00-04:00,2019-11-01T00:00:00-04:00,6853,99,128.0,"{""<5"":2,""5-20"":18,""21-60"":14,""61-240"":31,"">240"":34}",13622.5,41.057590999999995,-73.43763100000001,453920.0,,,,,
12235,sg:a5b0572714bf4dacbec45a4bfd4ee731,Wine Works,CT,2019-10-01T00:00:00-04:00,2019-11-01T00:00:00-04:00,6489,163,18.0,"{""<5"":8,""5-20"":81,""21-60"":28,""61-240"":34,"">240"":12}",10163.5,41.634233,-72.900564,445310.0,CT,9.0,9003.0,Hartford County,90034306012.0
12239,sg:a64929a98dbd4621a437f8c9b5e25598,Viva Tacos,CT,2019-10-01T00:00:00-04:00,2019-11-01T00:00:00-04:00,6418,227,26.0,"{""<5"":10,""5-20"":82,""21-60"":72,""61-240"":39,"">240"":24}",15595.5,41.320382,-73.088955,722511.0,CT,9.0,9009.0,New Haven County,90091202002.0
12320,sg:ae731e70b3804e8abc9781b23365f00d,Ben & Jerry's,CT,2019-10-01T00:00:00-04:00,2019-11-01T00:00:00-04:00,6019,20,20.0,"{""<5"":2,""5-20"":8,""21-60"":8,""61-240"":2,"">240"":0}",730.0,41.822563,-72.883515,722515.0,CT,9.0,9003.0,Hartford County,90034641023.0
12328,sg:af82cf1dddbb47e1b99aa93ffc132c00,Hans & Fritz Delicatessen,CT,2019-10-01T00:00:00-04:00,2019-11-01T00:00:00-04:00,6032,177,131.0,"{""<5"":6,""5-20"":27,""21-60"":34,""61-240"":39,"">240"":71}",24639.0,41.735772,-72.796722,722511.0,CT,9.0,9003.0,Hartford County,90034602021.0
12501,sg:c254fe0a1f4a4bf6abf37156a713bc4e,Northern Correctional Institution,CT,2019-10-01T00:00:00-04:00,2019-11-01T00:00:00-04:00,6071,57,110.0,"{""<5"":1,""5-20"":16,""21-60"":3,""61-240"":24,"">240"":13}",7056.0,42.018229,-72.494228,922140.0,,,,,
12739,sg:db6a38fadf52410990ebaed1ebf72a77,Ocho Cafe,CT,2019-10-01T00:00:00-04:00,2019-11-01T00:00:00-04:00,6117,643,23.0,"{""<5"":17,""5-20"":265,""21-60"":217,""61-240"":134,"">240"":10}",34710.5,41.784158000000005,-72.74544200000001,722511.0,CT,9.0,9003.0,Hartford County,90034974001.0
12833,sg:e540e3b0601542c48c1c8398fed678fd,The Hay Loft,CT,2019-10-01T00:00:00-04:00,2019-11-01T00:00:00-04:00,6451,27,31.0,"{""<5"":0,""5-20"":11,""21-60"":7,""61-240"":7,"">240"":2}",1954.5,41.520174,-72.83499300000001,722511.0,CT,9.0,9009.0,New Haven County,90091705004.0
13310,sg:130e8d1d7f7546849851d63836e018be,Gerry's Donuts,CT,2019-10-01T00:00:00-04:00,2019-11-01T00:00:00-04:00,6029,92,9.0,"{""<5"":6,""5-20"":58,""21-60"":21,""61-240"":6,"">240"":1}",2733.5,41.867216,-72.491089,722515.0,CT,9.0,9013.0,Tolland County,90135351001.0
13369,sg:173e9e7474c0428e857e53593b280a18,Winners Manchester at Shea's American Bar & Grill,CT,2019-10-01T00:00:00-04:00,2019-11-01T00:00:00-04:00,6042,916,24.0,"{""<5"":16,""5-20"":330,""21-60"":391,""61-240"":155,"">240"":24}",49088.0,41.814375,-72.51082,713210.0,CT,9.0,9003.0,Hartford County,90035141021.0
13476,sg:20535cc032d442418bf39be1376db28c,A Child's Place,CT,2019-10-01T00:00:00-04:00,2019-11-01T00:00:00-04:00,6880,39,8.0,"{""<5"":0,""5-20"":28,""21-60"":4,""61-240"":6,"">240"":1}",1655.0,41.127185,-73.345428,624410.0,CT,9.0,9001.0,Fairfield County,90010505001.0
13497,sg:22dc7c858b7c4a16b3b3070595d7f332,Forest Package,CT,2019-10-01T00:00:00-04:00,2019-11-01T00:00:00-04:00,6516,55,20.0,"{""<5"":3,""5-20"":25,""21-60"":18,""61-240"":8,"">240"":1}",2493.0,41.305125,-72.965986,445310.0,CT,9.0,9009.0,New Haven County,90091541006.0
13700,sg:3488e63a15554b7599f986fd87b03f7c,Griswold Park,CT,2019-10-01T00:00:00-04:00,2019-11-01T00:00:00-04:00,6114,372,96.5,"{""<5"":9,""5-20"":87,""21-60"":69,""61-240"":67,"">240"":140}",47588.0,41.637226,-72.784444,712190.0,CT,9.0,9003.0,Hartford County,90034003002.0
13778,sg:3cb0ff7c76d240f9bbe931c9cb699378,Louis P Amato PHD,CT,2019-10-01T00:00:00-04:00,2019-11-01T00:00:00-04:00,6905,104,326.0,"{""<5"":0,""5-20"":14,""21-60"":8,""61-240"":19,"">240"":63}",18478.5,41.064803999999995,-73.54333299999999,621330.0,CT,9.0,9001.0,Fairfield County,90010216003.0
13809,sg:401e0f64f6994260950b8998a9d3b507,Merle's Record Rack,CT,2019-10-01T00:00:00-04:00,2019-11-01T00:00:00-04:00,6477,157,20.0,"{""<5"":11,""5-20"":69,""21-60"":27,""61-240"":40,"">240"":10}",10403.5,41.269003000000005,-72.999961,448140.0,CT,9.0,9009.0,New Haven County,90091571001.0
13819,sg:40d01ce9097647689108494535e3796e,Watertown Transmission Rebuilding,CT,2019-10-01T00:00:00-04:00,2019-11-01T00:00:00-04:00,6795,33,29.0,"{""<5"":0,""5-20"":13,""21-60"":11,""61-240"":6,"">240"":3}",2231.0,41.603182000000004,-73.114042,811111.0,CT,9.0,9005.0,Litchfield County,90053601003.0
13917,sg:49b223a4c6574401a58af92136b0b013,Valley Liquors,CT,2019-10-01T00:00:00-04:00,2019-11-01T00:00:00-04:00,6770,227,97.0,"{""<5"":2,""5-20"":55,""21-60"":46,""61-240"":62,"">240"":62}",26766.5,41.467356,-73.020928,445310.0,CT,9.0,9009.0,New Haven County,90093452022.0
13959,sg:4e63c4882e1443e9aa877cfd4eb34dbc,Moe's Southwest Grill,CT,2019-10-01T00:00:00-04:00,2019-11-01T00:00:00-04:00,6340,1,1182.0,"{""<5"":0,""5-20"":0,""21-60"":0,""61-240"":0,"">240"":1}",240.0,41.369167,-72.066979,722511.0,CT,9.0,9011.0,New London County,90118702002.0
13977,sg:50a383319a93407b873c9caeca06f0f3,Algonquin Advisors,CT,2019-10-01T00:00:00-04:00,2019-11-01T00:00:00-04:00,6831,142,161.5,"{""<5"":1,""5-20"":25,""21-60"":23,""61-240"":31,"">240"":62}",20792.0,41.019715000000005,-73.64898000000001,523930.0,CT,9.0,9001.0,Fairfield County,90010103005.0
14111,sg:5c39583a18734c4cbe1a81190914c3d7,Manny's Simsbury Pizza & Family Restaurant,CT,2019-10-01T00:00:00-04:00,2019-11-01T00:00:00-04:00,6092,4,12.5,"{""<5"":0,""5-20"":3,""21-60"":1,""61-240"":0,"">240"":0}",78.0,41.873039,-72.854286,722511.0,CT,9.0,9003.0,Hartford County,90034662023.0
14126,sg:5ead2c89eeab4de0ad2a5257ec7a7bb7,Cumberland Farms,CT,2019-10-01T00:00:00-04:00,2019-11-01T00:00:00-04:00,6029,432,6.0,"{""<5"":56,""5-20"":351,""21-60"":19,""61-240"":3,"">240"":3}",6468.5,41.867362,-72.49368100000001,447110.0,CT,9.0,9013.0,Tolland County,90135351001.0
14174,sg:63bbd13f385d4bc5b2ff551c4763e9b9,Fields Memorial School,CT,2019-10-01T00:00:00-04:00,2019-11-01T00:00:00-04:00,6334,256,62.0,"{""<5"":7,""5-20"":95,""21-60"":24,""61-240"":34,"">240"":96}",30334.0,41.56329,-72.153965,611110.0,CT,9.0,9011.0,New London County,90117131001.0
14302,sg:6f1ccd9ef05442b58fe65ea0aa768d81,Setra Artes Gallery,CT,2019-10-01T00:00:00-04:00,2019-11-01T00:00:00-04:00,6378,18,20.5,"{""<5"":2,""5-20"":7,""21-60"":4,""61-240"":5,"">240"":0}",1007.0,41.334507,-71.907229,453920.0,CT,9.0,9011.0,New London County,90117052002.0
14339,sg:72fdf9f3ff6943d6a22a82e32c71b053,Westwalk Orthodontic Group P C,CT,2019-10-01T00:00:00-04:00,2019-11-01T00:00:00-04:00,6851,26,40.5,"{""<5"":0,""5-20"":8,""21-60"":11,""61-240"":4,"">240"":3}",1867.5,41.110713,-73.407117,621210.0,CT,9.0,9001.0,Fairfield County,90010436002.0
14544,sg:860ae62bf0fb4222ad19e55c3606881b,Bricks and Minifigs,CT,2019-10-01T00:00:00-04:00,2019-11-01T00:00:00-04:00,6489,106,39.0,"{""<5"":1,""5-20"":40,""21-60"":27,""61-240"":33,"">240"":5}",7762.5,41.647553,-72.871578,451120.0,CT,9.0,9003.0,Hartford County,90034302011.0
14591,sg:8ab35bbf16be4536bee3d1add3d00746,Ramirez Restaurant,CT,2019-10-01T00:00:00-04:00,2019-11-01T00:00:00-04:00,6608,166,62.0,"{""<5"":1,""5-20"":51,""21-60"":28,""61-240"":55,"">240"":31}",17491.5,41.191675,-73.180376,722511.0,CT,9.0,9001.0,Fairfield County,90010736002.0
14638,sg:8e96e50e69ea4dc794f48a3ff64cb19b,Southport Pizza House,CT,2019-10-01T00:00:00-04:00,2019-11-01T00:00:00-04:00,6890,153,43.0,"{""<5"":3,""5-20"":32,""21-60"":54,""61-240"":46,"">240"":18}",13837.5,41.136813000000004,-73.283125,722511.0,CT,9.0,9001.0,Fairfield County,90010606001.0
14729,sg:97d493e57ef74698992f5a98fca1c04a,Trumbull Racquet Club,CT,2019-10-01T00:00:00-04:00,2019-11-01T00:00:00-04:00,6611,599,63.0,"{""<5"":5,""5-20"":107,""21-60"":165,""61-240"":293,"">240"":29}",59089.0,41.230988,-73.19891700000001,713940.0,CT,9.0,9001.0,Fairfield County,90010904004.0
14822,sg:a1174a3d36f74f72a056dafb3270ff1d,Rachel's Quality Consignment,CT,2019-10-01T00:00:00-04:00,2019-11-01T00:00:00-04:00,6759,128,27.0,"{""<5"":3,""5-20"":38,""21-60"":68,""61-240"":19,"">240"":0}",6096.0,41.732123,-73.215983,453310.0,CT,9.0,9005.0,Litchfield County,90053005002.0
14832,sg:a1a3f6d5bfdc4044b8154289b1df12a8,Raymond James Financial,CT,2019-10-01T00:00:00-04:00,2019-11-01T00:00:00-04:00,6830,5,361.0,"{""<5"":0,""5-20"":0,""21-60"":0,""61-240"":0,"">240"":5}",1200.0,41.034112,-73.624228,523930.0,CT,9.0,9001.0,Fairfield County,90010103002.0
14963,sg:ae8961d81d814d19a85574696971a04c,St Edward School,CT,2019-10-01T00:00:00-04:00,2019-11-01T00:00:00-04:00,6076,210,67.5,"{""<5"":4,""5-20"":52,""21-60"":42,""61-240"":68,"">240"":44}",23155.0,41.955213,-72.30811899999999,611110.0,CT,9.0,9013.0,Tolland County,90138901001.0
14972,sg:af6e6589a7354f0d90b5a746e51f7b4a,Blue Serenity Holistic Wellness,CT,2019-10-01T00:00:00-04:00,2019-11-01T00:00:00-04:00,6340,20,310.0,"{""<5"":0,""5-20"":2,""21-60"":2,""61-240"":5,"">240"":11}",3498.5,41.375512,-72.026253,812199.0,CT,9.0,9011.0,New London County,90117021002.0
15088,sg:babb3c53a31d453f8159dfdc211d31f0,Monro,CT,2019-10-01T00:00:00-04:00,2019-11-01T00:00:00-04:00,6320,2,93.5,"{""<5"":0,""5-20"":1,""21-60"":0,""61-240"":1,"">240"":0}",163.0,41.370356,-72.118398,811198.0,CT,9.0,9011.0,New London County,90118703004.0
15433,sg:dd4ae9afbb224c35be5c5dc91275285c,Watson Foods Co,CT,2019-10-01T00:00:00-04:00,2019-11-01T00:00:00-04:00,6516,324,148.0,"{""<5"":4,""5-20"":54,""21-60"":50,""61-240"":86,"">240"":130}",46853.0,41.254669,-72.989289,445110.0,CT,9.0,9009.0,New Haven County,90091547006.0
15573,sg:ec1a995ba22d458fa2b0eba5ac13e61d,Community Chiropractic,CT,2019-10-01T00:00:00-04:00,2019-11-01T00:00:00-04:00,6111,36,12.0,"{""<5"":0,""5-20"":23,""21-60"":13,""61-240"":0,"">240"":0}",814.0,41.694612,-72.72223000000001,621310.0,CT,9.0,9003.0,Hartford County,90034944002.0
15636,sg:f2be8e55b4674bfa9e73a36f954c2cdb,Sleep Number,CT,2019-10-01T00:00:00-04:00,2019-11-01T00:00:00-04:00,6110,110,19.5,"{""<5"":4,""5-20"":54,""21-60"":34,""61-240"":18,"">240"":0}",4771.0,41.717646,-72.76226899999999,442110.0,CT,9.0,9003.0,Hartford County,90034601002.0
15685,sg:f757d1a778314b48a8f51fa0dbae3a39,Mitchell Saab,CT,2019-10-01T00:00:00-04:00,2019-11-01T00:00:00-04:00,6070,81,87.0,"{""<5"":1,""5-20"":21,""21-60"":13,""61-240"":17,"">240"":29}",10310.0,41.851535999999996,-72.812649,441120.0,CT,9.0,9003.0,Hartford County,90034661011.0
15687,sg:f7b9eeb3923e4f10ba5d833f8c49bcfd,Melissa's Market,CT,2019-10-01T00:00:00-04:00,2019-11-01T00:00:00-04:00,6360,107,117.0,"{""<5"":1,""5-20"":33,""21-60"":14,""61-240"":23,"">240"":36}",13083.5,41.528003999999996,-72.073436,445110.0,CT,9.0,9011.0,New London County,90116968002.0
15727,sg:fbd1859a43134f1eb7df223921354100,Krinsky Richard DO,CT,2019-10-01T00:00:00-04:00,2019-11-01T00:00:00-04:00,6790,2,276.5,"{""<5"":0,""5-20"":0,""21-60"":1,""61-240"":0,"">240"":1}",280.5,41.785543,-73.147225,621111.0,CT,9.0,9005.0,Litchfield County,90053108012.0
15736,sg:fc766b6219a34e32aa50d7da05282ace,Townline Pizza,CT,2019-10-01T00:00:00-04:00,2019-11-01T00:00:00-04:00,6479,5,7.0,"{""<5"":1,""5-20"":3,""21-60"":1,""61-240"":0,"">240"":0}",80.5,41.563705999999996,-72.90206500000001,722511.0,CT,9.0,9003.0,Hartford County,90034304002.0
15835,sg:05def7f264df4fbcb4c5c31fbe406cc7,A&A Office Systems,CT,2019-10-01T00:00:00-04:00,2019-11-01T00:00:00-04:00,6457,217,218.0,"{""<5"":0,""5-20"":18,""21-60"":20,""61-240"":83,"">240"":96}",36566.5,41.594338,-72.721834,453210.0,CT,9.0,9007.0,Middlesex County,90075414011.0
15840,sg:072a2ebe47ac4ad088b649a6f9b31b24,Litchfield Tax Service,CT,2019-10-01T00:00:00-04:00,2019-11-01T00:00:00-04:00,6790,3,471.0,"{""<5"":0,""5-20"":0,""21-60"":0,""61-240"":1,"">240"":2}",630.5,41.807036,-73.122375,541213.0,CT,9.0,9005.0,Litchfield County,90053102001.0
15908,sg:0de29197504a48e49d44a7763b8e88db,US District Court,CT,2019-10-01T00:00:00-04:00,2019-11-01T00:00:00-04:00,6103,453,114.0,"{""<5"":9,""5-20"":94,""21-60"":58,""61-240"":146,"">240"":146}",60559.5,41.761241999999996,-72.673834,448130.0,CT,9.0,9003.0,Hartford County,90035005001.0
15993,sg:1637a686af0d4c2699cc14eb61673a53,Turbo Kits,CT,2019-10-01T00:00:00-04:00,2019-11-01T00:00:00-04:00,6096,3,27.0,"{""<5"":0,""5-20"":1,""21-60"":1,""61-240"":0,"">240"":1}",293.0,41.910581,-72.663472,441310.0,CT,9.0,9003.0,Hartford County,90034763001.0
16006,sg:17555d5ed80445deb01722792a0090b6,Wood Ave Auto Sales Mechanic & Detail,CT,2019-10-01T00:00:00-04:00,2019-11-01T00:00:00-04:00,6605,20,57.5,"{""<5"":0,""5-20"":5,""21-60"":5,""61-240"":5,"">240"":5}",2217.5,41.165509,-73.217839,811111.0,CT,9.0,9001.0,Fairfield County,90010703001.0
16121,sg:20225dd8defa4d8bb7100ae651fcf220,Middlesex Hospital Family Medicine Middletown,CT,2019-10-01T00:00:00-04:00,2019-11-01T00:00:00-04:00,6457,110,31.0,"{""<5"":3,""5-20"":45,""21-60"":28,""61-240"":23,"">240"":11}",7805.5,41.553487,-72.648963,621111.0,CT,9.0,9007.0,Middlesex County,90075417002.0
16184,sg:25ddd15d991c4eaab215f289adeaee4c,PMG Insurance & Financial Services,CT,2019-10-01T00:00:00-04:00,2019-11-01T00:00:00-04:00,6037,33,42.0,"{""<5"":1,""5-20"":12,""21-60"":4,""61-240"":7,"">240"":9}",3528.0,41.631749,-72.73750600000001,524210.0,CT,9.0,9003.0,Hartford County,90034001003.0
16253,sg:2c0a9ba0afdc4df6b140216d70cb324e,The Li'l Plant Shop,CT,2019-10-01T00:00:00-04:00,2019-11-01T00:00:00-04:00,6062,445,43.0,"{""<5"":11,""5-20"":131,""21-60"":111,""61-240"":120,"">240"":72}",41500.5,41.67102,-72.866804,453110.0,CT,9.0,9003.0,Hartford County,90034205004.0
16292,sg:2f2bba714bd2449f85484712d19e4733,Riverfront Park,CT,2019-10-01T00:00:00-04:00,2019-11-01T00:00:00-04:00,6033,168,12.0,"{""<5"":13,""5-20"":97,""21-60"":35,""61-240"":21,"">240"":2}",6303.0,41.713248,-72.610826,712190.0,CT,9.0,9003.0,Hartford County,90035203021.0
16397,sg:37d01e54603043d8b1a0592816808272,Milite Bakery,CT,2019-10-01T00:00:00-04:00,2019-11-01T00:00:00-04:00,6705,29,83.0,"{""<5"":0,""5-20"":5,""21-60"":5,""61-240"":17,"">240"":2}",3303.5,41.535407,-72.99786800000001,311811.0,CT,9.0,9009.0,New Haven County,90093528001.0
16457,sg:3e1bb67d147a478981ef9ece8e13378b,Meineke Car Care Centers,CT,2019-10-01T00:00:00-04:00,2019-11-01T00:00:00-04:00,6810,17,35.0,"{""<5"":0,""5-20"":7,""21-60"":3,""61-240"":5,"">240"":2}",1441.5,41.386765999999994,-73.444088,811111.0,CT,9.0,9001.0,Fairfield County,90012101003.0
16472,sg:405fcda1d16c4460a269fa9293d503d7,Sleeper Richard M MD Facs,CT,2019-10-01T00:00:00-04:00,2019-11-01T00:00:00-04:00,6101,1,150.0,"{""<5"":0,""5-20"":0,""21-60"":0,""61-240"":1,"">240"":0}",150.5,41.828288,-72.999323,446120.0,CT,9.0,9005.0,Litchfield County,90053061002.0
16578,sg:4c2ef77f5b4a4eab8aa25c69e06ea598,Middletown Toyota,CT,2019-10-01T00:00:00-04:00,2019-11-01T00:00:00-04:00,6457,371,115.0,"{""<5"":6,""5-20"":69,""21-60"":68,""61-240"":86,"">240"":142}",50654.5,41.576443,-72.670975,441110.0,CT,9.0,9007.0,Middlesex County,90075412001.0
16627,sg:51c98e32f93344debd85d5e9ef931f6a,Sneekers Cafe,CT,2019-10-01T00:00:00-04:00,2019-11-01T00:00:00-04:00,6340,13,9.0,"{""<5"":1,""5-20"":8,""21-60"":0,""61-240"":3,"">240"":1}",794.0,41.342744,-72.059978,722511.0,CT,9.0,9011.0,New London County,90117027003.0
16914,sg:6b69b9c7dfda420e989435964b40d9af,Oak Hills Tennis Club,CT,2019-10-01T00:00:00-04:00,2019-11-01T00:00:00-04:00,6850,8,9.0,"{""<5"":1,""5-20"":5,""21-60"":1,""61-240"":0,"">240"":1}",345.5,41.117144,-73.444777,712190.0,CT,9.0,9001.0,Fairfield County,90010432002.0
16928,sg:6c89795bb63c48be8ec09782e6625669,Black Diamond Body Piercing,CT,2019-10-01T00:00:00-04:00,2019-11-01T00:00:00-04:00,6119,160,22.0,"{""<5"":10,""5-20"":65,""21-60"":50,""61-240"":23,"">240"":12}",9204.0,41.757533,-72.72142099999999,448310.0,CT,9.0,9003.0,Hartford County,90034967001.0
16998,sg:73ce89f4485f4784982bd691aeb43640,Radiology Group PC,CT,2019-10-01T00:00:00-04:00,2019-11-01T00:00:00-04:00,6511,189,51.0,"{""<5"":4,""5-20"":36,""21-60"":70,""61-240"":54,"">240"":25}",17422.0,41.310669,-72.945284,621111.0,CT,9.0,9009.0,New Haven County,90091408004.0
17057,sg:7afde30c98d6440abcd7522f4113e971,Cato Corner Farm,CT,2019-10-01T00:00:00-04:00,2019-11-01T00:00:00-04:00,6415,19,20.0,"{""<5"":0,""5-20"":11,""21-60"":5,""61-240"":3,"">240"":0}",791.5,41.571034999999995,-72.390151,445230.0,CT,9.0,9011.0,New London County,90117141031.0
17468,sg:a1e3a336d4d84efda8afc40573295b59,Comstock Covered Bridge,CT,2019-10-01T00:00:00-04:00,2019-11-01T00:00:00-04:00,6415,33,16.0,"{""<5"":1,""5-20"":20,""21-60"":9,""61-240"":3,"">240"":0}",1068.5,41.552968,-72.447992,921190.0,CT,9.0,9011.0,New London County,
17513,sg:a7395a9d1934469d9f2723bc7350f766,Poolman Pools & Spas,CT,2019-10-01T00:00:00-04:00,2019-11-01T00:00:00-04:00,6443,3,11.0,"{""<5"":0,""5-20"":3,""21-60"":0,""61-240"":0,"">240"":0}",37.5,41.281006,-72.631244,451110.0,CT,9.0,9009.0,New Haven County,90091941004.0
17649,sg:b544a59148a540a7b321ea0bf7e1c19b,Sunoco,CT,2019-10-01T00:00:00-04:00,2019-11-01T00:00:00-04:00,6478,204,5.0,"{""<5"":32,""5-20"":160,""21-60"":10,""61-240"":2,"">240"":0}",2786.0,41.428033,-73.110423,447110.0,CT,9.0,9009.0,New Haven County,90093461011.0
17805,sg:c3af266def24423ebb97b12abb9bb9eb,Juvenile Diabetes Research Foundation,CT,2019-10-01T00:00:00-04:00,2019-11-01T00:00:00-04:00,6032,138,126.5,"{""<5"":2,""5-20"":29,""21-60"":18,""61-240"":41,"">240"":48}",18787.0,41.708943,-72.79977,621610.0,CT,9.0,9003.0,Hartford County,90034601002.0
17820,sg:c515faad23be455eac697d5a4894db7b,Electric Boat Corporation,CT,2019-10-01T00:00:00-04:00,2019-11-01T00:00:00-04:00,6340,2518,168.5,"{""<5"":33,""5-20"":484,""21-60"":332,""61-240"":586,"">240"":1083}",367691.5,41.344611,-72.079082,441222.0,CT,9.0,9011.0,New London County,90117025002.0
18031,sg:d9bcc0ec46f94ad3aa94c5a24a46eba0,Center For Advanced Reproductive Services,CT,2019-10-01T00:00:00-04:00,2019-11-01T00:00:00-04:00,6106,404,32.5,"{""<5"":8,""5-20"":154,""21-60"":87,""61-240"":90,"">240"":65}",34613.5,41.760471,-72.670012,621111.0,CT,9.0,9003.0,Hartford County,90035005001.0
18168,sg:e8cefb0f12024fcfa701f7ca5bbfba98,Chiangmai Thai,CT,2019-10-01T00:00:00-04:00,2019-11-01T00:00:00-04:00,6484,90,52.0,"{""<5"":0,""5-20"":29,""21-60"":19,""61-240"":31,"">240"":11}",8437.5,41.288771999999994,-73.078738,722511.0,CT,9.0,9001.0,Fairfield County,90011102021.0
18183,sg:eaf17f89dba64acb9b1d709db6bfee29,Stifel Metcalf Cole &amp Masopust Wealth Management Group,CT,2019-10-01T00:00:00-04:00,2019-11-01T00:00:00-04:00,6488,8,19.5,"{""<5"":0,""5-20"":5,""21-60"":1,""61-240"":2,"">240"":0}",404.0,41.489481,-73.226124,523930.0,CT,9.0,9009.0,New Haven County,90093481251.0
18245,sg:f116a4c8ddc94c33add47cfb86fa7895,Northeast Building Supply,CT,2019-10-01T00:00:00-04:00,2019-11-01T00:00:00-04:00,6754,6,7.5,"{""<5"":1,""5-20"":3,""21-60"":2,""61-240"":0,"">240"":0}",121.0,41.817339000000004,-73.371764,444130.0,CT,9.0,9005.0,Litchfield County,90052632002.0
18248,sg:f151959691b94a7cafd735402937a0ce,Logan's Auto Center LLC,CT,2019-10-01T00:00:00-04:00,2019-11-01T00:00:00-04:00,6360,81,91.0,"{""<5"":1,""5-20"":21,""21-60"":12,""61-240"":24,"">240"":23}",9883.0,41.527896000000005,-72.064364,441120.0,CT,9.0,9011.0,New London County,90116964001.0
18252,sg:f1b63d8dc10b4cc0bea71f91ad6edbc9,ExamOne,CT,2019-10-01T00:00:00-04:00,2019-11-01T00:00:00-04:00,6067,7,45.0,"{""<5"":0,""5-20"":2,""21-60"":3,""61-240"":1,"">240"":1}",537.0,41.671535999999996,-72.643381,621512.0,CT,9.0,9003.0,Hartford County,90034901003.0
18423,sg:033a2535cadc44728425640927a7dd89,Village Food Mart,CT,2019-10-01T00:00:00-04:00,2019-11-01T00:00:00-04:00,6450,55,48.0,"{""<5"":3,""5-20"":16,""21-60"":12,""61-240"":18,"">240"":6}",4842.5,41.516829,-72.793737,445110.0,CT,9.0,9009.0,New Haven County,90091711004.0
18498,sg:0b0382fbe2f24236af73cc31ef04738e,Redding Roadhouse,CT,2019-10-01T00:00:00-04:00,2019-11-01T00:00:00-04:00,6896,2,220.0,"{""<5"":0,""5-20"":0,""21-60"":0,""61-240"":2,"">240"":0}",301.0,41.295468,-73.3956,722511.0,CT,9.0,9001.0,Fairfield County,90012402002.0
18591,sg:13db3fa65bba4f0bb23fd1dd9b4b0783,Om Massage Group,CT,2019-10-01T00:00:00-04:00,2019-11-01T00:00:00-04:00,6033,29,100.0,"{""<5"":0,""5-20"":3,""21-60"":6,""61-240"":20,"">240"":0}",3290.5,41.714721000000004,-72.604473,812199.0,CT,9.0,9003.0,Hartford County,90035203022.0
18601,sg:14ddfdb9798742939cb9169763d033b2,Victory Christian Center,CT,2019-10-01T00:00:00-04:00,2019-11-01T00:00:00-04:00,6810,160,82.0,"{""<5"":4,""5-20"":36,""21-60"":35,""61-240"":33,"">240"":52}",19324.0,41.399808,-73.41885500000001,813110.0,CT,9.0,9001.0,Fairfield County,90012104001.0
18705,sg:1e9cb9fc391948de9ea307ddd884e67f,Asylum Distillery,CT,2019-10-01T00:00:00-04:00,2019-11-01T00:00:00-04:00,6610,228,242.0,"{""<5"":2,""5-20"":39,""21-60"":14,""61-240"":57,"">240"":116}",37478.0,41.200169,-73.174881,722515.0,CT,9.0,9001.0,Fairfield County,90010734001.0
18742,sg:2248b76133b141278e2f0e10755e1faf,United Church Nursery School,CT,2019-10-01T00:00:00-04:00,2019-11-01T00:00:00-04:00,6853,96,28.5,"{""<5"":2,""5-20"":35,""21-60"":33,""61-240"":23,"">240"":3}",5960.5,41.071740999999996,-73.444028,624410.0,CT,9.0,9001.0,Fairfield County,90010446003.0
18905,sg:33642780afb2486196cd16da73239398,WrightSports4Kids,CT,2019-10-01T00:00:00-04:00,2019-11-01T00:00:00-04:00,6905,74,59.5,"{""<5"":0,""5-20"":15,""21-60"":23,""61-240"":34,"">240"":2}",6716.0,41.102038,-73.531428,713940.0,CT,9.0,9001.0,Fairfield County,90010207004.0
19092,sg:438f0c0ae66246be92a1a83885f9113a,Guilford Coffee House,CT,2019-10-01T00:00:00-04:00,2019-11-01T00:00:00-04:00,6437,288,14.0,"{""<5"":15,""5-20"":158,""21-60"":70,""61-240"":23,"">240"":22}",13589.0,41.288227,-72.685296,722515.0,CT,9.0,9009.0,New Haven County,90091901001.0
19157,sg:496f17ff064848969021ad6e327edbe6,Gammons Hoagland Co,CT,2019-10-01T00:00:00-04:00,2019-11-01T00:00:00-04:00,6040,13,17.0,"{""<5"":1,""5-20"":6,""21-60"":0,""61-240"":5,"">240"":1}",1070.0,41.781315,-72.533465,444130.0,CT,9.0,9003.0,Hartford County,90035144005.0
19172,sg:4a706615f8794374ba63ac6fe6b6ecc5,Five Below,CT,2019-10-01T00:00:00-04:00,2019-11-01T00:00:00-04:00,6062,791,20.0,"{""<5"":20,""5-20"":392,""21-60"":272,""61-240"":71,"">240"":36}",35291.5,41.675342,-72.842318,452319.0,CT,9.0,9003.0,Hartford County,90034206004.0
19177,sg:4a9cc1f2274b4170978b1a509ca5ee42,New Britain Fire Department Station 1 Headquarters,CT,2019-10-01T00:00:00-04:00,2019-11-01T00:00:00-04:00,6051,96,70.5,"{""<5"":2,""5-20"":20,""21-60"":23,""61-240"":17,"">240"":34}",11905.0,41.678118,-72.78496,922160.0,CT,9.0,9003.0,Hartford County,90034161003.0
19241,sg:5056837855694b809e91f26eaa9c95e8,Manchester Collection The,CT,2019-10-01T00:00:00-04:00,2019-11-01T00:00:00-04:00,6042,34043,25.0,"{""<5"":559,""5-20"":12935,""21-60"":12640,""61-240"":6167,"">240"":1742}",2021218.5,41.808445,-72.547576,531120.0,CT,9.0,9003.0,Hartford County,90035141021.0
19355,sg:5a991390fec74a86a3d4fa8542366716,Millers Pond State Park,CT,2019-10-01T00:00:00-04:00,2019-11-01T00:00:00-04:00,6422,39,117.0,"{""<5"":0,""5-20"":5,""21-60"":7,""61-240"":16,"">240"":11}",5394.0,41.496826,-72.63431700000001,712190.0,CT,9.0,9007.0,Middlesex County,90075851001.0
19389,sg:5d9c66c3d4474535a72f8a98be81cff6,Southington Farmers Market,CT,2019-10-01T00:00:00-04:00,2019-11-01T00:00:00-04:00,6489,466,19.0,"{""<5"":19,""5-20"":240,""21-60"":135,""61-240"":66,"">240"":6}",19888.0,41.600881,-72.877779,445230.0,CT,9.0,9003.0,Hartford County,90034301001.0
19491,sg:691f62c1fe2b4387b0b35d2a5e5486c0,Alessandro Valerie J DDS,CT,2019-10-01T00:00:00-04:00,2019-11-01T00:00:00-04:00,6250,194,8.0,"{""<5"":16,""5-20"":127,""21-60"":16,""61-240"":21,"">240"":14}",8796.0,41.728424,-72.201109,621210.0,CT,9.0,9013.0,Tolland County,90138815004.0
19497,sg:69d32a3c39914bfe83b8e278c42282f6,Natchaug Hospital,CT,2019-10-01T00:00:00-04:00,2019-11-01T00:00:00-04:00,6382,11,15.0,"{""<5"":0,""5-20"":7,""21-60"":4,""61-240"":0,"">240"":0}",249.5,41.435749,-72.112768,621610.0,CT,9.0,9011.0,New London County,90118705022.0
19511,sg:6ae42b6c65ac405fa8ffd936f020c27c,R Plumbing Company,CT,2019-10-01T00:00:00-04:00,2019-11-01T00:00:00-04:00,6480,27,8.0,"{""<5"":2,""5-20"":15,""21-60"":4,""61-240"":4,"">240"":2}",1436.5,41.570122,-72.633944,444130.0,CT,9.0,9007.0,Middlesex County,90075602001.0
19557,sg:6f8e870b1c4d4ae986c5073078f335f0,Professional Family Auto Towing,CT,2019-10-01T00:00:00-04:00,2019-11-01T00:00:00-04:00,6457,1,271.0,"{""<5"":0,""5-20"":0,""21-60"":0,""61-240"":0,"">240"":1}",240.0,41.550411,-72.646725,488410.0,CT,9.0,9007.0,Middlesex County,90075417002.0
19596,sg:732b026d4a1644a7b9f0f3de320c2342,Oyster Club,CT,2019-10-01T00:00:00-04:00,2019-11-01T00:00:00-04:00,6355,151,61.0,"{""<5"":0,""5-20"":25,""21-60"":49,""61-240"":75,"">240"":2}",14064.5,41.352892,-71.971976,722511.0,CT,9.0,9011.0,New London County,90117030001.0
19620,sg:76ab69ce64fc45b9b0c380ea411db888,Green Valley Crossing,CT,2019-10-01T00:00:00-04:00,2019-11-01T00:00:00-04:00,6260,37,95.0,"{""<5"":0,""5-20"":3,""21-60"":8,""61-240"":20,"">240"":6}",4811.5,41.916067,-71.906428,813110.0,CT,9.0,9015.0,Windham County,90159031007.0
19646,sg:7a45f89bf2304e8db6633103662f15d6,Sushi Mizu,CT,2019-10-01T00:00:00-04:00,2019-11-01T00:00:00-04:00,6511,65,20.0,"{""<5"":1,""5-20"":33,""21-60"":9,""61-240"":16,"">240"":6}",4627.5,41.313744,-72.933939,722511.0,CT,9.0,9009.0,New Haven County,90091416002.0
19651,sg:7ae052ef0f2440ecaa80235596e58b7b,Ordinary Joes,CT,2019-10-01T00:00:00-04:00,2019-11-01T00:00:00-04:00,6779,204,48.5,"{""<5"":2,""5-20"":38,""21-60"":75,""61-240"":76,"">240"":13}",18075.5,41.593838,-73.083373,722511.0,CT,9.0,9005.0,Litchfield County,90053604001.0
19869,sg:91b5f2027c60471a92ee81734d11a450,First Portuguese Speaking Baptist Church,CT,2019-10-01T00:00:00-04:00,2019-11-01T00:00:00-04:00,6810,7,69.0,"{""<5"":0,""5-20"":1,""21-60"":1,""61-240"":5,"">240"":0}",805.5,41.394702,-73.453171,813110.0,CT,9.0,9001.0,Fairfield County,90012101002.0
19998,sg:9ea6e7574bac472ba14275797ebd454f,BOLLES MOTORS INC,CT,2019-10-01T00:00:00-04:00,2019-11-01T00:00:00-04:00,6029,93,20.0,"{""<5"":9,""5-20"":41,""21-60"":27,""61-240"":15,"">240"":1}",4126.0,41.879331,-72.464874,441110.0,CT,9.0,9013.0,Tolland County,90135351004.0
20002,sg:9efbd91270574925a9897491c58cc933,Michael Kuhn M D,CT,2019-10-01T00:00:00-04:00,2019-11-01T00:00:00-04:00,6457,6,542.0,"{""<5"":0,""5-20"":0,""21-60"":0,""61-240"":0,"">240"":6}",1440.0,41.542752,-72.624625,621111.0,CT,9.0,9007.0,Middlesex County,90076802001.0
20047,sg:a35c8c99d8454c7e95f347a67e043f48,Sunoco,CT,2019-10-01T00:00:00-04:00,2019-11-01T00:00:00-04:00,6831,185,31.0,"{""<5"":5,""5-20"":60,""21-60"":48,""61-240"":35,"">240"":37}",16854.0,41.038846,-73.664946,447110.0,CT,9.0,9001.0,Fairfield County,90010101012.0
20191,sg:b0d8b845094c4672b59e291ded526c93,Rivard Opticians,CT,2019-10-01T00:00:00-04:00,2019-11-01T00:00:00-04:00,6114,113,19.0,"{""<5"":4,""5-20"":56,""21-60"":27,""61-240"":13,"">240"":13}",6880.0,41.741296999999996,-72.676372,446130.0,CT,9.0,9003.0,Hartford County,90035024001.0
20387,sg:c439dae041a346cb916225d85f2438cc,Krispy Krunchy Chicken,CT,2019-10-01T00:00:00-04:00,2019-11-01T00:00:00-04:00,6605,103,10.0,"{""<5"":9,""5-20"":51,""21-60"":8,""61-240"":17,"">240"":18}",7862.5,41.160151,-73.22355,722513.0,CT,9.0,9001.0,Fairfield County,90010702001.0
20467,sg:cb2e96de108e405d88e0a56071a74fcf,Accurate DNA Service,CT,2019-10-01T00:00:00-04:00,2019-11-01T00:00:00-04:00,6516,35,38.0,"{""<5"":0,""5-20"":7,""21-60"":16,""61-240"":11,"">240"":1}",2631.0,41.269269,-72.955168,621610.0,CT,9.0,9009.0,New Haven County,90091549001.0
20596,sg:d8b65ac46b35406eaf38a4c01376db7e,Yale New Haven Psychiatric Hospital,CT,2019-10-01T00:00:00-04:00,2019-11-01T00:00:00-04:00,6519,97,207.0,"{""<5"":0,""5-20"":12,""21-60"":19,""61-240"":24,"">240"":42}",14611.5,41.301584999999996,-72.932825,621111.0,CT,9.0,9009.0,New Haven County,90091403002.0
20639,sg:dbdd91cf947f421397d342d29d28f501,Stony Hill School,CT,2019-10-01T00:00:00-04:00,2019-11-01T00:00:00-04:00,6095,28,23.5,"{""<5"":1,""5-20"":13,""21-60"":5,""61-240"":5,"">240"":4}",2080.0,41.840032,-72.65097800000001,611310.0,CT,9.0,9003.0,Hartford County,90034737001.0
20677,sg:e051725e895e440d87996059a6293a97,Sigourney Square Park,CT,2019-10-01T00:00:00-04:00,2019-11-01T00:00:00-04:00,6105,705,54.0,"{""<5"":10,""5-20"":214,""21-60"":143,""61-240"":174,"">240"":164}",74038.5,41.775099,-72.69300799999999,712190.0,CT,9.0,9003.0,Hartford County,90035246001.0
20740,sg:e6a252e7c7bf433bad3f2002d67b05e5,Western Connecticut Medical Group Cardiology,CT,2019-10-01T00:00:00-04:00,2019-11-01T00:00:00-04:00,6810,5,1074.0,"{""<5"":0,""5-20"":0,""21-60"":2,""61-240"":0,"">240"":3}",801.0,41.404682,-73.4422,621111.0,CT,9.0,9001.0,Fairfield County,90012103003.0
20801,sg:ed5d132459ed444fa40c7a504a8404da,Gallo Ristorante,CT,2019-10-01T00:00:00-04:00,2019-11-01T00:00:00-04:00,6877,277,63.0,"{""<5"":5,""5-20"":42,""21-60"":87,""61-240"":117,"">240"":26}",27909.5,41.28412,-73.49510500000001,722511.0,CT,9.0,9001.0,Fairfield County,90012453003.0
21075,sg:08cbfe35d9b94e139a9ccb5a363f60e7,Irving Oil,CT,2019-10-01T00:00:00-04:00,2019-11-01T00:00:00-04:00,6109,17,9.0,"{""<5"":2,""5-20"":11,""21-60"":4,""61-240"":0,"">240"":0}",304.5,41.704713,-72.660635,447110.0,CT,9.0,9003.0,Hartford County,90034922002.0
21091,sg:0a823ae6c7484914b3774d1029012f14,Ivy Drive School,CT,2019-10-01T00:00:00-04:00,2019-11-01T00:00:00-04:00,6010,130,37.5,"{""<5"":6,""5-20"":49,""21-60"":27,""61-240"":21,"">240"":27}",11361.5,41.704722,-72.901133,611110.0,CT,9.0,9003.0,Hartford County,90034060022.0
21262,sg:1901de48b59c4b1d85d06b2827f9d980,Monro,CT,2019-10-01T00:00:00-04:00,2019-11-01T00:00:00-04:00,6795,29,61.0,"{""<5"":1,""5-20"":5,""21-60"":8,""61-240"":14,"">240"":1}",2736.0,41.596486999999996,-73.113474,811198.0,CT,9.0,9005.0,Litchfield County,90053601003.0
21266,sg:195912457214462db8440d3711962169,Cora Cora,CT,2019-10-01T00:00:00-04:00,2019-11-01T00:00:00-04:00,6110,197,58.0,"{""<5"":0,""5-20"":24,""21-60"":80,""61-240"":71,"">240"":22}",19505.5,41.728685999999996,-72.720828,722511.0,CT,9.0,9003.0,Hartford County,90034961001.0
21307,sg:1d2f63e274c842e6b83abdcf382aa96c,Maplecroft Plaza,CT,2019-10-01T00:00:00-04:00,2019-11-01T00:00:00-04:00,6410,6098,23.0,"{""<5"":146,""5-20"":2489,""21-60"":2140,""61-240"":1037,"">240"":286}",342856.0,41.503919,-72.902263,531120.0,CT,9.0,9009.0,New Haven County,90093431021.0
21369,sg:23265ca32b02426a95516b2531a58988,Baby Cottage Inc,CT,2019-10-01T00:00:00-04:00,2019-11-01T00:00:00-04:00,6905,13,54.0,"{""<5"":0,""5-20"":6,""21-60"":1,""61-240"":5,"">240"":1}",1108.0,41.097485999999996,-73.5311,624410.0,CT,9.0,9001.0,Fairfield County,90010209003.0
21419,sg:27699ca4ae4d403dbd10c91ff532d819,Wesco Inc,CT,2019-10-01T00:00:00-04:00,2019-11-01T00:00:00-04:00,6851,96,23.0,"{""<5"":5,""5-20"":40,""21-60"":16,""61-240"":13,"">240"":22}",8397.0,41.130796000000004,-73.427299,532120.0,CT,9.0,9001.0,Fairfield County,90010434003.0
21420,sg:27871179fb99488d841323c9490fce6b,Kingdom's Little Ones Academy,CT,2019-10-01T00:00:00-04:00,2019-11-01T00:00:00-04:00,6607,26,10.5,"{""<5"":0,""5-20"":16,""21-60"":6,""61-240"":4,"">240"":0}",1045.0,41.178481,-73.16597,624410.0,CT,9.0,9001.0,Fairfield County,90010743004.0
21482,sg:2d45448e71104ea29652aeeef80e48db,Sheikh's Dairy Plus,CT,2019-10-01T00:00:00-04:00,2019-11-01T00:00:00-04:00,6416,136,18.5,"{""<5"":8,""5-20"":64,""21-60"":38,""61-240"":25,"">240"":1}",6361.5,41.600351,-72.654884,447110.0,CT,9.0,9007.0,Middlesex County,90075703001.0
21603,sg:361b4ce655164eae8827655493402b40,Ridgefield Organics Market,CT,2019-10-01T00:00:00-04:00,2019-11-01T00:00:00-04:00,6877,2,15.0,"{""<5"":0,""5-20"":2,""21-60"":0,""61-240"":0,"">240"":0}",25.0,41.29343,-73.494191,445110.0,CT,9.0,9001.0,Fairfield County,90012453003.0
21850,sg:4e83a6e6aef24509ab589ff410d5af5f,Raymond James Financial,CT,2019-10-01T00:00:00-04:00,2019-11-01T00:00:00-04:00,6510,2,233.5,"{""<5"":0,""5-20"":0,""21-60"":0,""61-240"":1,"">240"":1}",390.5,41.309854,-72.922103,523930.0,CT,9.0,9009.0,New Haven County,90091401001.0
21902,sg:542d056ba9454851bbbc4b9e98ad6eea,Greater Hartford Physical Therapy PC,CT,2019-10-01T00:00:00-04:00,2019-11-01T00:00:00-04:00,6057,1,40.0,"{""<5"":0,""5-20"":0,""21-60"":1,""61-240"":0,"">240"":0}",40.5,41.802710999999995,-72.998113,621340.0,CT,9.0,9005.0,Litchfield County,90053061002.0
22018,sg:5fcad8711f594aa28865c49c6cba63d8,China Sea,CT,2019-10-01T00:00:00-04:00,2019-11-01T00:00:00-04:00,6447,74,10.0,"{""<5"":5,""5-20"":51,""21-60"":12,""61-240"":2,"">240"":4}",2397.0,41.63162,-72.460823,722511.0,CT,9.0,9003.0,Hartford County,90035241004.0
22482,sg:8bd995de470640b1bba0a1c437b4df2b,Twice As Nice,CT,2019-10-01T00:00:00-04:00,2019-11-01T00:00:00-04:00,6514,30,22.0,"{""<5"":0,""5-20"":13,""21-60"":11,""61-240"":6,"">240"":0}",1511.0,41.351746999999996,-72.93070300000001,448130.0,CT,9.0,9009.0,New Haven County,90091656003.0
22508,sg:8dc8df627b1245e9956be78c8e0ef1c9,Marshalls,CT,2019-10-01T00:00:00-04:00,2019-11-01T00:00:00-04:00,6614,723,22.0,"{""<5"":15,""5-20"":285,""21-60"":352,""61-240"":54,"">240"":17}",30063.0,41.197606,-73.12181600000001,448140.0,CT,9.0,9001.0,Fairfield County,90010807001.0
22638,sg:9a620625babc43fcbfeec150e59a773e,CVS,CT,2019-10-01T00:00:00-04:00,2019-11-01T00:00:00-04:00,6033,563,11.0,"{""<5"":22,""5-20"":392,""21-60"":131,""61-240"":17,"">240"":1}",13059.0,41.715291,-72.611644,446110.0,CT,9.0,9003.0,Hartford County,90035203022.0
22748,sg:a4d47139b54a4f198dfa70bcf38c708f,CubeSmart,CT,2019-10-01T00:00:00-04:00,2019-11-01T00:00:00-04:00,6074,6,8.5,"{""<5"":0,""5-20"":4,""21-60"":2,""61-240"":0,"">240"":0}",131.0,41.811768,-72.609217,531130.0,CT,9.0,9003.0,Hartford County,90034874003.0
22758,sg:a634a9409d3d491d90d7a073da4d08d8,Personal Financial Planning,CT,2019-10-01T00:00:00-04:00,2019-11-01T00:00:00-04:00,6840,48,21.0,"{""<5"":2,""5-20"":21,""21-60"":16,""61-240"":9,"">240"":0}",2270.0,41.131329,-73.492888,523930.0,CT,9.0,9001.0,Fairfield County,90010351004.0
22789,sg:a8daf4c74dd5488d951060a99416c861,Women's Quality Care,CT,2019-10-01T00:00:00-04:00,2019-11-01T00:00:00-04:00,6825,40,40.0,"{""<5"":1,""5-20"":11,""21-60"":13,""61-240"":9,"">240"":6}",3461.0,41.172026,-73.22811800000001,621111.0,CT,9.0,9001.0,Fairfield County,90010614001.0
23060,sg:c3fd39ea77594367a2cf3c586f197846,Michael Kors,CT,2019-10-01T00:00:00-04:00,2019-11-01T00:00:00-04:00,6338,2,29.0,"{""<5"":0,""5-20"":1,""21-60"":1,""61-240"":0,"">240"":0}",53.0,41.476191,-71.962147,448140.0,CT,9.0,9011.0,New London County,90117011005.0
23193,sg:d34369eb820746afa359219f62fcab25,Physical Therapy and Sports Medicine Centers,CT,2019-10-01T00:00:00-04:00,2019-11-01T00:00:00-04:00,6426,1,21.0,"{""<5"":0,""5-20"":0,""21-60"":1,""61-240"":0,"">240"":0}",40.5,41.338789,-72.413327,621111.0,CT,9.0,9007.0,Middlesex County,90076301004.0
23201,sg:d42750671e9a446d976f48a2e3db6df8,Naomi R Hersh DDS,CT,2019-10-01T00:00:00-04:00,2019-11-01T00:00:00-04:00,6851,15,31.0,"{""<5"":0,""5-20"":6,""21-60"":5,""61-240"":2,"">240"":2}",1058.5,41.110717,-73.407129,621210.0,CT,9.0,9001.0,Fairfield County,90010436002.0
23272,sg:db504dbad7fc4dd1995735066ad0b657,West End Farmers' Market,CT,2019-10-01T00:00:00-04:00,2019-11-01T00:00:00-04:00,6105,310,78.0,"{""<5"":2,""5-20"":95,""21-60"":43,""61-240"":83,"">240"":87}",36305.5,41.761787,-72.709968,445230.0,CT,9.0,9003.0,Hartford County,90035245013.0
23301,sg:dd9eb97189884e6a969836df17053738,Happy Garden,CT,2019-10-01T00:00:00-04:00,2019-11-01T00:00:00-04:00,6795,26,25.0,"{""<5"":3,""5-20"":8,""21-60"":4,""61-240"":3,"">240"":8}",2641.0,41.594232,-73.11130899999999,722511.0,CT,9.0,9005.0,Litchfield County,90053602004.0
23392,sg:e73a69bd02fb4de79c41c9d3c3b5516e,Parkville Senior Center,CT,2019-10-01T00:00:00-04:00,2019-11-01T00:00:00-04:00,6106,81,27.0,"{""<5"":1,""5-20"":32,""21-60"":22,""61-240"":14,"">240"":12}",6280.5,41.756541999999996,-72.707523,623312.0,CT,9.0,9003.0,Hartford County,90035043002.0
23588,sg:fc4a30e76bac4684882d48cfbd2f9e48,Michael Kors,CT,2019-10-01T00:00:00-04:00,2019-11-01T00:00:00-04:00,6413,283,21.0,"{""<5"":5,""5-20"":129,""21-60"":115,""61-240"":30,"">240"":4}",11757.5,41.292083,-72.533856,448140.0,CT,9.0,9007.0,Middlesex County,90076104001.0
23764,sg:0b9cab4968da4cf6a499db65f15ac718,David M Brady ND,CT,2019-10-01T00:00:00-04:00,2019-11-01T00:00:00-04:00,6825,12,141.0,"{""<5"":0,""5-20"":1,""21-60"":3,""61-240"":5,"">240"":3}",1606.5,41.172096999999994,-73.228093,621111.0,CT,9.0,9001.0,Fairfield County,90010614001.0
23775,sg:0c5c9d577e16402abd8f13a1330c3f81,Eli Whitney Technical High School,CT,2019-10-01T00:00:00-04:00,2019-11-01T00:00:00-04:00,6514,391,60.0,"{""<5"":5,""5-20"":119,""21-60"":74,""61-240"":103,"">240"":90}",41598.5,41.342409,-72.94193299999999,611110.0,CT,9.0,9009.0,New Haven County,90091657001.0
23841,sg:12c505748206407d9218e8294262bd89,Kate Spade,CT,2019-10-01T00:00:00-04:00,2019-11-01T00:00:00-04:00,6413,79,20.0,"{""<5"":3,""5-20"":40,""21-60"":29,""61-240"":6,"">240"":1}",2825.0,41.291367,-72.533386,448140.0,CT,9.0,9007.0,Middlesex County,90076104001.0
23965,sg:1f1f3f3366d3424f93ac5116ce7af256,Home Buddies,CT,2019-10-01T00:00:00-04:00,2019-11-01T00:00:00-04:00,6907,65,46.0,"{""<5"":1,""5-20"":19,""21-60"":14,""61-240"":18,"">240"":13}",6636.0,41.079289,-73.520974,812910.0,CT,9.0,9001.0,Fairfield County,90010211001.0
24009,sg:23e4baa0850848a7aa69ae095aac4ddd,West Rock Wine & Liquor Warehouse,CT,2019-10-01T00:00:00-04:00,2019-11-01T00:00:00-04:00,6515,24,32.0,"{""<5"":0,""5-20"":10,""21-60"":4,""61-240"":3,"">240"":7}",2418.5,41.33104,-72.973725,445310.0,CT,9.0,9009.0,New Haven County,90091412003.0
24350,sg:441d9c01a4db477195f63d4a08e84da5,Select Medical,CT,2019-10-01T00:00:00-04:00,2019-11-01T00:00:00-04:00,6069,50,55.0,"{""<5"":0,""5-20"":11,""21-60"":17,""61-240"":14,"">240"":8}",4853.0,41.876774,-73.47958,621111.0,CT,9.0,9005.0,Litchfield County,90052621002.0
24361,sg:4569ec9f4a484764af8221474951c9c0,Gulf Oil,CT,2019-10-01T00:00:00-04:00,2019-11-01T00:00:00-04:00,6405,44,8.0,"{""<5"":3,""5-20"":35,""21-60"":4,""61-240"":2,"">240"":0}",908.0,41.277747,-72.82364799999999,447110.0,CT,9.0,9009.0,New Haven County,90091841003.0
24403,sg:47cae8b1a52b459189d195a5be37835c,Sky Zone,CT,2019-10-01T00:00:00-04:00,2019-11-01T00:00:00-04:00,6492,270,62.0,"{""<5"":4,""5-20"":55,""21-60"":64,""61-240"":141,"">240"":6}",25950.0,41.477722,-72.81320699999999,713990.0,CT,9.0,9009.0,New Haven County,90091754001.0
24411,sg:484a2a7eb39946328eb65a29939006f6,Yoga with Rebecca Santillo,CT,2019-10-01T00:00:00-04:00,2019-11-01T00:00:00-04:00,6492,334,73.5,"{""<5"":7,""5-20"":68,""21-60"":71,""61-240"":179,"">240"":9}",32842.5,41.472840999999995,-72.81847900000001,713940.0,CT,9.0,9009.0,New Haven County,90091754001.0
24552,sg:56b52f8a939344e5b87fff323c29738a,Breezy Point Auto Body,CT,2019-10-01T00:00:00-04:00,2019-11-01T00:00:00-04:00,6615,62,37.5,"{""<5"":0,""5-20"":26,""21-60"":8,""61-240"":10,"">240"":18}",6474.0,41.170268,-73.127713,811121.0,CT,9.0,9001.0,Fairfield County,90010805001.0
24554,sg:5709ba047338427bb83b79cb82425978,East Lyme Orthodontics,CT,2019-10-01T00:00:00-04:00,2019-11-01T00:00:00-04:00,6333,13,20.0,"{""<5"":0,""5-20"":7,""21-60"":6,""61-240"":0,"">240"":0}",330.5,41.36762,-72.220085,621210.0,CT,9.0,9011.0,New London County,90117161023.0
24648,sg:610d04d5f88845d89aef62e676f34434,Hartford HealthCare Medical Group,CT,2019-10-01T00:00:00-04:00,2019-11-01T00:00:00-04:00,6111,152,36.0,"{""<5"":4,""5-20"":48,""21-60"":43,""61-240"":50,"">240"":7}",11556.5,41.694596000000004,-72.72222099999999,621111.0,CT,9.0,9003.0,Hartford County,90034944002.0
24716,sg:66f0fed7e6ba4b168efcdebfb202c8b7,Roger Sherman Baldwin Park,CT,2019-10-01T00:00:00-04:00,2019-11-01T00:00:00-04:00,6604,417,28.0,"{""<5"":9,""5-20"":155,""21-60"":146,""61-240"":103,"">240"":4}",24334.5,41.018178999999996,-73.62612800000001,712190.0,CT,9.0,9001.0,Fairfield County,90010112001.0
24729,sg:68a0522db7e84b2381d55ba3b11417c7,DiBella's Subs,CT,2019-10-01T00:00:00-04:00,2019-11-01T00:00:00-04:00,6514,117,35.0,"{""<5"":0,""5-20"":46,""21-60"":21,""61-240"":18,"">240"":32}",11814.5,41.368646999999996,-72.918269,722513.0,CT,9.0,9009.0,New Haven County,90091658012.0
24757,sg:6a74619818c049dbb32ceccc05ffddba,Humiston Alternative School,CT,2019-10-01T00:00:00-04:00,2019-11-01T00:00:00-04:00,6410,24,15.5,"{""<5"":0,""5-20"":16,""21-60"":8,""61-240"":0,"">240"":0}",524.0,41.499804,-72.902125,611110.0,CT,9.0,9009.0,New Haven County,90093433001.0
24862,sg:72f71039b0114a4696b839b894831d70,Subway,CT,2019-10-01T00:00:00-04:00,2019-11-01T00:00:00-04:00,6516,17,88.0,"{""<5"":2,""5-20"":5,""21-60"":0,""61-240"":10,"">240"":0}",1572.5,41.280058000000004,-72.94115699999999,722513.0,CT,9.0,9009.0,New Haven County,90091545001.0
24877,sg:745a82bf71e046b183050f64f67a7b5e,Burger King,CT,2019-10-01T00:00:00-04:00,2019-11-01T00:00:00-04:00,6088,221,9.0,"{""<5"":9,""5-20"":165,""21-60"":40,""61-240"":3,"">240"":4}",5116.5,41.931411,-72.606166,722513.0,CT,9.0,9003.0,Hartford County,90034841001.0
25054,sg:83dde262787748c7aeb6823d4b05ffa1,Piano Arts,CT,2019-10-01T00:00:00-04:00,2019-11-01T00:00:00-04:00,6042,3,306.0,"{""<5"":0,""5-20"":1,""21-60"":0,""61-240"":0,"">240"":2}",492.5,41.784428999999996,-72.55212,451140.0,CT,9.0,9003.0,Hartford County,90035145003.0
25131,sg:8ab4be0f22ef4d478ec3a2113e81ab71,H&b Package Store,CT,2019-10-01T00:00:00-04:00,2019-11-01T00:00:00-04:00,6360,48,108.5,"{""<5"":0,""5-20"":15,""21-60"":5,""61-240"":14,"">240"":14}",5857.0,41.531876000000004,-72.056093,445310.0,CT,9.0,9011.0,New London County,90116964001.0
25223,sg:93a8ca9ed89845c496e7bee924ea9adc,Hua Lin Chinese Restaurant,CT,2019-10-01T00:00:00-04:00,2019-11-01T00:00:00-04:00,6906,60,9.5,"{""<5"":5,""5-20"":42,""21-60"":10,""61-240"":2,"">240"":1}",1483.5,41.069099,-73.526498,722511.0,CT,9.0,9001.0,Fairfield County,90010218011.0
25243,sg:95bc79c7e0484d82a47179f6d7b00c20,Skechers,CT,2019-10-01T00:00:00-04:00,2019-11-01T00:00:00-04:00,6413,45,22.0,"{""<5"":2,""5-20"":19,""21-60"":21,""61-240"":2,"">240"":1}",1634.0,41.291897999999996,-72.53370699999999,448210.0,CT,9.0,9007.0,Middlesex County,90076104001.0
25301,sg:9abcd987c3b64f8bbb7db1f872e08b4a,Pomodoro Pizzeria & Trattoria,CT,2019-10-01T00:00:00-04:00,2019-11-01T00:00:00-04:00,6878,16,43.0,"{""<5"":0,""5-20"":6,""21-60"":7,""61-240"":2,"">240"":1}",899.5,41.042576000000004,-73.577565,722511.0,CT,9.0,9001.0,Fairfield County,90010109002.0
25393,sg:a43cf384b12345e6a93285968c2e1401,Connecticut Bail Bonds Group,CT,2019-10-01T00:00:00-04:00,2019-11-01T00:00:00-04:00,6033,151,136.0,"{""<5"":5,""5-20"":26,""21-60"":31,""61-240"":32,"">240"":57}",20089.0,41.726328,-72.605076,812990.0,CT,9.0,9003.0,Hartford County,90035203012.0
25482,sg:ad4d83bcd7ef43adb5b970f1d1c20a53,The Chapman Manufacturing Co,CT,2019-10-01T00:00:00-04:00,2019-11-01T00:00:00-04:00,6422,7,10.0,"{""<5"":0,""5-20"":6,""21-60"":0,""61-240"":1,"">240"":0}",225.5,41.447914000000004,-72.701937,444130.0,CT,9.0,9007.0,Middlesex County,90075851004.0
25486,sg:ada038ae399942139072e96af4eb26c3,Big Y Foods,CT,2019-10-01T00:00:00-04:00,2019-11-01T00:00:00-04:00,6471,684,21.0,"{""<5"":13,""5-20"":313,""21-60"":272,""61-240"":61,"">240"":25}",30141.5,41.325059,-72.780343,445110.0,CT,9.0,9009.0,New Haven County,90091861006.0
25509,sg:b0d5d99f63f64afcae794fddc4ce8cfe,Grader Jewelers,CT,2019-10-01T00:00:00-04:00,2019-11-01T00:00:00-04:00,6360,39,9.0,"{""<5"":5,""5-20"":28,""21-60"":4,""61-240"":1,"">240"":1}",915.0,41.517343,-72.09855999999999,448310.0,CT,9.0,9011.0,New London County,90116966001.0
25606,sg:bb402280176247198871c8589b581279,Ruby Tuesday,CT,2019-10-01T00:00:00-04:00,2019-11-01T00:00:00-04:00,6473,254,41.0,"{""<5"":4,""5-20"":62,""21-60"":119,""61-240"":65,"">240"":4}",16347.0,41.35368,-72.87181700000001,722511.0,CT,9.0,9009.0,New Haven County,90091672012.0
25841,sg:d59a18ae6fcb4bdf86ef756ea7a74127,Newington Housing Authority,CT,2019-10-01T00:00:00-04:00,2019-11-01T00:00:00-04:00,6111,168,35.5,"{""<5"":4,""5-20"":69,""21-60"":21,""61-240"":58,"">240"":16}",14292.0,41.696711,-72.729943,522110.0,CT,9.0,9003.0,Hartford County,90034944003.0
25905,sg:db67bc6ece0c449e8945d8265ebf994d,Connecticut Orthopaedic Specialists,CT,2019-10-01T00:00:00-04:00,2019-11-01T00:00:00-04:00,6484,338,54.0,"{""<5"":0,""5-20"":41,""21-60"":136,""61-240"":63,"">240"":98}",39022.0,41.264143,-73.136769,621111.0,CT,9.0,9001.0,Fairfield County,90011103022.0
25989,sg:e404c3e19f3f441da964340d312e481c,Sprint,CT,2019-10-01T00:00:00-04:00,2019-11-01T00:00:00-04:00,6111,15,152.0,"{""<5"":0,""5-20"":0,""21-60"":0,""61-240"":11,"">240"":4}",2615.5,41.662511,-72.722542,517312.0,CT,9.0,9003.0,Hartford County,90034941002.0
26000,sg:e500b17b86c0476cbbdea0a9be1f99a2,4 & Twenty Blackbirds,CT,2019-10-01T00:00:00-04:00,2019-11-01T00:00:00-04:00,6437,25,10.0,"{""<5"":1,""5-20"":18,""21-60"":6,""61-240"":0,"">240"":0}",470.5,41.288259000000004,-72.673857,311811.0,CT,9.0,9009.0,New Haven County,90091901002.0
26255,sg:fd36412e16d74335a52973792da575d4,Badd Custom Cycle,CT,2019-10-01T00:00:00-04:00,2019-11-01T00:00:00-04:00,6786,28,10.0,"{""<5"":3,""5-20"":18,""21-60"":2,""61-240"":2,"">240"":3}",1334.5,41.68051,-73.015873,441228.0,CT,9.0,9005.0,Litchfield County,90054253001.0
26271,sg:ff34608370c04858a3746ffd3ab1e797,Preschool Of The Arts Ellington,CT,2019-10-01T00:00:00-04:00,2019-11-01T00:00:00-04:00,6029,8,190.5,"{""<5"":0,""5-20"":0,""21-60"":0,""61-240"":6,"">240"":2}",1383.0,41.904684,-72.468515,624410.0,CT,9.0,9013.0,Tolland County,90135351004.0
26334,sg:04d88ecec19e441ab6bfbca168c55e11,Yu's Academy Of Judo Tae Kwon Do & Hapkido Inc,CT,2019-10-01T00:00:00-04:00,2019-11-01T00:00:00-04:00,6019,10,14.5,"{""<5"":0,""5-20"":7,""21-60"":3,""61-240"":0,"">240"":0}",209.0,41.832214,-72.91214699999999,713940.0,CT,9.0,9003.0,Hartford County,90034641013.0
26365,sg:07d182bc9f07445e9a8b08e515e6ef84,Christian Science Church,CT,2019-10-01T00:00:00-04:00,2019-11-01T00:00:00-04:00,6880,33,90.0,"{""<5"":0,""5-20"":7,""21-60"":3,""61-240"":14,"">240"":9}",4476.0,41.138418,-73.35344,813110.0,CT,9.0,9001.0,Fairfield County,90010505001.0
26395,sg:0a76c397a1f544d3b05c9282e8e85133,Terminix,CT,2019-10-01T00:00:00-04:00,2019-11-01T00:00:00-04:00,6095,31,14.0,"{""<5"":3,""5-20"":15,""21-60"":2,""61-240"":5,"">240"":6}",2468.5,41.894855,-72.644942,561710.0,CT,9.0,9003.0,Hartford County,90034735023.0
26410,sg:0bc7cf59e982428fae980187fdb39ff5,Mercaz Community High School For Jewish Studies,CT,2019-10-01T00:00:00-04:00,2019-11-01T00:00:00-04:00,6604,216,53.5,"{""<5"":6,""5-20"":72,""21-60"":40,""61-240"":69,"">240"":29}",19879.5,41.190682,-73.21389599999999,611110.0,CT,9.0,9001.0,Fairfield County,90010721001.0
26425,sg:0d89492869344def95d04d31baed5b63,The Harp On Church,CT,2019-10-01T00:00:00-04:00,2019-11-01T00:00:00-04:00,6226,133,43.0,"{""<5"":1,""5-20"":38,""21-60"":45,""61-240"":45,"">240"":4}",10032.5,41.712813,-72.211162,722511.0,CT,9.0,9015.0,Windham County,90158006003.0
26457,sg:11512a8a869e49c5bc9bdd92fa6bed04,Brody's Seafood Market and Deli,CT,2019-10-01T00:00:00-04:00,2019-11-01T00:00:00-04:00,6360,41,22.0,"{""<5"":2,""5-20"":15,""21-60"":16,""61-240"":7,"">240"":1}",2134.0,41.595901,-72.050519,445120.0,CT,9.0,9011.0,New London County,90116961004.0
26494,sg:14b1b04851ea483bac22788c5dc634d1,Noodles & Company,CT,2019-10-01T00:00:00-04:00,2019-11-01T00:00:00-04:00,6117,731,25.0,"{""<5"":8,""5-20"":275,""21-60"":260,""61-240"":122,"">240"":66}",48188.5,41.784348,-72.747928,722511.0,CT,9.0,9003.0,Hartford County,90034974001.0
26503,sg:15771cd01cc54ee7a201672f8ca39f97,Noah's Ark Children's Center,CT,2019-10-01T00:00:00-04:00,2019-11-01T00:00:00-04:00,6450,86,184.5,"{""<5"":1,""5-20"":4,""21-60"":19,""61-240"":20,"">240"":42}",13912.0,41.535557,-72.786989,624410.0,CT,9.0,9009.0,New Haven County,90091714002.0
26608,sg:1e40e78acc1a4720b253e698d6dc7b51,San Remo Restaurant and Pizzeria,CT,2019-10-01T00:00:00-04:00,2019-11-01T00:00:00-04:00,6798,238,26.0,"{""<5"":9,""5-20"":77,""21-60"":85,""61-240"":65,"">240"":2}",14690.0,41.555028,-73.20204100000001,722511.0,CT,9.0,9005.0,Litchfield County,90053621013.0
26829,sg:339b41a1147a4a44bdc04d42bb627419,Aces Defense,CT,2019-10-01T00:00:00-04:00,2019-11-01T00:00:00-04:00,6239,119,16.0,"{""<5"":2,""5-20"":62,""21-60"":45,""61-240"":8,"">240"":2}",4286.5,41.82096,-71.877702,452319.0,CT,9.0,9015.0,Windham County,90159044004.0
26831,sg:33c066450fbf48219efba3dcc4124730,Bella Vista Pharmacy and Surgical Supplies,CT,2019-10-01T00:00:00-04:00,2019-11-01T00:00:00-04:00,6513,326,50.5,"{""<5"":4,""5-20"":105,""21-60"":65,""61-240"":72,"">240"":80}",33991.0,41.315943,-72.872283,446110.0,CT,9.0,9009.0,New Haven County,90091426031.0
26970,sg:40497055d4624905a1c44e7b662961c1,Bon Fleur,CT,2019-10-01T00:00:00-04:00,2019-11-01T00:00:00-04:00,6840,85,19.0,"{""<5"":6,""5-20"":41,""21-60"":17,""61-240"":15,"">240"":6}",4913.5,41.147452,-73.490107,453110.0,CT,9.0,9001.0,Fairfield County,90010351002.0
26987,sg:41527f57e9a84f8c94c4f5063dbca27c,Dunkin',CT,2019-10-01T00:00:00-04:00,2019-11-01T00:00:00-04:00,6489,346,6.0,"{""<5"":42,""5-20"":235,""21-60"":31,""61-240"":22,"">240"":16}",11449.0,41.564062,-72.908654,722515.0,CT,9.0,9003.0,Hartford County,90034304002.0
27254,sg:59d27a20631d4a84892b80673d384fa7,Raney Orthodontics,CT,2019-10-01T00:00:00-04:00,2019-11-01T00:00:00-04:00,6248,32,31.5,"{""<5"":0,""5-20"":8,""21-60"":14,""61-240"":6,"">240"":4}",2530.0,41.659594,-72.362725,621111.0,CT,9.0,9013.0,Tolland County,90135261023.0
27263,sg:5aa31f86927b41a69d483f0fc4d79e42,Marlborough Animal Hospital,CT,2019-10-01T00:00:00-04:00,2019-11-01T00:00:00-04:00,6447,37,23.0,"{""<5"":1,""5-20"":14,""21-60"":21,""61-240"":1,"">240"":0}",1178.5,41.608909000000004,-72.480814,541940.0,CT,9.0,9003.0,Hartford County,90035241003.0
27285,sg:5c91eabab2474207b40316f9470c7b27,David E Palozej Eyecare,CT,2019-10-01T00:00:00-04:00,2019-11-01T00:00:00-04:00,6084,133,50.0,"{""<5"":0,""5-20"":25,""21-60"":58,""61-240"":49,"">240"":1}",10276.0,41.853559000000004,-72.340756,446130.0,CT,9.0,9013.0,Tolland County,90135331022.0
27346,sg:61beb6b7b5de45478b8001f2a83aa520,Connecticut Institute For Herbal Studies,CT,2019-10-01T00:00:00-04:00,2019-11-01T00:00:00-04:00,6109,15,30.0,"{""<5"":1,""5-20"":6,""21-60"":2,""61-240"":4,"">240"":2}",1240.5,41.697958,-72.700117,624410.0,CT,9.0,9003.0,Hartford County,90034925002.0
27577,sg:77629d718032494dba4070af0e74bd43,Silver City Vapors in Wallingford CT,CT,2019-10-01T00:00:00-04:00,2019-11-01T00:00:00-04:00,6492,68,17.5,"{""<5"":1,""5-20"":38,""21-60"":19,""61-240"":10,"">240"":0}",2752.0,41.441435,-72.831066,444120.0,CT,9.0,9009.0,New Haven County,90091753003.0
27647,sg:7d2ef1ecc0aa48fdb7eb29aa4670de36,Quinnipiac Pizza & Deli,CT,2019-10-01T00:00:00-04:00,2019-11-01T00:00:00-04:00,6513,22,16.5,"{""<5"":0,""5-20"":15,""21-60"":2,""61-240"":4,"">240"":1}",1110.5,41.33099,-72.8675,722511.0,CT,9.0,9009.0,New Haven County,90091426011.0
27740,sg:85b90b4760af4c089c87a9b0a1bc7e9e,Edy McClure,CT,2019-10-01T00:00:00-04:00,2019-11-01T00:00:00-04:00,6488,20,53.5,"{""<5"":1,""5-20"":5,""21-60"":5,""61-240"":5,"">240"":4}",1980.0,41.478021999999996,-73.18157,621330.0,CT,9.0,9009.0,New Haven County,90093481221.0
27807,sg:8da024fc2b184ead8518b236e6b716c5,The Classic Car Gallery,CT,2019-10-01T00:00:00-04:00,2019-11-01T00:00:00-04:00,6605,1,1430.0,"{""<5"":0,""5-20"":0,""21-60"":0,""61-240"":0,"">240"":1}",240.0,41.163354,-73.221086,441120.0,CT,9.0,9001.0,Fairfield County,90010702002.0
27808,sg:8dae81b71d7e445da484c1169f203e63,Central Connecticut Orofacial Pain &amp Sleep Medicine,CT,2019-10-01T00:00:00-04:00,2019-11-01T00:00:00-04:00,6033,20,73.0,"{""<5"":0,""5-20"":6,""21-60"":3,""61-240"":9,"">240"":2}",2031.0,41.720492,-72.59855400000001,621111.0,CT,9.0,9003.0,Hartford County,90035203011.0
28011,sg:a19135398c264092b696d272d4a179dd,Toni Ann's,CT,2019-10-01T00:00:00-04:00,2019-11-01T00:00:00-04:00,6035,248,51.0,"{""<5"":3,""5-20"":55,""21-60"":74,""61-240"":50,"">240"":66}",27057.0,41.986964,-72.79972,722515.0,CT,9.0,9003.0,Hartford County,90034681011.0
28021,sg:a2995a645f9c48588ef85b8a4e46e3e4,Subway,CT,2019-10-01T00:00:00-04:00,2019-11-01T00:00:00-04:00,6460,215,8.0,"{""<5"":13,""5-20"":161,""21-60"":35,""61-240"":5,"">240"":1}",4455.0,41.239877,-73.034091,722513.0,CT,9.0,9009.0,New Haven County,90091508001.0
28023,sg:a2ca2629e9fb4297a3b003567c6c928e,Herms,CT,2019-10-01T00:00:00-04:00,2019-11-01T00:00:00-04:00,6830,150,20.0,"{""<5"":8,""5-20"":70,""21-60"":45,""61-240"":12,"">240"":15}",8123.5,41.025559,-73.625412,452210.0,CT,9.0,9001.0,Fairfield County,90010106002.0
28066,sg:a6d9be3d06d64f84869c16222f617204,Old Navy,CT,2019-10-01T00:00:00-04:00,2019-11-01T00:00:00-04:00,6854,90,20.0,"{""<5"":1,""5-20"":53,""21-60"":22,""61-240"":4,"">240"":10}",4558.0,41.098514,-73.44505600000001,448140.0,CT,9.0,9001.0,Fairfield County,90010431001.0
28069,sg:a72d5005aac449cf99a29f23423feae2,Great Harvest Bread Co.,CT,2019-10-01T00:00:00-04:00,2019-11-01T00:00:00-04:00,6066,3,10.0,"{""<5"":0,""5-20"":2,""21-60"":0,""61-240"":0,"">240"":1}",265.0,41.846277,-72.486518,311811.0,CT,9.0,9013.0,Tolland County,90135303021.0
28144,sg:af397ec7d7dd4e8ab4ecd2addc40f3b9,Cyber Cerebs,CT,2019-10-01T00:00:00-04:00,2019-11-01T00:00:00-04:00,6902,31,90.0,"{""<5"":0,""5-20"":6,""21-60"":6,""61-240"":11,"">240"":8}",3893.5,41.056303,-73.546549,541921.0,CT,9.0,9001.0,Fairfield County,90010213003.0
28178,sg:b2cdc4de9f644d0eb4092e28f61bc401,Peachwave Yogurt,CT,2019-10-01T00:00:00-04:00,2019-11-01T00:00:00-04:00,6070,408,14.0,"{""<5"":15,""5-20"":228,""21-60"":88,""61-240"":54,"">240"":23}",20098.5,41.871084,-72.802382,722513.0,CT,9.0,9003.0,Hartford County,90034663002.0
28225,sg:b7b52eeee9514081b48da0417d0cfa8a,Shoppes At Larson Farms,CT,2019-10-01T00:00:00-04:00,2019-11-01T00:00:00-04:00,6010,1110,53.0,"{""<5"":15,""5-20"":185,""21-60"":423,""61-240"":439,"">240"":48}",97071.0,41.699583000000004,-72.897414,531120.0,CT,9.0,9003.0,Hartford County,90034060022.0
28442,sg:cc97b6f6168f41ec8778cb6cc879db34,RJ Shore Automotive,CT,2019-10-01T00:00:00-04:00,2019-11-01T00:00:00-04:00,6405,22,30.5,"{""<5"":0,""5-20"":6,""21-60"":8,""61-240"":7,"">240"":1}",1692.5,41.258478000000004,-72.849402,811111.0,CT,9.0,9009.0,New Haven County,90091843002.0
28450,sg:cd32e420410347009ee617555aac21ea,Johnnie's Flowers,CT,2019-10-01T00:00:00-04:00,2019-11-01T00:00:00-04:00,6053,23,8.0,"{""<5"":1,""5-20"":14,""21-60"":4,""61-240"":3,"">240"":1}",1031.0,41.666659,-72.80976,453110.0,CT,9.0,9003.0,Hartford County,90034165005.0
28508,sg:d40869366ae94cd29e1e3dd18363bf6f,Genji LLC,CT,2019-10-01T00:00:00-04:00,2019-11-01T00:00:00-04:00,6820,65,21.0,"{""<5"":3,""5-20"":29,""21-60"":10,""61-240"":21,"">240"":2}",4415.5,41.073353000000004,-73.476384,722511.0,CT,9.0,9001.0,Fairfield County,90010304001.0
28521,sg:d544781103024db2974f46fbb9ea1a98,Dollar Tree,CT,2019-10-01T00:00:00-04:00,2019-11-01T00:00:00-04:00,6226,173,11.0,"{""<5"":5,""5-20"":112,""21-60"":45,""61-240"":11,"">240"":0}",4890.5,41.734674,-72.200964,452319.0,CT,9.0,9013.0,Tolland County,90138815004.0
28663,sg:e6af965ab2424db2a059ed122d59a203,Liberty Bank,CT,2019-10-01T00:00:00-04:00,2019-11-01T00:00:00-04:00,6111,42,21.0,"{""<5"":2,""5-20"":17,""21-60"":8,""61-240"":9,"">240"":6}",3336.0,41.694218,-72.722193,522110.0,CT,9.0,9003.0,Hartford County,90034944002.0
28906,sg:00f7899eb92e45cba7966413dccda001,PM Pediatrics,CT,2019-10-01T00:00:00-04:00,2019-11-01T00:00:00-04:00,6110,1,549.0,"{""<5"":0,""5-20"":0,""21-60"":0,""61-240"":0,"">240"":1}",240.0,41.724342,-72.757103,621111.0,CT,9.0,9003.0,Hartford County,90034962004.0
29019,sg:0a5c687f03de4ab890cbd5438ee42330,Manchester Preschool Center,CT,2019-10-01T00:00:00-04:00,2019-11-01T00:00:00-04:00,6042,145,20.0,"{""<5"":3,""5-20"":70,""21-60"":20,""61-240"":28,"">240"":24}",11666.5,41.786582,-72.520622,611110.0,CT,9.0,9003.0,Hartford County,90035144002.0
29386,sg:2bbbadab9a6043afa899a15753dc30fb,Yuppy Puppy Petshop,CT,2019-10-01T00:00:00-04:00,2019-11-01T00:00:00-04:00,6437,349,21.0,"{""<5"":9,""5-20"":160,""21-60"":126,""61-240"":37,"">240"":17}",16774.0,41.2877,-72.6775,453910.0,CT,9.0,9009.0,New Haven County,90091901002.0
29598,sg:41890d16092b4b1fa101c5a52af40693,St John School,CT,2019-10-01T00:00:00-04:00,2019-11-01T00:00:00-04:00,6457,82,41.0,"{""<5"":0,""5-20"":27,""21-60"":20,""61-240"":19,"">240"":16}",7847.0,41.566581,-72.652982,611110.0,CT,9.0,9007.0,Middlesex County,90075416001.0
29625,sg:44698574ce26448ead80ddcc4339e564,Luminous Makeup & Skin,CT,2019-10-01T00:00:00-04:00,2019-11-01T00:00:00-04:00,6379,32,27.5,"{""<5"":1,""5-20"":9,""21-60"":11,""61-240"":7,"">240"":4}",2574.0,41.378533000000004,-71.83558199999999,446120.0,CT,9.0,9011.0,New London County,90117051024.0
