,safegraph_place_id,location_name,region,date_range_start,date_range_end,postal_code,raw_visit_counts,median_dwell,bucketed_dwell_times,est_total_dwell,latitude,longitude,naics_code,state,stateFIPS,countyFIPS,countyName,CBGFIPS
387,sg:2231e511a20748bc99c11c26f8810031,Coventry Eye Care Associates & Optical Center,RI,2020-02-01T00:00:00-05:00,2020-03-01T00:00:00-05:00,2816,31,10.0,"{""<5"":0,""5-20"":22,""21-60"":7,""61-240"":2,"">240"":0}",859.5,41.680561,-71.567223,446130.0,RI,44.0,44003.0,Kent County,440030206032.0
573,sg:343dc7d7ac184e7fb93d8c6238e7e6e6,Kingston Coffee,RI,2020-02-01T00:00:00-05:00,2020-03-01T00:00:00-05:00,2813,84,7.0,"{""<5"":9,""5-20"":69,""21-60"":6,""61-240"":0,"">240"":0}",1128.0,41.384457,-71.631429,722515.0,RI,44.0,44009.0,Washington County,440090511021.0
1323,sg:73e0f2e61b9446fa926b7c70d20596d9,Warwick Fire Department Station 8,RI,2020-02-01T00:00:00-05:00,2020-03-01T00:00:00-05:00,2888,44,79.5,"{""<5"":1,""5-20"":12,""21-60"":6,""61-240"":16,"">240"":9}",4963.5,41.736381,-71.435785,922160.0,RI,44.0,44003.0,Kent County,440030211004.0
1418,sg:7d43e0a9a77f4c258b684a67689b16de,Marshalls,RI,2020-02-01T00:00:00-05:00,2020-03-01T00:00:00-05:00,2914,390,22.0,"{""<5"":9,""5-20"":159,""21-60"":141,""61-240"":53,"">240"":28}",22417.0,41.823367,-71.358446,448140.0,RI,44.0,44007.0,Providence County,440070103001.0
1693,sg:96938e1367ae46b08dd8abfc837e1282,Midland Medical,RI,2020-02-01T00:00:00-05:00,2020-03-01T00:00:00-05:00,2920,63,64.0,"{""<5"":1,""5-20"":8,""21-60"":20,""61-240"":34,"">240"":0}",6029.5,41.733465,-71.476877,621111.0,RI,44.0,44007.0,Providence County,440070142003.0
1982,sg:b681a68140454ad18825e42d756fd9dc,All That Matters East Greenwich,RI,2020-02-01T00:00:00-05:00,2020-03-01T00:00:00-05:00,2818,175,41.0,"{""<5"":4,""5-20"":48,""21-60"":46,""61-240"":54,"">240"":23}",16120.0,41.651119,-71.46047800000001,713940.0,RI,44.0,44003.0,Kent County,440030209013.0
2223,sg:d450101756d648c18a14d9baf66a1856,Newport Sportsmans Club,RI,2020-02-01T00:00:00-05:00,2020-03-01T00:00:00-05:00,2840,96,41.0,"{""<5"":3,""5-20"":27,""21-60"":22,""61-240"":33,"">240"":11}",8842.5,41.504948,-71.317909,722511.0,RI,44.0,44005.0,Newport County,440050405002.0
2306,sg:dd61db232a87448e82e3c7e59025961e,Clay Creations,RI,2020-02-01T00:00:00-05:00,2020-03-01T00:00:00-05:00,2826,27,28.0,"{""<5"":1,""5-20"":10,""21-60"":11,""61-240"":5,"">240"":0}",1325.5,41.973071999999995,-71.632931,451130.0,RI,44.0,44007.0,Providence County,440070130021.0
2411,sg:e82421039a5e4c7280e0b564f194c632,Vaughn Eyecare,RI,2020-02-01T00:00:00-05:00,2020-03-01T00:00:00-05:00,2822,49,30.0,"{""<5"":3,""5-20"":15,""21-60"":16,""61-240"":8,"">240"":7}",3727.0,41.52828,-71.55300600000001,446130.0,RI,44.0,44009.0,Washington County,440090505003.0
2482,sg:f12b7a8039a64c9ea1427c5b8c1037c0,Muzzled Hotdogs,RI,2020-02-01T00:00:00-05:00,2020-03-01T00:00:00-05:00,2907,729,65.0,"{""<5"":11,""5-20"":183,""21-60"":163,""61-240"":232,"">240"":140}",77432.5,41.807502,-71.423603,447110.0,RI,44.0,44007.0,Providence County,440070003001.0
2534,sg:f6ae5bf38da14a4aae19f9367b856e1d,A AAA Chapel by the Sea,RI,2020-02-01T00:00:00-05:00,2020-03-01T00:00:00-05:00,2889,22,15.0,"{""<5"":0,""5-20"":13,""21-60"":6,""61-240"":2,"">240"":1}",946.5,41.715596999999995,-71.361814,813110.0,RI,44.0,44003.0,Kent County,440030215014.0
2539,sg:f72f66fa729845f28c02caa1348c5a6a,Carl M Cotoia DDS,RI,2020-02-01T00:00:00-05:00,2020-03-01T00:00:00-05:00,2906,11,21.0,"{""<5"":0,""5-20"":5,""21-60"":3,""61-240"":2,"">240"":1}",725.0,41.827712,-71.39253599999999,621210.0,RI,44.0,44007.0,Providence County,440070036012.0
2595,sg:fecff1fb63e943b996614e57ae2b677f,Purple Cow Ice Cream,RI,2020-02-01T00:00:00-05:00,2020-03-01T00:00:00-05:00,2861,79,38.0,"{""<5"":2,""5-20"":31,""21-60"":9,""61-240"":22,"">240"":15}",7668.0,41.89352,-71.354265,722515.0,RI,44.0,44007.0,Providence County,440070156001.0
2891,sg:198e515c91f34f0f93bed4db44139016,Dunkin',RI,2020-02-01T00:00:00-05:00,2020-03-01T00:00:00-05:00,2861,535,11.0,"{""<5"":28,""5-20"":316,""21-60"":91,""61-240"":56,"">240"":44}",26693.5,41.861178,-71.35416500000001,722515.0,RI,44.0,44007.0,Providence County,440070170002.0
3201,sg:36ef4c52a3444b6385ca9272e1833a42,Pie Zoni's,RI,2020-02-01T00:00:00-05:00,2020-03-01T00:00:00-05:00,2914,116,15.5,"{""<5"":11,""5-20"":53,""21-60"":28,""61-240"":21,"">240"":3}",5704.5,41.814285999999996,-71.37075300000001,722511.0,RI,44.0,44007.0,Providence County,440070104005.0
3218,sg:38d3d4692b44445e9117c9c99aad04a7,Eye Shop At Calenda Eye Care Center,RI,2020-02-01T00:00:00-05:00,2020-03-01T00:00:00-05:00,2886,74,34.0,"{""<5"":0,""5-20"":17,""21-60"":46,""61-240"":3,"">240"":8}",4447.0,41.70387,-71.477367,446130.0,RI,44.0,44003.0,Kent County,440030222021.0
3402,sg:4ac2a031b1db4d0e8def89844a3de1d4,The Avenue Salon,RI,2020-02-01T00:00:00-05:00,2020-03-01T00:00:00-05:00,2842,14,295.5,"{""<5"":0,""5-20"":0,""21-60"":1,""61-240"":5,"">240"":8}",2713.0,41.50704,-71.282826,812112.0,RI,44.0,44005.0,Newport County,440050404002.0
3471,sg:510c0165a7804e1793341c60068f6036,Private Appliance Service,RI,2020-02-01T00:00:00-05:00,2020-03-01T00:00:00-05:00,2919,14,13.0,"{""<5"":0,""5-20"":12,""21-60"":2,""61-240"":0,"">240"":0}",231.0,41.867034999999994,-71.503775,444130.0,RI,44.0,44007.0,Providence County,440070123003.0
3571,sg:5c8bd8a72cd648679268a919fb56f506,International Chromium Plating,RI,2020-02-01T00:00:00-05:00,2020-03-01T00:00:00-05:00,2909,139,64.0,"{""<5"":0,""5-20"":45,""21-60"":23,""61-240"":29,"">240"":42}",15938.5,41.822773,-71.437758,441120.0,RI,44.0,44007.0,Providence County,440070019001.0
3602,sg:5f8d0022029a4a34b864ad99e6d389b8,Napolillo David M,RI,2020-02-01T00:00:00-05:00,2020-03-01T00:00:00-05:00,2910,28,93.0,"{""<5"":0,""5-20"":1,""21-60"":10,""61-240"":6,"">240"":11}",3960.5,41.777427,-71.446881,621210.0,RI,44.0,44007.0,Providence County,440070140005.0
4253,sg:a12cc390e9314a1d93f966d6005ce52c,Anchor Point Early Learning Academy,RI,2020-02-01T00:00:00-05:00,2020-03-01T00:00:00-05:00,2896,4,324.0,"{""<5"":0,""5-20"":1,""21-60"":0,""61-240"":1,"">240"":2}",643.0,41.977945,-71.524914,624410.0,RI,44.0,44007.0,Providence County,440070128022.0
4341,sg:a9ae622834d54ef9a09693caad47165d,PWB by DeeDee,RI,2020-02-01T00:00:00-05:00,2020-03-01T00:00:00-05:00,2818,225,101.0,"{""<5"":2,""5-20"":27,""21-60"":52,""61-240"":104,"">240"":40}",27700.5,41.664168,-71.44760500000001,713940.0,RI,44.0,44003.0,Kent County,440030220003.0
5382,sg:1635fc9d07134668a849738e139ba93e,The Furniture Depot,RI,2020-02-01T00:00:00-05:00,2020-03-01T00:00:00-05:00,2886,698,23.0,"{""<5"":8,""5-20"":269,""21-60"":331,""61-240"":70,"">240"":20}",32123.0,41.689607,-71.499313,442110.0,RI,44.0,44003.0,Kent County,440030222022.0
5901,sg:47fbec5dea8448789bcf3cbf3f7f7fa3,YMCA,RI,2020-02-01T00:00:00-05:00,2020-03-01T00:00:00-05:00,2910,566,61.0,"{""<5"":4,""5-20"":84,""21-60"":190,""61-240"":273,"">240"":15}",53441.5,41.784711,-71.45265500000001,624190.0,RI,44.0,44007.0,Providence County,440070147003.0
6575,sg:8ba94e94183b4cf49b634a115e398d6b,Yard Works Floral Gift & Garden,RI,2020-02-01T00:00:00-05:00,2020-03-01T00:00:00-05:00,2888,65,11.0,"{""<5"":5,""5-20"":37,""21-60"":15,""61-240"":8,"">240"":0}",2286.5,41.740384000000006,-71.408357,453110.0,RI,44.0,44003.0,Kent County,440030212003.0
6696,sg:985e272b82b248ceae7ce6b2b4dee92b,Yagi Noodles,RI,2020-02-01T00:00:00-05:00,2020-03-01T00:00:00-05:00,2840,41,780.0,"{""<5"":0,""5-20"":2,""21-60"":6,""61-240"":5,"">240"":28}",7740.5,41.476757,-71.313695,722511.0,,,,,
6741,sg:9cf62bba206844668d3b6e5802a3ff8b,The Fantastic Umbrella Factory,RI,2020-02-01T00:00:00-05:00,2020-03-01T00:00:00-05:00,2813,11,40.0,"{""<5"":0,""5-20"":2,""21-60"":6,""61-240"":3,"">240"":0}",719.5,41.377478,-71.661671,453310.0,RI,44.0,44009.0,Washington County,440090511012.0
7501,sg:eaf599cd369d46639709d443e12dc6bf,Spinnakers Cafe,RI,2020-02-01T00:00:00-05:00,2020-03-01T00:00:00-05:00,2835,5,15.0,"{""<5"":0,""5-20"":3,""21-60"":1,""61-240"":0,"">240"":1}",318.0,41.530986,-71.383096,722515.0,RI,44.0,44005.0,Newport County,440050413001.0
7558,sg:f0f7f4d2a5c942d69ad6df988532a5bf,West Bay Christian Academy Elementary,RI,2020-02-01T00:00:00-05:00,2020-03-01T00:00:00-05:00,2852,205,42.0,"{""<5"":3,""5-20"":65,""21-60"":50,""61-240"":50,"">240"":37}",19250.0,41.615671999999996,-71.472258,611110.0,RI,44.0,44009.0,Washington County,440090501035.0
7706,sg:00772258fbe24983a6cdaa76f5441aec,Jehovah's Witnesses,RI,2020-02-01T00:00:00-05:00,2020-03-01T00:00:00-05:00,2865,176,100.5,"{""<5"":1,""5-20"":41,""21-60"":19,""61-240"":111,"">240"":4}",18950.0,41.904073,-71.423906,813110.0,RI,44.0,44007.0,Providence County,440070117023.0
8770,sg:66b5bad2fb8f45a496feff706eb2f89a,Little Angels Early Learning Program,RI,2020-02-01T00:00:00-05:00,2020-03-01T00:00:00-05:00,2879,303,30.0,"{""<5"":3,""5-20"":120,""21-60"":71,""61-240"":92,"">240"":17}",22309.0,41.442405,-71.47704,624410.0,RI,44.0,44009.0,Washington County,440090513052.0
9346,sg:a91847d47c1e40549f95fd84dcc961c2,Runway 41 Bar And Grill,RI,2020-02-01T00:00:00-05:00,2020-03-01T00:00:00-05:00,2888,33,26.0,"{""<5"":1,""5-20"":11,""21-60"":12,""61-240"":9,"">240"":0}",1980.5,41.733548,-71.435085,722511.0,RI,44.0,44003.0,Kent County,440030211003.0
9424,sg:b1427c7aa18645d19bc0621b0d528cd9,Old Stone Church Parsonage,RI,2020-02-01T00:00:00-05:00,2020-03-01T00:00:00-05:00,2878,4,64.0,"{""<5"":0,""5-20"":1,""21-60"":1,""61-240"":2,"">240"":0}",354.0,41.562748,-71.143854,813110.0,RI,44.0,44005.0,Newport County,440050417022.0
9628,sg:c4a92e2be8274ad2a7c5e4a09ab61326,Clayville Assembly,RI,2020-02-01T00:00:00-05:00,2020-03-01T00:00:00-05:00,2825,30,109.5,"{""<5"":0,""5-20"":6,""21-60"":5,""61-240"":11,"">240"":8}",3853.0,41.776654,-71.679373,813110.0,RI,44.0,44007.0,Providence County,440070133004.0
9894,sg:df61a1ff7b984db895a405d793312527,Bank of America,RI,2020-02-01T00:00:00-05:00,2020-03-01T00:00:00-05:00,2906,1,16.0,"{""<5"":0,""5-20"":1,""21-60"":0,""61-240"":0,"">240"":0}",12.5,41.829778999999995,-71.389339,522110.0,RI,44.0,44007.0,Providence County,440070035003.0
10833,sg:3d1e519b351d4d819ad0fd3ffa70ef28,Shelter Harbor Golf Club,RI,2020-02-01T00:00:00-05:00,2020-03-01T00:00:00-05:00,2813,35,39.0,"{""<5"":1,""5-20"":13,""21-60"":10,""61-240"":9,"">240"":2}",2404.5,41.359243,-71.730489,713910.0,RI,44.0,44009.0,Washington County,440090511013.0
10882,sg:4272cff34f7247e8a7dba61e2a230e81,Accu Reference Medical Lab,RI,2020-02-01T00:00:00-05:00,2020-03-01T00:00:00-05:00,2896,65,8.0,"{""<5"":3,""5-20"":42,""21-60"":15,""61-240"":5,"">240"":0}",1892.5,41.981434,-71.514932,621511.0,RI,44.0,44007.0,Providence County,440070128022.0
11467,sg:784a8539eca4447998bdf48fbb701ca1,Old Post Office Bagel Shop,RI,2020-02-01T00:00:00-05:00,2020-03-01T00:00:00-05:00,2807,8,11.5,"{""<5"":1,""5-20"":4,""21-60"":1,""61-240"":1,"">240"":1}",483.5,41.174141,-71.562251,722515.0,RI,44.0,44009.0,Washington County,440090415001.0
11581,sg:8485c9e8c8a84f2c87e5f8d4e10ea952,Frank's Auto Repair,RI,2020-02-01T00:00:00-05:00,2020-03-01T00:00:00-05:00,2871,2,295.5,"{""<5"":0,""5-20"":1,""21-60"":0,""61-240"":0,"">240"":1}",252.5,41.623529,-71.224453,811111.0,RI,44.0,44005.0,Newport County,440050401011.0
11995,sg:b029721365a243d99875921c3f883eec,Life Storage,RI,2020-02-01T00:00:00-05:00,2020-03-01T00:00:00-05:00,2893,42,270.0,"{""<5"":0,""5-20"":5,""21-60"":4,""61-240"":11,"">240"":22}",7160.0,41.671275,-71.50245799999999,531130.0,RI,44.0,44003.0,Kent County,440030201012.0
11998,sg:b0aa373162144a2689b23d921ba9bb81,Flyboarding Newport,RI,2020-02-01T00:00:00-05:00,2020-03-01T00:00:00-05:00,2840,6,5.5,"{""<5"":0,""5-20"":6,""21-60"":0,""61-240"":0,"">240"":0}",75.0,41.500118,-71.316762,451110.0,RI,44.0,44005.0,Newport County,440050405002.0
12180,sg:c66c75943b1548bcba6317b62673f95c,Cricket Wireless,RI,2020-02-01T00:00:00-05:00,2020-03-01T00:00:00-05:00,2863,93,51.0,"{""<5"":0,""5-20"":26,""21-60"":30,""61-240"":23,"">240"":14}",8361.5,41.892059,-71.387421,517312.0,RI,44.0,44007.0,Providence County,440070109001.0
12629,sg:f362f611ed3741008f1d15df91824179,Gather Glass,RI,2020-02-01T00:00:00-05:00,2020-03-01T00:00:00-05:00,2909,168,11.5,"{""<5"":5,""5-20"":93,""21-60"":26,""61-240"":32,"">240"":12}",9924.0,41.824585,-71.434617,453920.0,RI,44.0,44007.0,Providence County,440070025002.0
12654,sg:f5a6c9020ef44736a660b9b6b97dabe8,Lumber Liquidators,RI,2020-02-01T00:00:00-05:00,2020-03-01T00:00:00-05:00,2886,59,14.0,"{""<5"":0,""5-20"":37,""21-60"":15,""61-240"":7,"">240"":0}",2123.5,41.703837,-71.494587,442210.0,RI,44.0,44003.0,Kent County,440030223001.0
13278,sg:32d1e180a4224679aa7a69cd2975e8bc,Michelle Jeanne Floral Design,RI,2020-02-01T00:00:00-05:00,2020-03-01T00:00:00-05:00,2852,14,101.5,"{""<5"":0,""5-20"":0,""21-60"":4,""61-240"":8,"">240"":2}",1846.0,41.534126,-71.463491,453110.0,RI,44.0,44009.0,Washington County,440090504023.0
13614,sg:58baee9c6c074e68995f15e6cf0b0e4d,Newport Creamery,RI,2020-02-01T00:00:00-05:00,2020-03-01T00:00:00-05:00,2840,335,28.0,"{""<5"":8,""5-20"":119,""21-60"":122,""61-240"":56,"">240"":30}",22076.5,41.482754,-71.30985,722513.0,RI,44.0,44005.0,Newport County,440050408002.0
13643,sg:5b0c92d2cf0047b799b6117d89ff7636,Newport Community Yoga Center for Wellness Art and Music,RI,2020-02-01T00:00:00-05:00,2020-03-01T00:00:00-05:00,2840,126,62.0,"{""<5"":1,""5-20"":27,""21-60"":27,""61-240"":53,"">240"":18}",13730.0,41.489435,-71.312533,713940.0,RI,44.0,44005.0,Newport County,440050407003.0
13962,sg:7977ba4141d7404a8810c11c87c7d3b3,Tin Tsin Restaurant,RI,2020-02-01T00:00:00-05:00,2020-03-01T00:00:00-05:00,2917,437,14.0,"{""<5"":32,""5-20"":225,""21-60"":100,""61-240"":39,"">240"":41}",22652.0,41.86946,-71.530262,722511.0,RI,44.0,44007.0,Providence County,440070126012.0
14119,sg:88e3334e6e8144feadd021cf0837631e,Dr Day Care Ii Pawtucket Thornley,RI,2020-02-01T00:00:00-05:00,2020-03-01T00:00:00-05:00,2860,186,50.5,"{""<5"":6,""5-20"":60,""21-60"":31,""61-240"":43,"">240"":46}",19532.0,41.876046,-71.397405,624410.0,RI,44.0,44007.0,Providence County,440070151002.0
14439,sg:aa47b10e29b7482883fbdc7c8765f469,Subway,RI,2020-02-01T00:00:00-05:00,2020-03-01T00:00:00-05:00,2865,646,44.0,"{""<5"":20,""5-20"":191,""21-60"":160,""61-240"":225,"">240"":50}",54780.0,41.888404,-71.449053,722513.0,RI,44.0,44007.0,Providence County,440070116002.0
14545,sg:b58741599de64b4193baf14ed723d51b,Crown Fried Chicken & Kabab,RI,2020-02-01T00:00:00-05:00,2020-03-01T00:00:00-05:00,2842,1,502.0,"{""<5"":0,""5-20"":0,""21-60"":0,""61-240"":0,"">240"":1}",240.0,41.516199,-71.301176,722511.0,RI,44.0,44005.0,Newport County,440050403021.0
15004,sg:e2e7491951c3400a9026e188767aae9b,Labelle Boutique,RI,2020-02-01T00:00:00-05:00,2020-03-01T00:00:00-05:00,2908,13,14.0,"{""<5"":0,""5-20"":10,""21-60"":3,""61-240"":0,"">240"":0}",246.5,41.832196,-71.443547,448120.0,RI,44.0,44007.0,Providence County,440070022004.0
15643,sg:1de8226ab5d448d1b525599dc3c29803,Lemus Auto Sales & Service,RI,2020-02-01T00:00:00-05:00,2020-03-01T00:00:00-05:00,2909,11,286.0,"{""<5"":0,""5-20"":2,""21-60"":1,""61-240"":0,"">240"":8}",1985.5,41.822291,-71.441179,811111.0,RI,44.0,44007.0,Providence County,440070019006.0
16224,sg:56cc07e64dba42c3a8f7dbb1b7151113,Jimmy's Service Center of Johnston,RI,2020-02-01T00:00:00-05:00,2020-03-01T00:00:00-05:00,2919,17,401.0,"{""<5"":0,""5-20"":0,""21-60"":2,""61-240"":2,"">240"":13}",3502.0,41.806854,-71.49184100000001,811111.0,RI,44.0,44007.0,Providence County,440070124022.0
16318,sg:5f508f670e974a9485b01f364d651d73,VCA Animal Hospitals,RI,2020-02-01T00:00:00-05:00,2020-03-01T00:00:00-05:00,2914,55,59.0,"{""<5"":3,""5-20"":14,""21-60"":11,""61-240"":19,"">240"":8}",5407.5,41.817552,-71.38414399999999,541940.0,RI,44.0,44007.0,Providence County,440070104003.0
16538,sg:7777a94eb3a041e780fd7279de8d6cc2,Altered Images Tattoo Studio,RI,2020-02-01T00:00:00-05:00,2020-03-01T00:00:00-05:00,2864,1,57.0,"{""<5"":0,""5-20"":0,""21-60"":1,""61-240"":0,"">240"":0}",40.5,41.928535,-71.420813,812199.0,RI,44.0,44007.0,Providence County,440070113012.0
16728,sg:8aceb5d8f22b4aac824e00fbe0083c9f,Herff Jones,RI,2020-02-01T00:00:00-05:00,2020-03-01T00:00:00-05:00,2888,220,121.0,"{""<5"":5,""5-20"":48,""21-60"":31,""61-240"":45,"">240"":91}",30480.5,41.765871999999995,-71.408265,448310.0,RI,44.0,44003.0,Kent County,440030210011.0
16746,sg:8cfdd10ecc5249d2a46eaba470e90153,Town Pizza Two,RI,2020-02-01T00:00:00-05:00,2020-03-01T00:00:00-05:00,2898,259,36.0,"{""<5"":18,""5-20"":88,""21-60"":56,""61-240"":69,"">240"":28}",20517.5,41.51174,-71.687282,722511.0,RI,44.0,44009.0,Washington County,440090506001.0
17003,sg:a651176c5fa04e5b9368384527d0c7ea,Tommy's Pizza,RI,2020-02-01T00:00:00-05:00,2020-03-01T00:00:00-05:00,2908,178,38.0,"{""<5"":9,""5-20"":69,""21-60"":26,""61-240"":32,"">240"":42}",16834.0,41.832615999999994,-71.43816,722511.0,RI,44.0,44007.0,Providence County,440070022001.0
17237,sg:bf511166a201425d8d7a06e1e1054417,Buttonwoods Brewery,RI,2020-02-01T00:00:00-05:00,2020-03-01T00:00:00-05:00,2910,3,9.0,"{""<5"":0,""5-20"":2,""21-60"":0,""61-240"":1,"">240"":0}",175.5,41.773412,-71.42685999999999,312120.0,RI,44.0,44007.0,Providence County,440070137013.0
17971,sg:0b084898127044e497e7f5698be00af2,The Church of Jesus Christ of Latter day Saints,RI,2020-02-01T00:00:00-05:00,2020-03-01T00:00:00-05:00,2888,84,87.5,"{""<5"":0,""5-20"":11,""21-60"":15,""61-240"":52,"">240"":6}",10011.0,41.746192,-71.396559,813110.0,RI,44.0,44003.0,Kent County,440030213004.0
18043,sg:110db608499e4cfc83a34b290046ead6,RBF Fitness and Nutrition,RI,2020-02-01T00:00:00-05:00,2020-03-01T00:00:00-05:00,2919,6,118.0,"{""<5"":0,""5-20"":1,""21-60"":0,""61-240"":5,"">240"":0}",765.0,41.803247,-71.467733,713940.0,RI,44.0,44007.0,Providence County,440070125001.0
18096,sg:15b6843696e5416fb42bbc74a6be165d,Wayland Square,RI,2020-02-01T00:00:00-05:00,2020-03-01T00:00:00-05:00,2906,386,41.0,"{""<5"":11,""5-20"":94,""21-60"":141,""61-240"":115,"">240"":25}",30220.5,41.829011,-71.388447,531120.0,RI,44.0,44007.0,Providence County,440070035003.0
18487,sg:39eba81a797746c0a923098487ad732d,Gieseke Karen & Associates,RI,2020-02-01T00:00:00-05:00,2020-03-01T00:00:00-05:00,2842,27,48.0,"{""<5"":1,""5-20"":7,""21-60"":9,""61-240"":7,"">240"":3}",2228.0,41.520965000000004,-71.293664,621330.0,RI,44.0,44005.0,Newport County,440050403042.0
18955,sg:65fd26f59ed04d6b9bd2ab3052e96b36,Boys & Girls Clubs of America,RI,2020-02-01T00:00:00-05:00,2020-03-01T00:00:00-05:00,2889,260,52.0,"{""<5"":5,""5-20"":72,""21-60"":73,""61-240"":90,"">240"":20}",22214.0,41.708354,-71.411896,624110.0,RI,44.0,44003.0,Kent County,440030219021.0
19068,sg:7076492a548841d194f9ecb75e95a2ad,Dunkin',RI,2020-02-01T00:00:00-05:00,2020-03-01T00:00:00-05:00,2904,94,733.5,"{""<5"":3,""5-20"":9,""21-60"":4,""61-240"":14,"">240"":64}",17749.0,41.849616999999995,-71.402642,722515.0,RI,44.0,44007.0,Providence County,440070033003.0
19427,sg:92872acc0f074a509723f816e2124e36,Jungle Junction,RI,2020-02-01T00:00:00-05:00,2020-03-01T00:00:00-05:00,2864,167,45.0,"{""<5"":1,""5-20"":39,""21-60"":78,""61-240"":40,"">240"":9}",11829.0,41.933509,-71.427114,453910.0,RI,44.0,44007.0,Providence County,440070113012.0
19458,sg:95ff1fc5fb8a4426903ff371e5382c10,Waggy's Dog Walking,RI,2020-02-01T00:00:00-05:00,2020-03-01T00:00:00-05:00,2906,2,68.0,"{""<5"":0,""5-20"":0,""21-60"":1,""61-240"":1,"">240"":0}",191.0,41.832083000000004,-71.380841,812910.0,RI,44.0,44007.0,Providence County,440070035004.0
19653,sg:a9013d96c4334a33b66f75740da86bdd,Kev's Spiff Shop,RI,2020-02-01T00:00:00-05:00,2020-03-01T00:00:00-05:00,2840,4,248.5,"{""<5"":0,""5-20"":0,""21-60"":0,""61-240"":2,"">240"":2}",781.0,41.505368,-71.31808000000001,811192.0,RI,44.0,44005.0,Newport County,440050405002.0
20307,sg:f0b48f212b284e9b87460cb554b44bd3,Family Dollar Stores,RI,2020-02-01T00:00:00-05:00,2020-03-01T00:00:00-05:00,2814,364,11.0,"{""<5"":25,""5-20"":223,""21-60"":63,""61-240"":37,"">240"":16}",14810.0,41.912765,-71.66842700000001,452319.0,RI,44.0,44007.0,Providence County,440070131022.0
20631,sg:12a9619796554f228dcd25576521e62f,Papa Gino's,RI,2020-02-01T00:00:00-05:00,2020-03-01T00:00:00-05:00,2885,70,9.0,"{""<5"":4,""5-20"":49,""21-60"":16,""61-240"":1,"">240"":0}",1421.0,41.717791,-71.269018,722513.0,RI,44.0,44001.0,Bristol County,440010306023.0
20641,sg:13a80e9eef924f8d9d23751188fa2833,The Parlour,RI,2020-02-01T00:00:00-05:00,2020-03-01T00:00:00-05:00,2904,189,51.0,"{""<5"":4,""5-20"":56,""21-60"":46,""61-240"":69,"">240"":14}",16317.5,41.851248,-71.402088,722511.0,RI,44.0,44007.0,Providence County,440070033004.0
21552,sg:685bea9a6b7141489089f6473ebdcb4e,Smithfield Municipal Ice Rink,RI,2020-02-01T00:00:00-05:00,2020-03-01T00:00:00-05:00,2917,592,52.0,"{""<5"":13,""5-20"":160,""21-60"":151,""61-240"":247,"">240"":21}",50361.5,41.882757,-71.540258,713940.0,RI,44.0,44007.0,Providence County,440070127011.0
21573,sg:6add033b389c42e9a0e620bb0067705c,Pawtucket Animal Shelter,RI,2020-02-01T00:00:00-05:00,2020-03-01T00:00:00-05:00,2861,91,34.0,"{""<5"":4,""5-20"":27,""21-60"":30,""61-240"":22,"">240"":8}",6793.5,41.868468,-71.354664,453910.0,RI,44.0,44007.0,Providence County,440070170004.0
21855,sg:857cd68915804b459fcb14f05ab05442,BoatFlag me,RI,2020-02-01T00:00:00-05:00,2020-03-01T00:00:00-05:00,2840,446,19.0,"{""<5"":26,""5-20"":237,""21-60"":156,""61-240"":27,"">240"":0}",13409.0,41.480992,-71.307608,451120.0,RI,44.0,44005.0,Newport County,440050408001.0
22414,sg:c0074d0709444950b8602c2110fa99ac,International Charter School,RI,2020-02-01T00:00:00-05:00,2020-03-01T00:00:00-05:00,2860,48,39.0,"{""<5"":0,""5-20"":18,""21-60"":9,""61-240"":2,"">240"":19}",5450.5,41.869040000000005,-71.38476700000001,611110.0,RI,44.0,44007.0,Providence County,440070166001.0
22591,sg:d261ed8d58814521b16408a948f13a5c,Airport Animal Hospital,RI,2020-02-01T00:00:00-05:00,2020-03-01T00:00:00-05:00,2889,20,31.0,"{""<5"":1,""5-20"":7,""21-60"":5,""61-240"":3,"">240"":4}",1704.0,41.727579999999996,-71.405507,541940.0,RI,44.0,44003.0,Kent County,440030214021.0
22820,sg:ea3411c5e68d43d3b0fd3b8ac3069d43,PC Tech Computer Store,RI,2020-02-01T00:00:00-05:00,2020-03-01T00:00:00-05:00,2860,1,1214.0,"{""<5"":0,""5-20"":0,""21-60"":0,""61-240"":0,"">240"":1}",240.0,41.867159,-71.39925799999999,443142.0,RI,44.0,44007.0,Providence County,440070164003.0
23872,sg:50dd6cf7e7fc447fb28433174d76847f,Barbosa Liquors,RI,2020-02-01T00:00:00-05:00,2020-03-01T00:00:00-05:00,2905,140,21.0,"{""<5"":14,""5-20"":55,""21-60"":27,""61-240"":30,"">240"":14}",9691.0,41.7889,-71.39618,445310.0,RI,44.0,44007.0,Providence County,440070001013.0
24228,sg:77b9f38e0ca141c49da91eb0fff3e0cd,ALDI,RI,2020-02-01T00:00:00-05:00,2020-03-01T00:00:00-05:00,2920,326,19.5,"{""<5"":5,""5-20"":175,""21-60"":146,""61-240"":0,"">240"":0}",8113.0,41.75292,-71.449053,445110.0,RI,44.0,44007.0,Providence County,440070139003.0
24348,sg:83d9e0cecea04882aeaa48dc71c2da3e,Dogpatch,RI,2020-02-01T00:00:00-05:00,2020-03-01T00:00:00-05:00,2886,142,22.0,"{""<5"":6,""5-20"":60,""21-60"":30,""61-240"":21,"">240"":25}",11140.5,41.708681,-71.451131,453910.0,RI,44.0,44003.0,Kent County,440030221004.0
26087,sg:33019b50dfc043ae9490a99a96f12e7a,St Joseph's Rectory,RI,2020-02-01T00:00:00-05:00,2020-03-01T00:00:00-05:00,2840,31,62.0,"{""<5"":1,""5-20"":8,""21-60"":5,""61-240"":17,"">240"":0}",2863.5,41.492262,-71.310187,813110.0,RI,44.0,44005.0,Newport County,440050407003.0
26740,sg:76498184c8a14ecf819eec0abeb71648,Sans Gluten Artisan Bakery,RI,2020-02-01T00:00:00-05:00,2020-03-01T00:00:00-05:00,2919,45,39.0,"{""<5"":0,""5-20"":14,""21-60"":14,""61-240"":10,"">240"":7}",3927.0,41.833391,-71.47348000000001,722515.0,RI,44.0,44007.0,Providence County,440070123002.0
26850,sg:81af1de5d5924c1dbe44de73aa0e66e2,NAPA Auto Parts,RI,2020-02-01T00:00:00-05:00,2020-03-01T00:00:00-05:00,2893,140,87.5,"{""<5"":2,""5-20"":21,""21-60"":34,""61-240"":51,"">240"":32}",17000.0,41.702555,-71.52396999999999,441310.0,RI,44.0,44003.0,Kent County,440030203004.0
27765,sg:de86fb71d1ff4718af14e4e854cb078e,Dunkin',RI,2020-02-01T00:00:00-05:00,2020-03-01T00:00:00-05:00,2871,336,8.0,"{""<5"":34,""5-20"":178,""21-60"":18,""61-240"":38,"">240"":68}",25078.0,41.61016,-71.245595,722515.0,RI,44.0,44005.0,Newport County,440050401023.0
27898,sg:ee65a63ffc14416786c7cc719d10eb38,Vanderbilt Rehabilitation Center of Newport Hospital,RI,2020-02-01T00:00:00-05:00,2020-03-01T00:00:00-05:00,2840,230,50.0,"{""<5"":7,""5-20"":49,""21-60"":64,""61-240"":62,"">240"":48}",24073.0,41.496787,-71.30619,621111.0,RI,44.0,44005.0,Newport County,440050406002.0
28090,sg:01c69e5d7d4a406fbf622dd59b973641,Stephanie White LMT Optimal Wellness Therapeutic Massage,RI,2020-02-01T00:00:00-05:00,2020-03-01T00:00:00-05:00,2879,22,59.5,"{""<5"":2,""5-20"":2,""21-60"":8,""61-240"":7,"">240"":3}",2127.5,41.431191999999996,-71.491137,812199.0,RI,44.0,44009.0,Washington County,440090512021.0
28191,sg:0b6ced652de04401a29e4fc403536230,DeCesare Eye Associates,RI,2020-02-01T00:00:00-05:00,2020-03-01T00:00:00-05:00,2909,41,30.0,"{""<5"":4,""5-20"":11,""21-60"":10,""61-240"":8,"">240"":8}",3676.5,41.819582000000004,-71.429363,446130.0,RI,44.0,44007.0,Providence County,440070011003.0
28537,sg:2a35b4d5a5ef4fc899468e00369cbd51,Vivaldi's Pizza,RI,2020-02-01T00:00:00-05:00,2020-03-01T00:00:00-05:00,2905,2,488.5,"{""<5"":0,""5-20"":0,""21-60"":0,""61-240"":1,"">240"":1}",390.5,41.775978,-71.398976,722511.0,RI,44.0,44007.0,Providence County,440070134001.0
28563,sg:2dd777a0945b4a848d0066d9e99b870c,First Baptist Church In America,RI,2020-02-01T00:00:00-05:00,2020-03-01T00:00:00-05:00,2903,11,131.0,"{""<5"":0,""5-20"":0,""21-60"":1,""61-240"":8,"">240"":2}",1724.5,41.827451,-71.408294,813110.0,RI,44.0,44007.0,Providence County,440070036023.0
29350,sg:8178d37dad1847dfa18cc70a1a93cf18,The Goddard School,RI,2020-02-01T00:00:00-05:00,2020-03-01T00:00:00-05:00,2879,26,58.0,"{""<5"":1,""5-20"":6,""21-60"":6,""61-240"":7,"">240"":6}",2814.0,41.456348999999996,-71.472054,624410.0,RI,44.0,44009.0,Washington County,440090512024.0
30235,sg:d8732dbdb8b94a079a89b5095325efc1,Joe Marzilli's Old Canteen,RI,2020-02-01T00:00:00-05:00,2020-03-01T00:00:00-05:00,2903,355,61.0,"{""<5"":6,""5-20"":91,""21-60"":76,""61-240"":166,"">240"":16}",33053.5,41.823031,-71.421974,722511.0,RI,44.0,44007.0,Providence County,440070009001.0
30602,sg:fd7d5917a0794b378a8d3a09295b0f42,A Nu U Salon,RI,2020-02-01T00:00:00-05:00,2020-03-01T00:00:00-05:00,2910,52,20.0,"{""<5"":4,""5-20"":22,""21-60"":14,""61-240"":10,"">240"":2}",2837.0,41.780563,-71.439751,812112.0,RI,44.0,44007.0,Providence County,440070137021.0
30635,sg:002400de953a4539b8b0546ac1f3d5e1,Hasbro,RI,2020-02-01T00:00:00-05:00,2020-03-01T00:00:00-05:00,2861,1182,290.0,"{""<5"":8,""5-20"":137,""21-60"":101,""61-240"":250,"">240"":686}",208088.0,41.883559999999996,-71.35306,451120.0,RI,44.0,44007.0,Providence County,440070158003.0
31297,sg:3c09513bd5074ea597ca420f3efd7526,Ed & Matt Equipment,RI,2020-02-01T00:00:00-05:00,2020-03-01T00:00:00-05:00,2828,8,10.0,"{""<5"":1,""5-20"":6,""21-60"":1,""61-240"":0,"">240"":0}",118.0,41.867052,-71.532324,444130.0,RI,44.0,44007.0,Providence County,440070127021.0
31329,sg:3eb8398ea82a42e6a601b8fb0fe6296f,Johnston Soccer Complex,RI,2020-02-01T00:00:00-05:00,2020-03-01T00:00:00-05:00,2919,31,58.0,"{""<5"":1,""5-20"":5,""21-60"":11,""61-240"":14,"">240"":0}",2617.5,41.83446,-71.50281700000001,451140.0,RI,44.0,44007.0,Providence County,440070123002.0
31401,sg:45180192196b423db670c106ca2039b5,Myron J Francis Elementary,RI,2020-02-01T00:00:00-05:00,2020-03-01T00:00:00-05:00,2916,168,45.5,"{""<5"":2,""5-20"":63,""21-60"":23,""61-240"":32,"">240"":48}",18060.0,41.8416,-71.360654,611110.0,RI,44.0,44007.0,Providence County,440070101013.0
31616,sg:59e2684b91ef49d3889766c14509a0c9,Samantha's Seafood,RI,2020-02-01T00:00:00-05:00,2020-03-01T00:00:00-05:00,2871,194,48.5,"{""<5"":5,""5-20"":40,""21-60"":64,""61-240"":57,"">240"":28}",18403.0,41.63697,-71.231484,722511.0,RI,44.0,44005.0,Newport County,440050401013.0
31642,sg:5c5272c4c3024846a4a3d53c1da2cf02,Esek Hopkins Middle,RI,2020-02-01T00:00:00-05:00,2020-03-01T00:00:00-05:00,2904,241,359.0,"{""<5"":1,""5-20"":5,""21-60"":7,""61-240"":40,"">240"":188}",51488.5,41.848356,-71.419946,611110.0,RI,44.0,44007.0,Providence County,440070029004.0
32152,sg:91f29a3c176c4799820365d15815d549,Barrington Automotive,RI,2020-02-01T00:00:00-05:00,2020-03-01T00:00:00-05:00,2806,7,25.0,"{""<5"":1,""5-20"":2,""21-60"":4,""61-240"":0,"">240"":0}",189.5,41.750811999999996,-71.304337,811111.0,RI,44.0,44001.0,Bristol County,440010303002.0
32207,sg:98849d478aed4bbe99396cdae2792d7e,7-Eleven,RI,2020-02-01T00:00:00-05:00,2020-03-01T00:00:00-05:00,2907,658,9.0,"{""<5"":42,""5-20"":459,""21-60"":77,""61-240"":40,"">240"":40}",24581.0,41.804272999999995,-71.43911999999999,445120.0,RI,44.0,44007.0,Providence County,440070014005.0
32617,sg:bf662ea7967f44a6afdc96410eedece8,TOP Nam Sausage,RI,2020-02-01T00:00:00-05:00,2020-03-01T00:00:00-05:00,2910,235,45.0,"{""<5"":9,""5-20"":80,""21-60"":35,""61-240"":37,"">240"":74}",25768.5,41.776645,-71.42570500000001,445110.0,RI,44.0,44007.0,Providence County,440070137013.0
32705,sg:c92b29c8182b4b3ba72b24c9f86c7f2e,Gourmet House Restaurant,RI,2020-02-01T00:00:00-05:00,2020-03-01T00:00:00-05:00,2906,19,56.0,"{""<5"":1,""5-20"":4,""21-60"":6,""61-240"":7,"">240"":1}",1589.0,41.848408,-71.395136,722511.0,RI,44.0,44007.0,Providence County,440070033003.0
33609,sg:240b507e9e8c4652becf36a5464482f2,Enterprise Rent-A-Car,RI,2020-02-01T00:00:00-05:00,2020-03-01T00:00:00-05:00,2895,73,32.0,"{""<5"":1,""5-20"":30,""21-60"":11,""61-240"":22,"">240"":9}",6294.0,41.998647,-71.490651,532111.0,RI,44.0,44007.0,Providence County,440070185002.0
34510,sg:7bc9b263777a4b94842b00cf564b1c98,Tammany Hall Pub and Parlor,RI,2020-02-01T00:00:00-05:00,2020-03-01T00:00:00-05:00,2909,123,54.0,"{""<5"":4,""5-20"":32,""21-60"":28,""61-240"":40,"">240"":19}",12124.0,41.824096000000004,-71.431051,722511.0,RI,44.0,44007.0,Providence County,440070009001.0
34838,sg:9dc7a5ce27ad4682bb352e976f14c175,Latham Park,RI,2020-02-01T00:00:00-05:00,2020-03-01T00:00:00-05:00,2806,40,90.0,"{""<5"":2,""5-20"":9,""21-60"":9,""61-240"":6,"">240"":14}",4745.0,41.745540000000005,-71.352235,712190.0,RI,44.0,44001.0,Bristol County,440010301003.0
35059,sg:b5d93ade9e174e488670de0626a15f0a,Quality Paint & Wallpaper,RI,2020-02-01T00:00:00-05:00,2020-03-01T00:00:00-05:00,2806,3,5.0,"{""<5"":0,""5-20"":3,""21-60"":0,""61-240"":0,"">240"":0}",37.5,41.739543,-71.312303,444120.0,RI,44.0,44001.0,Bristol County,440010302003.0
36433,sg:42fab78a95514f12859a15715072a8a6,Rosa's Hair Design,RI,2020-02-01T00:00:00-05:00,2020-03-01T00:00:00-05:00,2864,25,29.0,"{""<5"":0,""5-20"":10,""21-60"":6,""61-240"":9,"">240"":0}",1722.5,41.901348,-71.393225,812112.0,RI,44.0,44007.0,Providence County,440070112003.0
36499,sg:48c696cb48f848598da7242bfa7704f1,Uechi Karate School,RI,2020-02-01T00:00:00-05:00,2020-03-01T00:00:00-05:00,2860,108,36.5,"{""<5"":1,""5-20"":32,""21-60"":32,""61-240"":33,"">240"":10}",9065.0,41.87642,-71.38463,713940.0,RI,44.0,44007.0,Providence County,440070152002.0
36549,sg:4dd9b9e45eaf4013931043c9387a53d4,SPEEDCRAFT NISSAN,RI,2020-02-01T00:00:00-05:00,2020-03-01T00:00:00-05:00,2893,249,52.0,"{""<5"":7,""5-20"":74,""21-60"":48,""61-240"":70,"">240"":50}",25421.5,41.671956,-71.500477,441110.0,RI,44.0,44003.0,Kent County,440030201012.0
36893,sg:713ccbe97cb0479ea17799e3eb383b6c,New Way Supermarket,RI,2020-02-01T00:00:00-05:00,2020-03-01T00:00:00-05:00,2907,28,12.0,"{""<5"":3,""5-20"":18,""21-60"":6,""61-240"":1,"">240"":0}",626.0,41.803101,-71.425639,445110.0,RI,44.0,44007.0,Providence County,440070003003.0
37630,sg:bb355938453c4ba68cd174d33c7f923b,Rooms To Grow,RI,2020-02-01T00:00:00-05:00,2020-03-01T00:00:00-05:00,2888,46,89.5,"{""<5"":2,""5-20"":9,""21-60"":9,""61-240"":18,"">240"":8}",5111.0,41.752107,-71.43790600000001,448210.0,RI,44.0,44003.0,Kent County,440030211002.0
38610,sg:16f404c07d1d4360bd8eb3a8d9540389,East Greenwich,RI,2020-02-01T00:00:00-05:00,2020-03-01T00:00:00-05:00,2818,1,13.0,"{""<5"":0,""5-20"":1,""21-60"":0,""61-240"":0,"">240"":0}",12.5,41.662141999999996,-71.450704,921190.0,RI,44.0,44003.0,Kent County,440030209011.0
39251,sg:54c8ddc797d94bc594de01e14ed4cbd3,Avondale Boat Yard,RI,2020-02-01T00:00:00-05:00,2020-03-01T00:00:00-05:00,2891,19,24.0,"{""<5"":0,""5-20"":9,""21-60"":3,""61-240"":6,"">240"":1}",1377.0,41.332117,-71.840069,441222.0,RI,44.0,44009.0,Washington County,440090510001.0
39801,sg:8b4fe80febf5494d85fe0a73236928bf,Thundermist Health Center,RI,2020-02-01T00:00:00-05:00,2020-03-01T00:00:00-05:00,2893,1591,170.0,"{""<5"":21,""5-20"":224,""21-60"":270,""61-240"":340,"">240"":736}",241597.5,41.708696,-71.51665600000001,621111.0,RI,44.0,44003.0,Kent County,440030202001.0
39878,sg:919f03dac07d40fcb024f6ac59f64fa9,Navy Gateway Inns and Suites,RI,2020-02-01T00:00:00-05:00,2020-03-01T00:00:00-05:00,2841,78,10.0,"{""<5"":7,""5-20"":51,""21-60"":10,""61-240"":6,"">240"":4}",2923.0,41.51645,-71.321721,721110.0,RI,44.0,44005.0,Newport County,440050412001.0
40987,sg:0505b8b4cdc3490c97fa66987fc65d40,Healthtrax Fitness & Wellness,RI,2020-02-01T00:00:00-05:00,2020-03-01T00:00:00-05:00,2914,491,57.0,"{""<5"":3,""5-20"":66,""21-60"":187,""61-240"":208,"">240"":27}",46190.0,41.805856,-71.34248199999999,713940.0,RI,44.0,44007.0,Providence County,440070105011.0
41128,sg:0fd3fc3ca85242e3bbfc18d5d5c265b0,Metropolitan Career Tech Ctr,RI,2020-02-01T00:00:00-05:00,2020-03-01T00:00:00-05:00,2905,380,102.0,"{""<5"":6,""5-20"":62,""21-60"":71,""61-240"":146,"">240"":95}",48438.5,41.806948,-71.410549,611110.0,RI,44.0,44007.0,Providence County,440070006002.0
41978,sg:5d8937a024c949d1a25709082bb3d571,Robinson Supply,RI,2020-02-01T00:00:00-05:00,2020-03-01T00:00:00-05:00,2920,31,263.0,"{""<5"":1,""5-20"":4,""21-60"":7,""61-240"":3,"">240"":16}",4627.5,41.75158,-71.447673,444130.0,RI,44.0,44007.0,Providence County,440070139003.0
43223,sg:d9e5c8368e8d41a6874aa257469b4a6e,Elite Performance Systems,RI,2020-02-01T00:00:00-05:00,2020-03-01T00:00:00-05:00,2891,41,59.0,"{""<5"":0,""5-20"":14,""21-60"":7,""61-240"":15,"">240"":5}",3916.0,41.34395,-71.815564,713940.0,RI,44.0,44009.0,Washington County,440090509023.0
43350,sg:e6bd0c3020324058ab864fb4b010c6d4,Fifth Avenue Jewelers,RI,2020-02-01T00:00:00-05:00,2020-03-01T00:00:00-05:00,2910,12,25.0,"{""<5"":0,""5-20"":4,""21-60"":5,""61-240"":3,"">240"":0}",704.0,41.778628000000005,-71.4356,448310.0,RI,44.0,44007.0,Providence County,440070137014.0
44646,sg:5b3e20959dda48f995cf71e5525a6fa0,Billy's Scrap Vehicles,RI,2020-02-01T00:00:00-05:00,2020-03-01T00:00:00-05:00,2907,306,68.0,"{""<5"":6,""5-20"":82,""21-60"":54,""61-240"":88,"">240"":76}",34711.0,41.810564,-71.426839,441120.0,RI,44.0,44007.0,Providence County,440070012003.0
44694,sg:5fa1d06ce7fb4152af2ac88ee98bca52,Crestar Picture Framing,RI,2020-02-01T00:00:00-05:00,2020-03-01T00:00:00-05:00,2818,50,91.5,"{""<5"":2,""5-20"":9,""21-60"":6,""61-240"":23,"">240"":10}",6222.0,41.658428,-71.45265,453998.0,RI,44.0,44003.0,Kent County,440030209012.0
44751,sg:65434e7a8ebf42448478750a43029679,Joe's Auto Service,RI,2020-02-01T00:00:00-05:00,2020-03-01T00:00:00-05:00,2864,76,169.0,"{""<5"":5,""5-20"":15,""21-60"":4,""61-240"":31,"">240"":21}",10067.5,41.929269,-71.422026,441120.0,RI,44.0,44007.0,Providence County,440070113012.0
45964,sg:decfb0ff1e3f484689e28a9238ed1ebe,CVS,RI,2020-02-01T00:00:00-05:00,2020-03-01T00:00:00-05:00,2809,315,9.0,"{""<5"":19,""5-20"":230,""21-60"":58,""61-240"":7,"">240"":1}",6565.0,41.680067,-71.259955,446110.0,RI,44.0,44001.0,Bristol County,440010309013.0
46598,sg:16205d0e74134e6eab2389af73e57a2d,Lang's Bowlarama,RI,2020-02-01T00:00:00-05:00,2020-03-01T00:00:00-05:00,2907,902,78.0,"{""<5"":5,""5-20"":127,""21-60"":216,""61-240"":504,"">240"":50}",98200.0,41.796871,-71.440236,713950.0,RI,44.0,44007.0,Providence County,440070141003.0
47235,sg:4a1062175c514446a4085d99c1ccbc39,Warren Cider Works,RI,2020-02-01T00:00:00-05:00,2020-03-01T00:00:00-05:00,2885,22,19.5,"{""<5"":0,""5-20"":13,""21-60"":5,""61-240"":4,"">240"":0}",967.0,41.730261,-71.279108,312130.0,RI,44.0,44001.0,Bristol County,440010305001.0
47569,sg:6923bcc222b94da696e2dcd3bf9b4ec6,J H Breakell & Co,RI,2020-02-01T00:00:00-05:00,2020-03-01T00:00:00-05:00,2840,44,67.5,"{""<5"":1,""5-20"":8,""21-60"":11,""61-240"":15,"">240"":9}",4965.5,41.487778000000006,-71.31272299999999,448310.0,RI,44.0,44005.0,Newport County,440050407003.0
47637,sg:6fab82afc36c4989bb9f68af57fa98cd,Rego's Auto Body,RI,2020-02-01T00:00:00-05:00,2020-03-01T00:00:00-05:00,2908,21,20.0,"{""<5"":2,""5-20"":9,""21-60"":2,""61-240"":3,"">240"":5}",1850.0,41.835834000000006,-71.416475,811121.0,RI,44.0,44007.0,Providence County,440070026002.0
47743,sg:7913f73a3cb549868e03a742a0d45757,Fairfield Playground,RI,2020-02-01T00:00:00-05:00,2020-03-01T00:00:00-05:00,2818,117,27.0,"{""<5"":8,""5-20"":42,""21-60"":24,""61-240"":19,"">240"":24}",10136.5,41.645777,-71.465684,713990.0,RI,44.0,44003.0,Kent County,440030209014.0
47768,sg:7bad855c89a84c0b8b4e8823dd9ce29d,Quisqueya Liquors,RI,2020-02-01T00:00:00-05:00,2020-03-01T00:00:00-05:00,2905,124,11.0,"{""<5"":5,""5-20"":83,""21-60"":21,""61-240"":10,"">240"":5}",4605.5,41.792045,-71.405904,445310.0,RI,44.0,44007.0,Providence County,440070001021.0
48319,sg:b4b07744e7a94e168853d0be2896e350,Compassionate Care Veterinary Clinic,RI,2020-02-01T00:00:00-05:00,2020-03-01T00:00:00-05:00,2864,63,45.0,"{""<5"":2,""5-20"":6,""21-60"":36,""61-240"":13,"">240"":6}",4934.5,41.938553999999996,-71.430072,541940.0,RI,44.0,44007.0,Providence County,440070114012.0
48492,sg:c879d92b99034bf79794404a993b7523,Calcutt Middle School,RI,2020-02-01T00:00:00-05:00,2020-03-01T00:00:00-05:00,2863,1053,80.0,"{""<5"":20,""5-20"":267,""21-60"":189,""61-240"":253,"">240"":324}",126878.5,41.889829,-71.392011,611110.0,RI,44.0,44007.0,Providence County,440070110002.0
48694,sg:de1775f60adc46b69ee526417cfd2196,Victoria's Secret,RI,2020-02-01T00:00:00-05:00,2020-03-01T00:00:00-05:00,2920,167,24.0,"{""<5"":1,""5-20"":68,""21-60"":66,""61-240"":10,"">240"":22}",10310.5,41.763896,-71.45881800000001,448120.0,RI,44.0,44007.0,Providence County,440070139003.0
48788,sg:e968b1483b884fdeaea7268a7f1a15b4,GT3 Creative,RI,2020-02-01T00:00:00-05:00,2020-03-01T00:00:00-05:00,2835,14,59.0,"{""<5"":0,""5-20"":2,""21-60"":5,""61-240"":6,"">240"":1}",1370.5,41.494358,-71.375715,339950.0,RI,44.0,44005.0,Newport County,440050413005.0
49619,sg:35bb8422872a4a7fa58dd67c055a62ed,Ocean State Job Lot,RI,2020-02-01T00:00:00-05:00,2020-03-01T00:00:00-05:00,2920,399,14.0,"{""<5"":16,""5-20"":230,""21-60"":110,""61-240"":34,"">240"":9}",14647.0,41.779563,-71.472288,452319.0,RI,44.0,44007.0,Providence County,440070145023.0
50049,sg:5c72841a34d449989d4361d69cd4a101,Gastroenterology Associates,RI,2020-02-01T00:00:00-05:00,2020-03-01T00:00:00-05:00,2860,5,10.0,"{""<5"":0,""5-20"":3,""21-60"":1,""61-240"":0,"">240"":1}",318.0,41.871832,-71.380672,621111.0,RI,44.0,44007.0,Providence County,440070167002.0
50495,sg:8982406ab50f4cceb58d37c648716293,Pippin Orchard,RI,2020-02-01T00:00:00-05:00,2020-03-01T00:00:00-05:00,2921,6,10.0,"{""<5"":1,""5-20"":5,""21-60"":0,""61-240"":0,"">240"":0}",65.0,41.773903999999995,-71.538306,445110.0,RI,44.0,44007.0,Providence County,440070146002.0
50535,sg:8d291caa90c0445395f5b8d129da9200,St Alban's Church,RI,2020-02-01T00:00:00-05:00,2020-03-01T00:00:00-05:00,2911,5,189.0,"{""<5"":0,""5-20"":0,""21-60"":1,""61-240"":3,"">240"":1}",732.0,41.856549,-71.482598,813110.0,RI,44.0,44007.0,Providence County,440070121041.0
50642,sg:9828d0a03146437d9f831389be217d78,Stop &amp Shop,RI,2020-02-01T00:00:00-05:00,2020-03-01T00:00:00-05:00,2920,273,17.0,"{""<5"":8,""5-20"":146,""21-60"":82,""61-240"":29,"">240"":8}",11450.5,41.781789,-71.47446500000001,445110.0,,,,,
50817,sg:a9eb5352210a46a284e57bebc4a94fd1,The Paint Shoppes,RI,2020-02-01T00:00:00-05:00,2020-03-01T00:00:00-05:00,2908,122,41.0,"{""<5"":5,""5-20"":41,""21-60"":26,""61-240"":22,"">240"":28}",11609.0,41.833529,-71.42075,444120.0,RI,44.0,44007.0,Providence County,440070026001.0
50979,sg:b98fe6aabedd436dbb1e61f06fcafbd5,Pranzi Catering,RI,2020-02-01T00:00:00-05:00,2020-03-01T00:00:00-05:00,2909,81,183.0,"{""<5"":1,""5-20"":17,""21-60"":13,""61-240"":14,"">240"":36}",11488.5,41.80546,-71.461601,722511.0,RI,44.0,44007.0,Providence County,440070017002.0
51001,sg:bb99a0431566407cab3304e49d2b1f84,Wannamoisett Country Club,RI,2020-02-01T00:00:00-05:00,2020-03-01T00:00:00-05:00,2916,370,85.5,"{""<5"":11,""5-20"":89,""21-60"":64,""61-240"":95,"">240"":111}",44669.5,41.847332,-71.360385,713910.0,RI,44.0,44007.0,Providence County,440070101012.0
51247,sg:d3f4eb562a124377ae0ffffb1782c7f7,R G E,RI,2020-02-01T00:00:00-05:00,2020-03-01T00:00:00-05:00,2886,65,34.0,"{""<5"":0,""5-20"":16,""21-60"":30,""61-240"":9,"">240"":10}",5169.5,41.69363,-71.49961400000001,448120.0,RI,44.0,44003.0,Kent County,440030223001.0
51265,sg:d5a1a7ad558647ec8a8d4dc2256c5d7e,REI,RI,2020-02-01T00:00:00-05:00,2020-03-01T00:00:00-05:00,2920,613,24.0,"{""<5"":12,""5-20"":231,""21-60"":242,""61-240"":99,"">240"":29}",34578.0,41.755278000000004,-71.459223,451110.0,RI,44.0,44007.0,Providence County,440070142002.0
51386,sg:e348fc13a43f426ab1620eea446d54e8,Khaosan Thai Street Food,RI,2020-02-01T00:00:00-05:00,2020-03-01T00:00:00-05:00,2914,285,70.0,"{""<5"":7,""5-20"":70,""21-60"":59,""61-240"":60,"">240"":89}",33672.0,41.813851,-71.369889,722511.0,RI,44.0,44007.0,Providence County,440070104001.0
51686,sg:055f137990884ffcbea5bd14a8fdbc1a,Mobil,RI,2020-02-01T00:00:00-05:00,2020-03-01T00:00:00-05:00,2914,297,8.0,"{""<5"":22,""5-20"":221,""21-60"":25,""61-240"":18,"">240"":11}",9179.0,41.811481,-71.358441,447110.0,RI,44.0,44007.0,Providence County,440070105011.0
51956,sg:1d465058feee4c67ba9b37de50756201,Joyful Bliss Yoga,RI,2020-02-01T00:00:00-05:00,2020-03-01T00:00:00-05:00,2919,473,49.0,"{""<5"":7,""5-20"":91,""21-60"":180,""61-240"":169,"">240"":26}",40119.5,41.816015,-71.495558,713940.0,RI,44.0,44007.0,Providence County,440070124021.0
52294,sg:3d0a1abd05a0472bb07f3d4d88c858cf,Stony Lane Baptist Church,RI,2020-02-01T00:00:00-05:00,2020-03-01T00:00:00-05:00,2852,77,82.0,"{""<5"":0,""5-20"":8,""21-60"":23,""61-240"":38,"">240"":8}",8670.5,41.592295,-71.49168,813110.0,RI,44.0,44009.0,Washington County,440090503011.0
52357,sg:42e8b170a0d14548880add0fb60a4850,Labels For Less,RI,2020-02-01T00:00:00-05:00,2020-03-01T00:00:00-05:00,2842,186,19.5,"{""<5"":8,""5-20"":90,""21-60"":58,""61-240"":30,"">240"":0}",8009.0,41.50976,-71.282921,452319.0,RI,44.0,44005.0,Newport County,440050404002.0
52498,sg:4ee23861205049dbbc3883f3af418aeb,Gazebo Park,RI,2020-02-01T00:00:00-05:00,2020-03-01T00:00:00-05:00,2905,176,13.5,"{""<5"":9,""5-20"":101,""21-60"":35,""61-240"":24,"">240"":7}",7994.5,41.431401,-71.456702,712190.0,RI,44.0,44009.0,Washington County,440090515032.0
52930,sg:75ee2c2776514a74a138191e15d9bc68,Dunkin',RI,2020-02-01T00:00:00-05:00,2020-03-01T00:00:00-05:00,2909,260,10.0,"{""<5"":9,""5-20"":159,""21-60"":31,""61-240"":35,"">240"":26}",14773.0,41.824709000000006,-71.43597199999999,722515.0,RI,44.0,44007.0,Providence County,440070025002.0
53456,sg:ad06ed3bef7c4d22b0337274e8519f05,Adler's Design Center & Hardware,RI,2020-02-01T00:00:00-05:00,2020-03-01T00:00:00-05:00,2903,42,18.5,"{""<5"":5,""5-20"":17,""21-60"":18,""61-240"":1,"">240"":1}",1344.5,41.819064000000004,-71.399762,444130.0,RI,44.0,44007.0,Providence County,440070037002.0
53707,sg:c3663936b3d24bbfa52c3ec76a9e9b7b,Cellar Stories,RI,2020-02-01T00:00:00-05:00,2020-03-01T00:00:00-05:00,2903,173,45.0,"{""<5"":3,""5-20"":46,""21-60"":54,""61-240"":47,"">240"":23}",15363.0,41.822734999999994,-71.414806,451211.0,RI,44.0,44007.0,Providence County,440070008003.0
53721,sg:c4a84a91b9fa4716a7a7fe10c506ef1c,Detroit Collision Center,RI,2020-02-01T00:00:00-05:00,2020-03-01T00:00:00-05:00,2904,61,66.0,"{""<5"":1,""5-20"":13,""21-60"":14,""61-240"":15,"">240"":18}",7309.5,41.858395,-71.445246,811111.0,RI,44.0,44007.0,Providence County,440070119011.0
54141,sg:ee2270660e5a4059b54ea9a1dc043f5c,Atlantic Auto Center,RI,2020-02-01T00:00:00-05:00,2020-03-01T00:00:00-05:00,2920,12,18.0,"{""<5"":1,""5-20"":5,""21-60"":5,""61-240"":0,"">240"":1}",507.5,41.792621000000004,-71.473433,,RI,44.0,44007.0,Providence County,440070148001.0
54456,sg:0aef8beae9ef4a0ba0b66f22878f3e91,Brazilian Top Cleaning,RI,2020-02-01T00:00:00-05:00,2020-03-01T00:00:00-05:00,2914,5,13.0,"{""<5"":0,""5-20"":3,""21-60"":0,""61-240"":0,"">240"":2}",517.5,41.815661,-71.37602700000001,561740.0,RI,44.0,44007.0,Providence County,440070104004.0
54638,sg:1bbbf4b588ec4cddbece5e7e5155561b,Re Bath,RI,2020-02-01T00:00:00-05:00,2020-03-01T00:00:00-05:00,2919,100,28.5,"{""<5"":5,""5-20"":38,""21-60"":18,""61-240"":15,"">240"":24}",9234.0,41.802601,-71.486566,442299.0,RI,44.0,44007.0,Providence County,440070125001.0
54760,sg:286309a325ad492ba5c65e45ec8f4ff4,Field House Pub,RI,2020-02-01T00:00:00-05:00,2020-03-01T00:00:00-05:00,2914,41,76.0,"{""<5"":0,""5-20"":6,""21-60"":11,""61-240"":23,"">240"":1}",4222.0,41.809018,-71.381714,722511.0,RI,44.0,44007.0,Providence County,440070104003.0
55012,sg:3cc19d5f005e4a19b8db490a3982e1c2,YMCA,RI,2020-02-01T00:00:00-05:00,2020-03-01T00:00:00-05:00,2895,4,78.5,"{""<5"":0,""5-20"":1,""21-60"":0,""61-240"":2,"">240"":1}",553.5,42.004905,-71.51229599999999,624190.0,RI,44.0,44007.0,Providence County,440070180002.0
55099,sg:457e4b603e5047b690ecbfd97910065e,Rusty Rabbit Antiques,RI,2020-02-01T00:00:00-05:00,2020-03-01T00:00:00-05:00,2813,8,26.5,"{""<5"":1,""5-20"":3,""21-60"":2,""61-240"":0,"">240"":2}",601.0,41.355647999999995,-71.717938,453310.0,RI,44.0,44009.0,Washington County,440090511013.0
55232,sg:51e32b85b0ac4f14bdf60c1b6ed37fd5,Watch Hill Outfitters,RI,2020-02-01T00:00:00-05:00,2020-03-01T00:00:00-05:00,2891,42,21.5,"{""<5"":3,""5-20"":18,""21-60"":9,""61-240"":8,"">240"":4}",2761.0,41.372144,-71.831102,451110.0,RI,44.0,44009.0,Washington County,440090508014.0
55490,sg:697a82d1cfb04a7c9c7f7df1e84a1cd5,Mowry Conservation Area,RI,2020-02-01T00:00:00-05:00,2020-03-01T00:00:00-05:00,2917,45,15.0,"{""<5"":1,""5-20"":27,""21-60"":15,""61-240"":2,"">240"":0}",1248.5,41.920455,-71.55216999999999,712190.0,RI,44.0,44007.0,Providence County,440070127012.0
55879,sg:90f271bcffe14612b9ad9ef1e0735042,J & D Pizza,RI,2020-02-01T00:00:00-05:00,2020-03-01T00:00:00-05:00,2895,14,9.5,"{""<5"":2,""5-20"":7,""21-60"":3,""61-240"":0,"">240"":2}",694.0,42.014453,-71.480307,722511.0,RI,44.0,44007.0,Providence County,440070184001.0
56683,sg:dfa6f069e5b248f3b613ab4ab3cec4a5,Family Dollar Stores,RI,2020-02-01T00:00:00-05:00,2020-03-01T00:00:00-05:00,2816,293,15.0,"{""<5"":11,""5-20"":147,""21-60"":47,""61-240"":65,"">240"":23}",19071.0,41.697203,-71.548311,452319.0,RI,44.0,44003.0,Kent County,440030206041.0
56876,sg:f0d10af5c9204f8d80a63ddda0f80342,ULTA Beauty,RI,2020-02-01T00:00:00-05:00,2020-03-01T00:00:00-05:00,2886,2,238.0,"{""<5"":0,""5-20"":1,""21-60"":0,""61-240"":0,"">240"":1}",252.5,41.701229999999995,-71.491741,446120.0,RI,44.0,44003.0,Kent County,440030222021.0
57076,sg:03c596d51b5e4390acfe8ba121e9339a,Barrington Music,RI,2020-02-01T00:00:00-05:00,2020-03-01T00:00:00-05:00,2806,10,42.5,"{""<5"":2,""5-20"":1,""21-60"":3,""61-240"":4,"">240"":0}",741.0,41.752932,-71.295172,451140.0,RI,44.0,44001.0,Bristol County,440010303002.0
57429,sg:21951e25df004b199bdee851112096ac,Long Wharf General Store,RI,2020-02-01T00:00:00-05:00,2020-03-01T00:00:00-05:00,2840,255,27.0,"{""<5"":6,""5-20"":82,""21-60"":78,""61-240"":52,"">240"":37}",20905.0,41.490035999999996,-71.316335,453220.0,RI,44.0,44005.0,Newport County,440050411003.0
57440,sg:226ad1a6026e4140b5f916cb5b0b1268,Fred's Place,RI,2020-02-01T00:00:00-05:00,2020-03-01T00:00:00-05:00,2920,6,25.0,"{""<5"":0,""5-20"":3,""21-60"":1,""61-240"":0,"">240"":2}",558.0,41.783569,-71.46491800000001,812112.0,RI,44.0,44007.0,Providence County,440070147005.0
57608,sg:325b33e1ec7949a79247fd1e52878b1e,Ocean State Credit Union,RI,2020-02-01T00:00:00-05:00,2020-03-01T00:00:00-05:00,2816,125,16.0,"{""<5"":3,""5-20"":67,""21-60"":26,""61-240"":15,"">240"":14}",7515.5,41.673959,-71.59350699999999,522110.0,RI,44.0,44003.0,Kent County,440030207032.0
57878,sg:49d51adceb354f26aceb830c81631eea,Allstate Insurance,RI,2020-02-01T00:00:00-05:00,2020-03-01T00:00:00-05:00,2904,15,35.0,"{""<5"":0,""5-20"":4,""21-60"":7,""61-240"":4,"">240"":0}",935.5,41.869706,-71.42103,524210.0,RI,44.0,44007.0,Providence County,440070118001.0
58306,sg:71e9f4b421f94f7cb895a1c8b432c9a0,Adeline's Speakeasy Kitchen Bar,RI,2020-02-01T00:00:00-05:00,2020-03-01T00:00:00-05:00,2864,42,77.0,"{""<5"":0,""5-20"":0,""21-60"":12,""61-240"":30,"">240"":0}",5001.0,41.957378999999996,-71.443722,722511.0,RI,44.0,44007.0,Providence County,440070114034.0
58609,sg:8d3b8c91da9847b8b51885132e61c881,City Girl Cupcake,RI,2020-02-01T00:00:00-05:00,2020-03-01T00:00:00-05:00,2903,64,20.5,"{""<5"":0,""5-20"":32,""21-60"":19,""61-240"":12,"">240"":1}",3215.5,41.823274,-71.410945,311811.0,RI,44.0,44007.0,Providence County,440070008003.0
58780,sg:9c26a3f9c39f4481a47d9f194d83637e,147 Market And Deli,RI,2020-02-01T00:00:00-05:00,2020-03-01T00:00:00-05:00,2860,123,36.0,"{""<5"":7,""5-20"":44,""21-60"":21,""61-240"":11,"">240"":40}",12673.5,41.870746000000004,-71.378529,722511.0,RI,44.0,44007.0,Providence County,440070167002.0
58985,sg:b218858b97fa479094e08f063dee64de,The Charlestown Rathskeller,RI,2020-02-01T00:00:00-05:00,2020-03-01T00:00:00-05:00,2813,309,77.0,"{""<5"":2,""5-20"":24,""21-60"":96,""61-240"":154,"">240"":33}",35290.0,41.424076,-71.613175,722511.0,RI,44.0,44009.0,Washington County,440090511021.0
59441,sg:e3139e8498a84f13817eeba68a843544,Marcie's Pet Grooming,RI,2020-02-01T00:00:00-05:00,2020-03-01T00:00:00-05:00,2896,92,30.5,"{""<5"":1,""5-20"":27,""21-60"":39,""61-240"":20,"">240"":5}",6129.5,41.997706,-71.561952,812910.0,RI,44.0,44007.0,Providence County,440070128013.0
59560,sg:f02262ca908d4851966951842067c1b4,Village Collision Center,RI,2020-02-01T00:00:00-05:00,2020-03-01T00:00:00-05:00,2893,7,11.0,"{""<5"":0,""5-20"":5,""21-60"":1,""61-240"":1,"">240"":0}",253.5,41.724552,-71.489756,811121.0,RI,44.0,44003.0,Kent County,440030205001.0
59571,sg:f12cf9a6ada848e79dc664614bec46bb,Supreme Cheese Pizzeria & Ristorante,RI,2020-02-01T00:00:00-05:00,2020-03-01T00:00:00-05:00,2891,217,21.0,"{""<5"":13,""5-20"":84,""21-60"":87,""61-240"":33,"">240"":0}",9572.5,41.368463,-71.819721,722511.0,RI,44.0,44009.0,Washington County,440090508021.0
59664,sg:facb2b40fcc248f18bc812d44137e4d4,The Mediator Fellowship,RI,2020-02-01T00:00:00-05:00,2020-03-01T00:00:00-05:00,2907,76,94.5,"{""<5"":2,""5-20"":16,""21-60"":11,""61-240"":30,"">240"":17}",9245.5,41.787516,-71.425111,813110.0,RI,44.0,44007.0,Providence County,440070015003.0
59905,sg:1079c093b18f4ef7beb7775a915950da,Li'l General,RI,2020-02-01T00:00:00-05:00,2020-03-01T00:00:00-05:00,2895,21,12.0,"{""<5"":1,""5-20"":11,""21-60"":2,""61-240"":5,"">240"":2}",1453.5,41.997388,-71.49068299999999,445110.0,RI,44.0,44007.0,Providence County,440070185003.0
60288,sg:32aa5359ad324be9989b919ea43aa772,Allstate Insurance,RI,2020-02-01T00:00:00-05:00,2020-03-01T00:00:00-05:00,2888,47,26.0,"{""<5"":0,""5-20"":19,""21-60"":13,""61-240"":12,"">240"":3}",3290.0,41.75215,-71.404486,524210.0,RI,44.0,44003.0,Kent County,440030212001.0
60425,sg:3e03aa22c67144e29ede86c5465a914b,Point Jude Boats,RI,2020-02-01T00:00:00-05:00,2020-03-01T00:00:00-05:00,2879,215,48.0,"{""<5"":1,""5-20"":48,""21-60"":76,""61-240"":61,"">240"":29}",19821.0,41.436710999999995,-71.50215,441222.0,RI,44.0,44009.0,Washington County,440090512023.0
60902,sg:6b550083c5794b9eb1f2e517fea1077b,D & H Therapy,RI,2020-02-01T00:00:00-05:00,2020-03-01T00:00:00-05:00,2828,36,76.0,"{""<5"":0,""5-20"":11,""21-60"":6,""61-240"":5,"">240"":14}",4493.0,41.869894,-71.536167,621340.0,RI,44.0,44007.0,Providence County,440070127021.0
61880,sg:c5ed279a4b534a979737c0333d09a14f,United States Postal Service (USPS),RI,2020-02-01T00:00:00-05:00,2020-03-01T00:00:00-05:00,2813,25,11.0,"{""<5"":0,""5-20"":17,""21-60"":4,""61-240"":2,"">240"":2}",1155.5,41.387387,-71.62360799999999,491110.0,RI,44.0,44009.0,Washington County,440090511021.0
62279,sg:eeb6ed7a40914d63b186fccf7220ebca,Shell Oil,RI,2020-02-01T00:00:00-05:00,2020-03-01T00:00:00-05:00,2914,252,7.0,"{""<5"":30,""5-20"":184,""21-60"":17,""61-240"":19,"">240"":2}",6403.0,41.815849,-71.356786,447110.0,RI,44.0,44007.0,Providence County,440070103003.0
62452,sg:feee1b5a4641419fa508388d4d9dd1b4,Genesis HealthCare,RI,2020-02-01T00:00:00-05:00,2020-03-01T00:00:00-05:00,2842,282,166.0,"{""<5"":1,""5-20"":34,""21-60"":42,""61-240"":110,"">240"":95}",41483.5,41.505476,-71.286197,621498.0,RI,44.0,44005.0,Newport County,440050404002.0
62637,sg:0f412be98e7e4931a6f4d6f5ad70c1c6,Navigant Credit Union,RI,2020-02-01T00:00:00-05:00,2020-03-01T00:00:00-05:00,2916,1,4.0,"{""<5"":1,""5-20"":0,""21-60"":0,""61-240"":0,"">240"":0}",2.5,41.853124,-71.353818,522110.0,RI,44.0,44007.0,Providence County,440070101021.0
62762,sg:1ae919faac3749e3a426417ecf5f03c9,Public Storage,RI,2020-02-01T00:00:00-05:00,2020-03-01T00:00:00-05:00,2904,17,18.0,"{""<5"":1,""5-20"":9,""21-60"":6,""61-240"":1,"">240"":0}",508.5,41.865525,-71.428914,531130.0,RI,44.0,44007.0,Providence County,440070118003.0
62835,sg:2242cc9d0cc1477c8ef0b32dd3fb9bd2,Universal Cuts,RI,2020-02-01T00:00:00-05:00,2020-03-01T00:00:00-05:00,2895,126,34.5,"{""<5"":2,""5-20"":41,""21-60"":38,""61-240"":28,"">240"":17}",10350.5,42.013098,-71.51407900000001,812112.0,RI,44.0,44007.0,Providence County,440070173002.0
62875,sg:2508c396e2884461b0f113ea9cb460aa,Great Swamp Management Area,RI,2020-02-01T00:00:00-05:00,2020-03-01T00:00:00-05:00,2892,247,14.0,"{""<5"":17,""5-20"":130,""21-60"":77,""61-240"":23,"">240"":0}",8247.5,41.482682000000004,-71.551524,712190.0,RI,44.0,44009.0,Washington County,440090513061.0
63269,sg:4aa0900445a54181b7873733ff40b449,West Shore Collision,RI,2020-02-01T00:00:00-05:00,2020-03-01T00:00:00-05:00,2889,36,21.0,"{""<5"":0,""5-20"":17,""21-60"":12,""61-240"":7,"">240"":0}",1752.0,41.700859,-71.400438,811121.0,RI,44.0,44003.0,Kent County,440030217004.0
63331,sg:513953b11fea432bb96aba1bf3d00db3,Woodbury Union Church Presbyterian,RI,2020-02-01T00:00:00-05:00,2020-03-01T00:00:00-05:00,2886,1,6.0,"{""<5"":0,""5-20"":1,""21-60"":0,""61-240"":0,"">240"":0}",12.5,41.70554,-71.417858,813110.0,RI,44.0,44003.0,Kent County,440030219031.0
63355,sg:53c45d0d35e14157bf2bc14926cd9201,Bright Start Academy,RI,2020-02-01T00:00:00-05:00,2020-03-01T00:00:00-05:00,2828,11,6.0,"{""<5"":2,""5-20"":7,""21-60"":1,""61-240"":0,"">240"":1}",373.0,41.876553,-71.56899399999999,624410.0,RI,44.0,44007.0,Providence County,440070127022.0
64069,sg:9379d5c9b3f3427ab43b1cd1ede4efce,Ronzio Pizza & Subs,RI,2020-02-01T00:00:00-05:00,2020-03-01T00:00:00-05:00,2920,147,34.0,"{""<5"":6,""5-20"":42,""21-60"":46,""61-240"":52,"">240"":1}",10469.0,41.782721,-71.463687,722511.0,RI,44.0,44007.0,Providence County,440070145023.0
64321,sg:aaeaa996c26141aebb6f49184d3df849,Hoskins Park,RI,2020-02-01T00:00:00-05:00,2020-03-01T00:00:00-05:00,2903,180,56.5,"{""<5"":8,""5-20"":57,""21-60"":26,""61-240"":44,"">240"":45}",19207.5,41.590501,-71.44469000000001,712190.0,RI,44.0,44009.0,Washington County,440090501021.0
64425,sg:b47e0cc957994282a3fb25764fd9a24a,Emerald Auto,RI,2020-02-01T00:00:00-05:00,2020-03-01T00:00:00-05:00,2809,28,514.0,"{""<5"":0,""5-20"":8,""21-60"":1,""61-240"":2,"">240"":17}",4521.5,41.691745000000004,-71.265096,811111.0,RI,44.0,44001.0,Bristol County,440010309024.0
65373,sg:1451878c176e436a9b5e05052199984b,Petco,RI,2020-02-01T00:00:00-05:00,2020-03-01T00:00:00-05:00,2904,584,19.0,"{""<5"":14,""5-20"":312,""21-60"":153,""61-240"":49,"">240"":56}",30946.0,41.837684,-71.40852,453910.0,RI,44.0,44007.0,Providence County,440070031003.0
65440,sg:1b18ed9fd82a4197a5cd11478e2a6b49,West Warwick Cell,RI,2020-02-01T00:00:00-05:00,2020-03-01T00:00:00-05:00,2893,43,121.0,"{""<5"":1,""5-20"":8,""21-60"":6,""61-240"":11,"">240"":17}",6081.0,41.707856,-71.53134,517312.0,RI,44.0,44003.0,Kent County,440030203003.0
65607,sg:2a1fa2dba1fc4329b11d2ef23729f4cf,The Men's Wearhouse,RI,2020-02-01T00:00:00-05:00,2020-03-01T00:00:00-05:00,2886,34,14.5,"{""<5"":1,""5-20"":21,""21-60"":10,""61-240"":2,"">240"":0}",971.0,41.719437,-71.485587,448110.0,RI,44.0,44003.0,Kent County,440030223002.0
66639,sg:8eb6fe940208477485342f24356ae223,Catanzaro Food Products,RI,2020-02-01T00:00:00-05:00,2020-03-01T00:00:00-05:00,2860,122,120.0,"{""<5"":3,""5-20"":16,""21-60"":20,""61-240"":57,"">240"":26}",15836.0,41.867554999999996,-71.403133,445110.0,RI,44.0,44007.0,Providence County,440070163001.0
66775,sg:9c681f2ac24a4ece837f53d8ad2ba7f6,Abbe Lassow Ameriprise Financial Services,RI,2020-02-01T00:00:00-05:00,2020-03-01T00:00:00-05:00,2886,7,555.0,"{""<5"":0,""5-20"":1,""21-60"":2,""61-240"":0,"">240"":4}",1053.5,41.725462,-71.45450699999999,523930.0,RI,44.0,44003.0,Kent County,440030221001.0
67062,sg:b999f350679645ee91b698ecfa84953e,White Horse Vapor,RI,2020-02-01T00:00:00-05:00,2020-03-01T00:00:00-05:00,2904,37,27.0,"{""<5"":0,""5-20"":17,""21-60"":8,""61-240"":11,"">240"":1}",2432.0,41.865765,-71.44480899999999,444120.0,RI,44.0,44007.0,Providence County,440070119023.0
67212,sg:c9c8a0a632e54652acf92e31b7469b2e,Acupuncture Integrative Body Therapy,RI,2020-02-01T00:00:00-05:00,2020-03-01T00:00:00-05:00,2852,7,48.0,"{""<5"":0,""5-20"":1,""21-60"":4,""61-240"":2,"">240"":0}",475.5,41.560796,-71.44718,621111.0,RI,44.0,44009.0,Washington County,440090503021.0
67423,sg:de5da0bf57f34964aec40a65b04196da,Cumberland Hill Alphabest,RI,2020-02-01T00:00:00-05:00,2020-03-01T00:00:00-05:00,2864,114,17.5,"{""<5"":3,""5-20"":60,""21-60"":23,""61-240"":18,"">240"":10}",6798.0,41.975572,-71.459448,624410.0,RI,44.0,44007.0,Providence County,440070114033.0
67759,sg:013a120ca7a04af3a903d512ac3f1d8c,Cranston Pediatric Dentistry,RI,2020-02-01T00:00:00-05:00,2020-03-01T00:00:00-05:00,2920,46,62.5,"{""<5"":0,""5-20"":8,""21-60"":13,""61-240"":9,"">240"":16}",5821.0,41.782015,-71.467938,621210.0,RI,44.0,44007.0,Providence County,440070147005.0
68032,sg:1803f42aff76433f9e27055c56cb4ade,CVS,RI,2020-02-01T00:00:00-05:00,2020-03-01T00:00:00-05:00,2916,180,11.0,"{""<5"":4,""5-20"":140,""21-60"":28,""61-240"":2,"">240"":6}",4635.0,41.858026,-71.355496,446110.0,RI,44.0,44007.0,Providence County,440070101011.0
68549,sg:473b5326382149d1acb26a602cdc6362,Town Mart,RI,2020-02-01T00:00:00-05:00,2020-03-01T00:00:00-05:00,2861,103,19.0,"{""<5"":8,""5-20"":48,""21-60"":26,""61-240"":14,"">240"":7}",5460.0,41.879987,-71.353937,447110.0,RI,44.0,44007.0,Providence County,440070158002.0
69037,sg:7257810925e44e4e9229f379b04e5b5a,American Performance Petroleum,RI,2020-02-01T00:00:00-05:00,2020-03-01T00:00:00-05:00,2920,162,6.0,"{""<5"":13,""5-20"":117,""21-60"":18,""61-240"":14,"">240"":0}",4331.0,41.80046,-71.44605200000001,447110.0,RI,44.0,44007.0,Providence County,440070141003.0
69069,sg:742937d080d0461d9ca7f92a0b0d793a,Hopkins Manor,RI,2020-02-01T00:00:00-05:00,2020-03-01T00:00:00-05:00,2904,492,168.5,"{""<5"":3,""5-20"":58,""21-60"":76,""61-240"":197,"">240"":158}",71379.0,41.864282,-71.468108,621610.0,RI,44.0,44007.0,Providence County,440070121031.0
69871,sg:c4451c37748f4bcb9663ee6794003fc3,Moretti Joseph & Sons Dental Lab,RI,2020-02-01T00:00:00-05:00,2020-03-01T00:00:00-05:00,2920,154,63.5,"{""<5"":5,""5-20"":38,""21-60"":31,""61-240"":50,"">240"":30}",16468.0,41.790124,-71.460868,621210.0,RI,44.0,44007.0,Providence County,440070147004.0
70243,sg:e796c861680541f0805459aa4ada1bdd,Hertz,RI,2020-02-01T00:00:00-05:00,2020-03-01T00:00:00-05:00,2842,2,257.5,"{""<5"":0,""5-20"":1,""21-60"":0,""61-240"":0,"">240"":1}",252.5,41.531617,-71.283982,532111.0,RI,44.0,44005.0,Newport County,440050403041.0
70405,sg:fa9fd9ed391a4037a2e7e84375e22bee,Ri Pipe Guys,RI,2020-02-01T00:00:00-05:00,2020-03-01T00:00:00-05:00,2889,81,46.0,"{""<5"":3,""5-20"":22,""21-60"":21,""61-240"":18,"">240"":17}",7922.0,41.688823,-71.39752800000001,444130.0,RI,44.0,44003.0,Kent County,440030217002.0
70442,sg:fd76daf460d04527aeab930c19d23518,Altered Images Tattoo,RI,2020-02-01T00:00:00-05:00,2020-03-01T00:00:00-05:00,2825,9,19.0,"{""<5"":0,""5-20"":5,""21-60"":1,""61-240"":3,"">240"":0}",554.5,41.814322,-71.73965600000001,812199.0,RI,44.0,44007.0,Providence County,440070133002.0
70453,sg:feacb42e77374701aed948b71baecf0c,Concrete Products,RI,2020-02-01T00:00:00-05:00,2020-03-01T00:00:00-05:00,2814,39,143.0,"{""<5"":0,""5-20"":11,""21-60"":7,""61-240"":9,"">240"":12}",4655.5,41.902619,-71.64532,444130.0,RI,44.0,44007.0,Providence County,440070131021.0
70527,sg:05ed96f42e1b4afea3b9f4d0b301ec20,Lighting & Design By J&K Electric,RI,2020-02-01T00:00:00-05:00,2020-03-01T00:00:00-05:00,2919,94,68.0,"{""<5"":1,""5-20"":25,""21-60"":18,""61-240"":25,"">240"":25}",10806.5,41.823725,-71.492244,442110.0,RI,44.0,44007.0,Providence County,440070124014.0
71668,sg:7084285ab934455788206ce6b07655b4,Deluise Bakery,RI,2020-02-01T00:00:00-05:00,2020-03-01T00:00:00-05:00,2908,17,825.0,"{""<5"":0,""5-20"":0,""21-60"":1,""61-240"":1,"">240"":15}",3791.0,41.832809000000005,-71.450172,311811.0,RI,44.0,44007.0,Providence County,440070021011.0
71835,sg:81142ca577fa4e248ae81fcc99e0baf1,Asian Market,RI,2020-02-01T00:00:00-05:00,2020-03-01T00:00:00-05:00,2895,45,11.0,"{""<5"":3,""5-20"":31,""21-60"":7,""61-240"":4,"">240"":0}",1280.5,42.006749,-71.505702,445110.0,RI,44.0,44007.0,Providence County,440070180002.0
71917,sg:88d60590891448688d872c835a767115,Tranquil Touch Aesthetics Boutique,RI,2020-02-01T00:00:00-05:00,2020-03-01T00:00:00-05:00,2818,141,74.0,"{""<5"":2,""5-20"":24,""21-60"":39,""61-240"":25,"">240"":51}",17887.0,41.652739000000004,-71.45613,446120.0,RI,44.0,44003.0,Kent County,440030209013.0
72044,sg:9464abacf9674c6792cb67615cf13f02,Room To Groom A,RI,2020-02-01T00:00:00-05:00,2020-03-01T00:00:00-05:00,2889,134,22.0,"{""<5"":1,""5-20"":61,""21-60"":22,""61-240"":37,"">240"":13}",10344.5,41.695190999999994,-71.378792,453910.0,RI,44.0,44003.0,Kent County,440030215024.0
72157,sg:9f7e42d8dbea48baaae44baa39ef34f7,Little Angel's Academy,RI,2020-02-01T00:00:00-05:00,2020-03-01T00:00:00-05:00,2919,9,19.0,"{""<5"":0,""5-20"":5,""21-60"":2,""61-240"":2,"">240"":0}",444.5,41.808567,-71.495025,624410.0,RI,44.0,44007.0,Providence County,440070122001.0
72287,sg:ad033901724a496e9c21a5325ebf5ced,Asset3,RI,2020-02-01T00:00:00-05:00,2020-03-01T00:00:00-05:00,2891,15,35.0,"{""<5"":0,""5-20"":4,""21-60"":4,""61-240"":5,"">240"":2}",1444.5,41.326758,-71.822257,713940.0,RI,44.0,44009.0,Washington County,440090510003.0
72786,sg:dfe1e77fb0d54b6f9ee35a15253a45d3,Salvation Cafe,RI,2020-02-01T00:00:00-05:00,2020-03-01T00:00:00-05:00,2840,40,10.5,"{""<5"":3,""5-20"":22,""21-60"":8,""61-240"":5,"">240"":2}",1839.0,41.49348,-71.310203,722511.0,RI,44.0,44005.0,Newport County,440050406004.0
73247,sg:0ee089512a524a25abeb553fb64423cf,Big Top Flea Market,RI,2020-02-01T00:00:00-05:00,2020-03-01T00:00:00-05:00,2909,372,31.0,"{""<5"":6,""5-20"":125,""21-60"":145,""61-240"":64,"">240"":32}",24762.0,41.818746999999995,-71.446768,453310.0,RI,44.0,44007.0,Providence County,440070019003.0
73299,sg:128918b2bbf3429d9936ceb3cebc7e57,Starbucks,RI,2020-02-01T00:00:00-05:00,2020-03-01T00:00:00-05:00,2920,770,12.0,"{""<5"":42,""5-20"":433,""21-60"":162,""61-240"":104,"">240"":29}",34690.5,41.75585,-71.461169,722515.0,RI,44.0,44007.0,Providence County,440070142002.0
73386,sg:1beda883f4dc45daafac718c1a265d2f,Goff Junior High,RI,2020-02-01T00:00:00-05:00,2020-03-01T00:00:00-05:00,2861,1038,306.0,"{""<5"":11,""5-20"":214,""21-60"":109,""61-240"":156,"">240"":548}",162115.0,41.881555999999996,-71.35466,611110.0,RI,44.0,44007.0,Providence County,440070159002.0
73780,sg:3f00721e90d04a93b175902692396329,Bank Newport,RI,2020-02-01T00:00:00-05:00,2020-03-01T00:00:00-05:00,2818,7,6.0,"{""<5"":1,""5-20"":6,""21-60"":0,""61-240"":0,"">240"":0}",77.5,41.662368,-71.494989,522110.0,RI,44.0,44003.0,Kent County,440030209031.0
73915,sg:4c26eaa98d524232ac973d453825200b,Nathan's Famous,RI,2020-02-01T00:00:00-05:00,2020-03-01T00:00:00-05:00,2891,99,28.0,"{""<5"":4,""5-20"":40,""21-60"":28,""61-240"":17,"">240"":10}",6602.5,41.356894,-71.811006,722513.0,RI,44.0,44009.0,Washington County,440090508022.0
74316,sg:71400bd8afec4cef9f2f32e46b7c75c8,Dave's Coffee,RI,2020-02-01T00:00:00-05:00,2020-03-01T00:00:00-05:00,2813,4,16.0,"{""<5"":0,""5-20"":4,""21-60"":0,""61-240"":0,"">240"":0}",50.0,41.355277,-71.71461,722515.0,RI,44.0,44009.0,Washington County,440090511013.0
74523,sg:838e628cdbad4db8bf9b8eadb127d0e8,Tower Hill Dental,RI,2020-02-01T00:00:00-05:00,2020-03-01T00:00:00-05:00,2879,35,50.0,"{""<5"":2,""5-20"":11,""21-60"":9,""61-240"":13,"">240"":0}",2463.5,41.446118,-71.476857,621210.0,RI,44.0,44009.0,Washington County,440090512024.0
74554,sg:8665b56422714f58b6d1d8fc9536e17b,United States Postal Service (USPS),RI,2020-02-01T00:00:00-05:00,2020-03-01T00:00:00-05:00,2910,43,11.0,"{""<5"":2,""5-20"":25,""21-60"":4,""61-240"":5,"">240"":7}",2912.0,41.776939,-71.436715,491110.0,RI,44.0,44007.0,Providence County,440070137022.0
74627,sg:8d895cc62c724d4ea91250f2a7916765,Ria Money Transfer,RI,2020-02-01T00:00:00-05:00,2020-03-01T00:00:00-05:00,2908,4,880.5,"{""<5"":0,""5-20"":0,""21-60"":0,""61-240"":0,"">240"":4}",960.0,41.825086999999996,-71.443523,522320.0,RI,44.0,44007.0,Providence County,440070021023.0
74977,sg:b20f6188f6d84f2cbc3c21ae7c8b7776,Little Free Library Charter Prayer and Meditation Garden,RI,2020-02-01T00:00:00-05:00,2020-03-01T00:00:00-05:00,2864,18,29.5,"{""<5"":1,""5-20"":7,""21-60"":5,""61-240"":5,"">240"":0}",1045.0,41.978229,-71.45223,451130.0,RI,44.0,44007.0,Providence County,440070114022.0
75254,sg:cd2cefc0ade14b1eb95d1ff516dd5aa6,Evolution Body Piercing,RI,2020-02-01T00:00:00-05:00,2020-03-01T00:00:00-05:00,2903,31,18.0,"{""<5"":2,""5-20"":20,""21-60"":8,""61-240"":0,"">240"":1}",819.0,41.821857,-71.41255699999999,448310.0,RI,44.0,44007.0,Providence County,440070008003.0
75375,sg:da585fe0695547638b4989d89f5e309f,Long Island Pipe Supply,RI,2020-02-01T00:00:00-05:00,2020-03-01T00:00:00-05:00,2905,68,21.5,"{""<5"":3,""5-20"":30,""21-60"":13,""61-240"":18,"">240"":4}",4578.0,41.793382,-71.409839,444130.0,RI,44.0,44007.0,Providence County,440070001024.0
76347,sg:35724f2509234c0990bfbfd7ef8773cd,Coastal Cantina,RI,2020-02-01T00:00:00-05:00,2020-03-01T00:00:00-05:00,2891,10,10.5,"{""<5"":0,""5-20"":7,""21-60"":0,""61-240"":0,"">240"":3}",807.5,41.378708,-71.829874,722511.0,RI,44.0,44009.0,Washington County,440090508014.0
76592,sg:4cb1af293dbe4fce810011bd2bb1bd51,Sonrisa Restaurant,RI,2020-02-01T00:00:00-05:00,2020-03-01T00:00:00-05:00,2863,301,69.0,"{""<5"":4,""5-20"":72,""21-60"":61,""61-240"":78,"">240"":86}",35759.5,41.88554,-71.383646,722511.0,RI,44.0,44007.0,Providence County,440070108001.0
76680,sg:57026cc259674cc9b8f1034b21439647,Rock & Rye,RI,2020-02-01T00:00:00-05:00,2020-03-01T00:00:00-05:00,2903,16,54.5,"{""<5"":0,""5-20"":7,""21-60"":2,""61-240"":4,"">240"":3}",1490.5,41.823349,-71.425438,722511.0,RI,44.0,44007.0,Providence County,440070009001.0
76897,sg:69a4cf65ed144f97af15937862f556a9,Fabric Connection,RI,2020-02-01T00:00:00-05:00,2020-03-01T00:00:00-05:00,2842,43,16.0,"{""<5"":2,""5-20"":22,""21-60"":12,""61-240"":5,"">240"":2}",1998.5,41.525408,-71.27643499999999,451130.0,RI,44.0,44005.0,Newport County,440050404002.0
76910,sg:6a9d098db93a41bdafc5b88936ccc05c,First American Title,RI,2020-02-01T00:00:00-05:00,2020-03-01T00:00:00-05:00,2914,7,374.0,"{""<5"":0,""5-20"":0,""21-60"":1,""61-240"":0,"">240"":6}",1480.5,41.807457,-71.384546,524210.0,RI,44.0,44007.0,Providence County,440070104003.0
77111,sg:7db2a0d4d1224aad9e7e45c446dd999d,DeAlmeida Chiropractic & Rehab,RI,2020-02-01T00:00:00-05:00,2020-03-01T00:00:00-05:00,2914,2081,61.0,"{""<5"":22,""5-20"":436,""21-60"":569,""61-240"":914,"">240"":140}",199706.5,41.819864,-71.355527,621310.0,RI,44.0,44007.0,Providence County,440070103002.0
77540,sg:a8db53aa3e964bd091a85791d1020629,Victra,RI,2020-02-01T00:00:00-05:00,2020-03-01T00:00:00-05:00,2818,112,17.5,"{""<5"":6,""5-20"":55,""21-60"":40,""61-240"":9,"">240"":2}",4157.0,41.661784999999995,-71.494887,443142.0,RI,44.0,44003.0,Kent County,440030209031.0
77900,sg:cdc767cd8b37406eb3fca223c89c1561,Thomas F Vutech DMD FAGD Vutech Dental,RI,2020-02-01T00:00:00-05:00,2020-03-01T00:00:00-05:00,2852,3,632.0,"{""<5"":0,""5-20"":0,""21-60"":0,""61-240"":0,"">240"":3}",720.0,41.595744,-71.45533499999999,621210.0,RI,44.0,44009.0,Washington County,440090501021.0
78008,sg:d8b77220255b47318bd0f8e742fd0ddf,Warwick Ave Coastal,RI,2020-02-01T00:00:00-05:00,2020-03-01T00:00:00-05:00,2888,45,22.0,"{""<5"":3,""5-20"":18,""21-60"":12,""61-240"":8,"">240"":4}",2882.5,41.760888,-71.404519,447110.0,RI,44.0,44003.0,Kent County,440030210022.0
78306,sg:f76e181bd9194ffaaee1e0de8a9b57c4,Cantina del Rio,RI,2020-02-01T00:00:00-05:00,2020-03-01T00:00:00-05:00,2879,380,44.0,"{""<5"":9,""5-20"":72,""21-60"":171,""61-240"":128,"">240"":0}",27112.0,41.438526,-71.485988,722511.0,RI,44.0,44009.0,Washington County,440090512024.0
78563,sg:122630a2de7240a291867d018a2c858e,Roy L Souza Nationwide Insurance,RI,2020-02-01T00:00:00-05:00,2020-03-01T00:00:00-05:00,2842,12,14.5,"{""<5"":0,""5-20"":7,""21-60"":3,""61-240"":0,"">240"":2}",689.0,41.529278000000005,-71.294485,524210.0,RI,44.0,44005.0,Newport County,440050403042.0
78691,sg:1cb6deee1d114a24978ca3353a7c2e15,George D Auto Repair,RI,2020-02-01T00:00:00-05:00,2020-03-01T00:00:00-05:00,2893,6,14.0,"{""<5"":0,""5-20"":5,""21-60"":0,""61-240"":1,"">240"":0}",213.0,41.725438,-71.48979,811111.0,RI,44.0,44003.0,Kent County,440030205001.0
80024,sg:96ebca109b2044eeb10a4a1efb2413cb,Allstate Insurance,RI,2020-02-01T00:00:00-05:00,2020-03-01T00:00:00-05:00,2896,26,256.0,"{""<5"":0,""5-20"":2,""21-60"":1,""61-240"":9,"">240"":14}",4780.0,41.979812,-71.51371400000001,524210.0,RI,44.0,44007.0,Providence County,440070128022.0
80234,sg:abf0dda131934fb4b7063b7f5482e26a,Soda Motors Auto Sales LLC,RI,2020-02-01T00:00:00-05:00,2020-03-01T00:00:00-05:00,2840,140,15.0,"{""<5"":5,""5-20"":75,""21-60"":26,""61-240"":31,"">240"":3}",7388.5,41.515599,-71.316653,441120.0,RI,44.0,44005.0,Newport County,440050405001.0
81492,sg:22192dcf4a5d4209b0b6a16d267bfa42,Pakarang Exquisite Thai Cuisine,RI,2020-02-01T00:00:00-05:00,2020-03-01T00:00:00-05:00,2903,50,80.0,"{""<5"":4,""5-20"":14,""21-60"":5,""61-240"":12,"">240"":15}",5793.5,41.821846,-71.40486,722511.0,RI,44.0,44007.0,Providence County,440070037002.0
81681,sg:33bdad952de84dbe839baf172a64590f,Alexanders Uniforms,RI,2020-02-01T00:00:00-05:00,2020-03-01T00:00:00-05:00,2920,98,38.5,"{""<5"":2,""5-20"":36,""21-60"":23,""61-240"":23,"">240"":14}",8208.0,41.756817,-71.447822,453310.0,RI,44.0,44007.0,Providence County,440070139003.0
83270,sg:d08693813dd74507a2970cfe3fc2d03b,WED Shun III LLC,RI,2020-02-01T00:00:00-05:00,2020-03-01T00:00:00-05:00,2919,16,9.0,"{""<5"":0,""5-20"":13,""21-60"":1,""61-240"":2,"">240"":0}",504.0,41.799061,-71.549306,221111.0,RI,44.0,44007.0,Providence County,440070122003.0
83286,sg:d1a85b39345c4b97aae9e404ea066520,Inferno Audio,RI,2020-02-01T00:00:00-05:00,2020-03-01T00:00:00-05:00,2895,297,25.0,"{""<5"":6,""5-20"":126,""21-60"":73,""61-240"":83,"">240"":9}",19198.0,42.005218,-71.51100799999999,443142.0,RI,44.0,44007.0,Providence County,440070180002.0
83505,sg:e5cd1a7ca470447dbda1fd9cf55d6232,J C's of Watch Hill,RI,2020-02-01T00:00:00-05:00,2020-03-01T00:00:00-05:00,2891,23,96.0,"{""<5"":0,""5-20"":3,""21-60"":5,""61-240"":15,"">240"":0}",2497.5,41.310518,-71.857351,448140.0,RI,44.0,44009.0,Washington County,440090510001.0
83816,sg:057ea88bdb864ecf9714a4def124a963,The Purple Cow,RI,2020-02-01T00:00:00-05:00,2020-03-01T00:00:00-05:00,2879,143,15.0,"{""<5"":5,""5-20"":83,""21-60"":37,""61-240"":10,"">240"":8}",5973.5,41.440962,-71.496049,453220.0,RI,44.0,44009.0,Washington County,440090512022.0
84015,sg:17304189f37e4e54b22ce108cf07a986,Wilkie Feeds,RI,2020-02-01T00:00:00-05:00,2020-03-01T00:00:00-05:00,2878,3,7.0,"{""<5"":0,""5-20"":3,""21-60"":0,""61-240"":0,"">240"":0}",37.5,41.602071,-71.15698499999999,453910.0,RI,44.0,44005.0,Newport County,440050417021.0
84466,sg:3e7ae726e5af44208582e9b4dcba80dc,Sunoco,RI,2020-02-01T00:00:00-05:00,2020-03-01T00:00:00-05:00,2920,58,6.0,"{""<5"":5,""5-20"":38,""21-60"":1,""61-240"":8,"">240"":6}",3172.0,41.802246000000004,-71.444988,447110.0,RI,44.0,44007.0,Providence County,440070141001.0
85761,sg:b9df1cb04df342949c1bb67899abb836,Hannahs Hot Dogs,RI,2020-02-01T00:00:00-05:00,2020-03-01T00:00:00-05:00,2889,78,21.0,"{""<5"":2,""5-20"":35,""21-60"":24,""61-240"":10,"">240"":7}",4599.5,41.70296,-71.405924,447110.0,RI,44.0,44003.0,Kent County,440030218002.0
85803,sg:bdea31a00fef4f09968e93c41176f4a4,Kiwi Burst,RI,2020-02-01T00:00:00-05:00,2020-03-01T00:00:00-05:00,2865,98,9.0,"{""<5"":7,""5-20"":61,""21-60"":21,""61-240"":6,"">240"":3}",3253.5,41.935738,-71.481787,722515.0,RI,44.0,44007.0,Providence County,440070115001.0
86040,sg:d7935fc43b87432681c90d231ff3cf75,Professional Salon Services,RI,2020-02-01T00:00:00-05:00,2020-03-01T00:00:00-05:00,2920,129,101.0,"{""<5"":2,""5-20"":23,""21-60"":25,""61-240"":36,"">240"":43}",17043.0,41.745396,-71.447774,446120.0,RI,44.0,44007.0,Providence County,440070142002.0
86872,sg:265b2b632990461c98454a8dccd8053c,Museum Of Newport Irish History,RI,2020-02-01T00:00:00-05:00,2020-03-01T00:00:00-05:00,2840,292,76.0,"{""<5"":2,""5-20"":38,""21-60"":93,""61-240"":135,"">240"":24}",30324.0,41.474856,-71.31371800000001,712110.0,RI,44.0,44005.0,Newport County,440050409003.0
86920,sg:2ac43190bbb04574b1591c8f5eb7bb9f,Providence Brewing Company,RI,2020-02-01T00:00:00-05:00,2020-03-01T00:00:00-05:00,2904,59,65.0,"{""<5"":0,""5-20"":6,""21-60"":22,""61-240"":20,"">240"":11}",6616.0,41.85974,-71.46895500000001,312120.0,RI,44.0,44007.0,Providence County,440070120005.0
86994,sg:3130f9720133412f9daffecdb349602a,Wireless Zone,RI,2020-02-01T00:00:00-05:00,2020-03-01T00:00:00-05:00,2806,81,65.0,"{""<5"":1,""5-20"":19,""21-60"":17,""61-240"":26,"">240"":18}",9161.5,41.736526,-71.305189,517312.0,RI,44.0,44001.0,Bristol County,440010304003.0
87461,sg:5e517facf48f400491369c39808ad14b,Federal Hill Wine & Spirits,RI,2020-02-01T00:00:00-05:00,2020-03-01T00:00:00-05:00,2903,81,29.0,"{""<5"":5,""5-20"":27,""21-60"":29,""61-240"":18,"">240"":2}",4713.5,41.823432000000004,-71.421993,445310.0,RI,44.0,44007.0,Providence County,440070009001.0
87951,sg:8dfa14eb2b6b4f2eb73e22c15061cf29,Applebee's,RI,2020-02-01T00:00:00-05:00,2020-03-01T00:00:00-05:00,2828,694,45.0,"{""<5"":5,""5-20"":125,""21-60"":318,""61-240"":226,"">240"":20}",53267.0,41.869763,-71.533164,722511.0,RI,44.0,44007.0,Providence County,440070127021.0
88030,sg:96a21724cfe94a9da027cd7ab3fe8d2a,Central Truck Service,RI,2020-02-01T00:00:00-05:00,2020-03-01T00:00:00-05:00,2920,14,10.0,"{""<5"":1,""5-20"":8,""21-60"":5,""61-240"":0,"">240"":0}",305.0,41.794774,-71.47363299999999,488410.0,RI,44.0,44007.0,Providence County,440070147006.0
88129,sg:9efa9ddcd2114c63afbe62248fbebec4,GD West Greenwich Victory I LLC,RI,2020-02-01T00:00:00-05:00,2020-03-01T00:00:00-05:00,2817,80,68.5,"{""<5"":2,""5-20"":11,""21-60"":21,""61-240"":14,"">240"":32}",10780.0,41.65743,-71.694012,221112.0,RI,44.0,44003.0,Kent County,440030208002.0
88378,sg:b5a6821d83d94cac9831eb0d2cf5d201,Tiogue Veterinary Clinic,RI,2020-02-01T00:00:00-05:00,2020-03-01T00:00:00-05:00,2816,18,291.5,"{""<5"":0,""5-20"":3,""21-60"":2,""61-240"":3,"">240"":10}",2970.0,41.680051,-71.571198,541940.0,RI,44.0,44003.0,Kent County,440030206033.0
88978,sg:f2d671d7a9e042ecac4955ef62255d71,Mamas Boy Music,RI,2020-02-01T00:00:00-05:00,2020-03-01T00:00:00-05:00,2842,210,14.0,"{""<5"":11,""5-20"":119,""21-60"":50,""61-240"":17,"">240"":13}",9218.5,41.522289,-71.28384799999999,451140.0,RI,44.0,44005.0,Newport County,440050403041.0
89077,sg:fd2ad6f697774864a6c8dcbe824e0416,A & B Convenience & Deli,RI,2020-02-01T00:00:00-05:00,2020-03-01T00:00:00-05:00,2908,144,67.0,"{""<5"":1,""5-20"":48,""21-60"":21,""61-240"":42,"">240"":32}",15454.0,41.832839,-71.449956,447110.0,RI,44.0,44007.0,Providence County,440070021011.0
89352,sg:160867d3b34b434e8afaec7efda37e3e,Melissa Barra Makeup,RI,2020-02-01T00:00:00-05:00,2020-03-01T00:00:00-05:00,2904,81,52.0,"{""<5"":2,""5-20"":22,""21-60"":18,""61-240"":22,"">240"":17}",8400.0,41.866214,-71.423548,446120.0,RI,44.0,44007.0,Providence County,440070118002.0
89495,sg:241e04cbe6824e2baa11245e822d8583,Avid Airline Products,RI,2020-02-01T00:00:00-05:00,2020-03-01T00:00:00-05:00,2842,114,209.5,"{""<5"":3,""5-20"":8,""21-60"":14,""61-240"":38,"">240"":51}",18633.5,41.504082000000004,-71.28556800000001,517312.0,RI,44.0,44005.0,Newport County,440050404002.0
89829,sg:4015ba84ac4e4e07924818e1a7b9faf7,New Garden Restaurant,RI,2020-02-01T00:00:00-05:00,2020-03-01T00:00:00-05:00,2909,338,30.5,"{""<5"":12,""5-20"":140,""21-60"":42,""61-240"":77,"">240"":67}",31149.5,41.825547,-71.454279,722511.0,RI,44.0,44007.0,Providence County,440070021022.0
91049,sg:b232b75c8beb4c18b92a3d177e31e2e6,American Diner Museum,RI,2020-02-01T00:00:00-05:00,2020-03-01T00:00:00-05:00,2865,13,11.0,"{""<5"":2,""5-20"":5,""21-60"":2,""61-240"":4,"">240"":0}",750.5,41.892315,-71.409391,712110.0,RI,44.0,44007.0,Providence County,440070117021.0
92730,sg:51e3f69efd0446f2a4ed0c7c08aeaf4d,Doolittle Sharon DVM,RI,2020-02-01T00:00:00-05:00,2020-03-01T00:00:00-05:00,2917,5,637.0,"{""<5"":0,""5-20"":0,""21-60"":0,""61-240"":0,"">240"":5}",1200.0,41.86918,-71.509749,541940.0,RI,44.0,44007.0,Providence County,440070126023.0
92768,sg:5567644fd0a740cabc2f2b1763ec7cd6,Greenwood Inn,RI,2020-02-01T00:00:00-05:00,2020-03-01T00:00:00-05:00,2886,376,61.0,"{""<5"":9,""5-20"":61,""21-60"":112,""61-240"":188,"">240"":6}",35055.0,41.711797999999995,-71.448298,722511.0,RI,44.0,44003.0,Kent County,440030221001.0
93291,sg:878a33e584fd471f8a6d2c3fd44ae5f9,Sakonnet River Outfitters,RI,2020-02-01T00:00:00-05:00,2020-03-01T00:00:00-05:00,2878,125,56.0,"{""<5"":4,""5-20"":33,""21-60"":29,""61-240"":47,"">240"":12}",11550.5,41.653938000000004,-71.197939,451110.0,RI,44.0,44005.0,Newport County,440050416022.0
93357,sg:8f16de60442e42da92df41cf64957996,Time For You Studio,RI,2020-02-01T00:00:00-05:00,2020-03-01T00:00:00-05:00,2889,20,37.0,"{""<5"":0,""5-20"":9,""21-60"":2,""61-240"":4,"">240"":5}",1995.5,41.723893,-71.407143,812199.0,RI,44.0,44003.0,Kent County,440030214012.0
93403,sg:93f868861c1d4b76bb5ed5d7422ebd84,Amerigo Sailboat Charters,RI,2020-02-01T00:00:00-05:00,2020-03-01T00:00:00-05:00,2840,2,17.5,"{""<5"":0,""5-20"":1,""21-60"":1,""61-240"":0,"">240"":0}",53.0,41.483636,-71.315506,441222.0,RI,44.0,44005.0,Newport County,440050410001.0
93494,sg:9cb3b82e8019460e946dec6f9a670e09,Hair By The Water,RI,2020-02-01T00:00:00-05:00,2020-03-01T00:00:00-05:00,2830,4,874.0,"{""<5"":0,""5-20"":0,""21-60"":1,""61-240"":0,"">240"":3}",760.5,41.964912,-71.67528100000001,812112.0,RI,44.0,44007.0,Providence County,440070129001.0
94214,sg:e881a7e6dbe642f68d0ba4c9a857319a,Pizza Hut,RI,2020-02-01T00:00:00-05:00,2020-03-01T00:00:00-05:00,2809,70,12.5,"{""<5"":4,""5-20"":50,""21-60"":12,""61-240"":4,"">240"":0}",1723.0,41.677494,-71.260355,722513.0,RI,44.0,44001.0,Bristol County,440010308001.0
94350,sg:f5e9bf066f8c49e8a027a83bcc6594dc,Envisions Eye Care,RI,2020-02-01T00:00:00-05:00,2020-03-01T00:00:00-05:00,2893,171,45.0,"{""<5"":4,""5-20"":27,""21-60"":77,""61-240"":36,"">240"":27}",15364.0,41.685198,-71.50308299999999,446130.0,RI,44.0,44003.0,Kent County,440030201021.0
94761,sg:196f7833c48a4703a2e7a1655c37275e,Don's Barber Shop,RI,2020-02-01T00:00:00-05:00,2020-03-01T00:00:00-05:00,2895,2,38.0,"{""<5"":0,""5-20"":1,""21-60"":0,""61-240"":1,"">240"":0}",163.0,42.001783,-71.502527,812112.0,RI,44.0,44007.0,Providence County,440070179002.0
95274,sg:4d2bc8dc343a4ad4914f4c51f32687e4,FedEx,RI,2020-02-01T00:00:00-05:00,2020-03-01T00:00:00-05:00,2886,140,131.5,"{""<5"":4,""5-20"":38,""21-60"":13,""61-240"":63,"">240"":22}",15773.0,41.724375,-71.460352,492110.0,RI,44.0,44003.0,Kent County,440030221001.0
95289,sg:4eafe312355e4e2aba6742c4410e7f6c,Morning Star Bakery,RI,2020-02-01T00:00:00-05:00,2020-03-01T00:00:00-05:00,2914,179,24.0,"{""<5"":5,""5-20"":81,""21-60"":24,""61-240"":25,"">240"":44}",16319.5,41.810462,-71.371064,722515.0,RI,44.0,44007.0,Providence County,440070104001.0
95603,sg:6ec1107c69364479b3b47bf2dd325eb8,Matunuck Surf Shop,RI,2020-02-01T00:00:00-05:00,2020-03-01T00:00:00-05:00,2879,47,92.0,"{""<5"":1,""5-20"":13,""21-60"":7,""61-240"":15,"">240"":11}",5346.0,41.377555,-71.549198,448140.0,RI,44.0,44009.0,Washington County,440090513021.0
95643,sg:71da70f16140482a84c110ba560860ce,Vasquez Electro Auto and Towing,RI,2020-02-01T00:00:00-05:00,2020-03-01T00:00:00-05:00,2909,91,172.0,"{""<5"":3,""5-20"":19,""21-60"":11,""61-240"":23,"">240"":35}",12552.0,41.814026,-71.449966,488410.0,RI,44.0,44007.0,Providence County,440070016001.0
95788,sg:801382f43e12401099d1ea4ad67adf47,Leon's Cafe & Catering,RI,2020-02-01T00:00:00-05:00,2020-03-01T00:00:00-05:00,2806,27,85.0,"{""<5"":0,""5-20"":1,""21-60"":9,""61-240"":13,"">240"":4}",3293.5,41.737753000000005,-71.308942,722511.0,RI,44.0,44001.0,Bristol County,440010302003.0
96779,sg:d82f4fb31a39460bad7e15d203640cf2,Keller Williams,RI,2020-02-01T00:00:00-05:00,2020-03-01T00:00:00-05:00,2865,40,22.5,"{""<5"":2,""5-20"":16,""21-60"":11,""61-240"":11,"">240"":0}",2306.0,41.903738,-71.44693199999999,531210.0,RI,44.0,44007.0,Providence County,440070116003.0
96816,sg:dbf9efc6f0ca459d8307ebd17e7c2f75,Hunter Park,RI,2020-02-01T00:00:00-05:00,2020-03-01T00:00:00-05:00,2919,69,37.0,"{""<5"":2,""5-20"":23,""21-60"":18,""61-240"":12,"">240"":14}",6187.5,41.499279,-71.318709,712190.0,RI,44.0,44005.0,Newport County,440050411001.0
97035,sg:eea25a8bcda646e4af849f92aeb6686c,Bottle Club,RI,2020-02-01T00:00:00-05:00,2020-03-01T00:00:00-05:00,2886,33,52.0,"{""<5"":0,""5-20"":11,""21-60"":7,""61-240"":4,"">240"":11}",3663.0,41.729760999999996,-71.474918,451120.0,RI,44.0,44003.0,Kent County,440030223003.0
97127,sg:f963d771933147b18f0838dbf64c3d60,ChopHouse Grille,RI,2020-02-01T00:00:00-05:00,2020-03-01T00:00:00-05:00,2879,215,48.0,"{""<5"":5,""5-20"":40,""21-60"":84,""61-240"":86,"">240"":0}",16857.5,41.442013,-71.481332,722511.0,RI,44.0,44009.0,Washington County,440090512024.0
97693,sg:309ec647a16e4deeb772aba4da1e031a,Optimal Wellness Therapeutic Massage,RI,2020-02-01T00:00:00-05:00,2020-03-01T00:00:00-05:00,2879,2,10.0,"{""<5"":0,""5-20"":2,""21-60"":0,""61-240"":0,"">240"":0}",25.0,41.431158,-71.491114,812199.0,RI,44.0,44009.0,Washington County,440090512021.0
97868,sg:3ef2a925570443d78679c3f4817d6bcc,Two Papas Biscotti by DeLuise,RI,2020-02-01T00:00:00-05:00,2020-03-01T00:00:00-05:00,2908,94,229.0,"{""<5"":2,""5-20"":33,""21-60"":3,""61-240"":10,"">240"":46}",13084.0,41.832827,-71.450069,445110.0,RI,44.0,44007.0,Providence County,440070021011.0
97995,sg:4b074bbd54c2446da360d6e7786e6e45,STATELINE NISSAN,RI,2020-02-01T00:00:00-05:00,2020-03-01T00:00:00-05:00,2914,268,60.5,"{""<5"":3,""5-20"":78,""21-60"":53,""61-240"":76,"">240"":58}",28487.0,41.822429,-71.348489,441110.0,RI,44.0,44007.0,Providence County,440070103002.0
98466,sg:76e71a63afd14d49977701bd96b76146,Stop & Shop Plaza,RI,2020-02-01T00:00:00-05:00,2020-03-01T00:00:00-05:00,2864,2797,16.0,"{""<5"":109,""5-20"":1569,""21-60"":779,""61-240"":181,"">240"":159}",116835.0,41.912859000000005,-71.404912,531120.0,RI,44.0,44007.0,Providence County,440070113012.0
98479,sg:786930bcd9ec45f7af1955760bae3a95,Auto Repair and Service,RI,2020-02-01T00:00:00-05:00,2020-03-01T00:00:00-05:00,2920,72,17.0,"{""<5"":1,""5-20"":41,""21-60"":16,""61-240"":12,"">240"":2}",3449.0,41.794959999999996,-71.475443,811111.0,RI,44.0,44007.0,Providence County,440070147006.0
98862,sg:9dabe7da8c39443aaa007ffc78099cf2,I Love Mexico Bar & Grille,RI,2020-02-01T00:00:00-05:00,2020-03-01T00:00:00-05:00,2908,146,82.0,"{""<5"":2,""5-20"":25,""21-60"":35,""61-240"":39,"">240"":45}",18404.5,41.833596,-71.42115,722511.0,RI,44.0,44007.0,Providence County,440070026001.0
98899,sg:a1b058c139474155b4dc359c778e0ec4,The Walker School of Allied Health,RI,2020-02-01T00:00:00-05:00,2020-03-01T00:00:00-05:00,2809,13,102.0,"{""<5"":0,""5-20"":2,""21-60"":2,""61-240"":6,"">240"":3}",1729.0,41.68707,-71.261522,621610.0,RI,44.0,44001.0,Bristol County,440010309012.0
99003,sg:ac4e3afbe2174b4f95c1c79c35d132de,Yoo Sushi,RI,2020-02-01T00:00:00-05:00,2020-03-01T00:00:00-05:00,2908,425,19.0,"{""<5"":24,""5-20"":198,""21-60"":71,""61-240"":53,"">240"":79}",32347.0,41.841534,-71.427634,722511.0,RI,44.0,44007.0,Providence County,440070027004.0
99433,sg:d595e011084c4c2c9c50dd5b6a2b20f9,Northern Rhode Island Animal Hospitals Inc,RI,2020-02-01T00:00:00-05:00,2020-03-01T00:00:00-05:00,2824,15,300.0,"{""<5"":0,""5-20"":2,""21-60"":2,""61-240"":2,"">240"":9}",2567.0,41.997696999999995,-71.561998,541940.0,RI,44.0,44007.0,Providence County,440070128013.0
99552,sg:e13f150f2aeb426ea1311f411e51156b,Dunn Park,RI,2020-02-01T00:00:00-05:00,2020-03-01T00:00:00-05:00,2895,633,68.0,"{""<5"":16,""5-20"":182,""21-60"":100,""61-240"":148,"">240"":187}",73519.0,41.997298,-71.53055,712190.0,RI,44.0,44007.0,Providence County,440070174003.0
99908,sg:04022351a0704f9585c5f53b4ed8d8be,The Groden Network,RI,2020-02-01T00:00:00-05:00,2020-03-01T00:00:00-05:00,2904,28,163.0,"{""<5"":0,""5-20"":6,""21-60"":7,""61-240"":8,"">240"":7}",3242.5,41.843815,-71.407437,453220.0,RI,44.0,44007.0,Providence County,440070033004.0
99931,sg:0625d5c4a6e54f888e3dc3c3c177c521,BP,RI,2020-02-01T00:00:00-05:00,2020-03-01T00:00:00-05:00,2904,136,8.0,"{""<5"":16,""5-20"":92,""21-60"":20,""61-240"":3,"">240"":5}",3651.5,41.861447999999996,-71.46380500000001,447110.0,RI,44.0,44007.0,Providence County,440070121031.0
100025,sg:0d66bed17aa444c5861da5c506f26307,Body Complete,RI,2020-02-01T00:00:00-05:00,2020-03-01T00:00:00-05:00,2920,91,30.0,"{""<5"":1,""5-20"":20,""21-60"":52,""61-240"":18,"">240"":0}",5067.5,41.755078000000005,-71.476748,713940.0,RI,44.0,44007.0,Providence County,440070144002.0
100259,sg:246f50cd59024ae5a11f0702daef3746,Allstate Insurance,RI,2020-02-01T00:00:00-05:00,2020-03-01T00:00:00-05:00,2886,88,22.5,"{""<5"":2,""5-20"":38,""21-60"":14,""61-240"":12,"">240"":22}",8133.0,41.699039,-71.450128,524210.0,RI,44.0,44003.0,Kent County,440030219013.0
100579,sg:42bfe705af354edba3d374d4d4b246af,Twelve Acres,RI,2020-02-01T00:00:00-05:00,2020-03-01T00:00:00-05:00,2917,5,50.0,"{""<5"":0,""5-20"":1,""21-60"":2,""61-240"":2,"">240"":0}",394.5,41.894301,-71.490945,451120.0,RI,44.0,44007.0,Providence County,440070126025.0
101199,sg:7eb5044299cb4bf8b379f851cd9cc688,Ninigret Marine Hardware,RI,2020-02-01T00:00:00-05:00,2020-03-01T00:00:00-05:00,2813,13,71.0,"{""<5"":0,""5-20"":1,""21-60"":4,""61-240"":8,"">240"":0}",1378.5,41.444844,-71.621674,444130.0,RI,44.0,44009.0,Washington County,440090511021.0
101305,sg:88678df2a79b4d018abb16ba8c7d0d3c,A Mind Of Your Own Neurofeedback,RI,2020-02-01T00:00:00-05:00,2020-03-01T00:00:00-05:00,2864,28,35.5,"{""<5"":1,""5-20"":9,""21-60"":8,""61-240"":4,"">240"":6}",2481.0,41.947206,-71.403149,621330.0,RI,44.0,44007.0,Providence County,440070114012.0
101800,sg:b876ae14082f42afa16f7b6a590adf05,Oral Surgery Services Inc,RI,2020-02-01T00:00:00-05:00,2020-03-01T00:00:00-05:00,2895,2,23.0,"{""<5"":0,""5-20"":1,""21-60"":1,""61-240"":0,"">240"":0}",53.0,42.002594,-71.496041,621210.0,RI,44.0,44007.0,Providence County,440070185001.0
101987,sg:cac06bcb1ad94918a4a038f81b85c0d3,Dunn's Corners School,RI,2020-02-01T00:00:00-05:00,2020-03-01T00:00:00-05:00,2891,270,119.0,"{""<5"":5,""5-20"":66,""21-60"":37,""61-240"":89,"">240"":73}",33250.5,41.347035999999996,-71.775512,611110.0,RI,44.0,44009.0,Washington County,440090509023.0
102037,sg:cf78930faccc419f92d0179f656ffb21,St Christopher's Church Hall,RI,2020-02-01T00:00:00-05:00,2020-03-01T00:00:00-05:00,2878,3,8.0,"{""<5"":0,""5-20"":2,""21-60"":0,""61-240"":1,"">240"":0}",175.5,41.630251,-71.210347,813110.0,RI,44.0,44005.0,Newport County,440050416021.0
102045,sg:d00cf54987844cd596923eeaaba1991b,Aquidneck Medical Associates,RI,2020-02-01T00:00:00-05:00,2020-03-01T00:00:00-05:00,2840,74,36.5,"{""<5"":2,""5-20"":22,""21-60"":32,""61-240"":14,"">240"":4}",4643.0,41.483912,-71.304036,621111.0,RI,44.0,44005.0,Newport County,440050408001.0
102099,sg:d4abd16c363a48478d710815e1ca45f5,Mello's Flower Center,RI,2020-02-01T00:00:00-05:00,2020-03-01T00:00:00-05:00,2871,15,34.0,"{""<5"":2,""5-20"":4,""21-60"":5,""61-240"":3,"">240"":1}",949.0,41.629977000000004,-71.246962,453110.0,RI,44.0,44005.0,Newport County,440050401012.0
102221,sg:e0389a379c8f4315b3c17a11f2949dc6,Spa Yadira,RI,2020-02-01T00:00:00-05:00,2020-03-01T00:00:00-05:00,2809,2,399.0,"{""<5"":0,""5-20"":0,""21-60"":0,""61-240"":1,"">240"":1}",390.5,41.668012,-71.27253,812199.0,RI,44.0,44001.0,Bristol County,440010307003.0
102347,sg:ecb5b8e42ff840ca919e23f70e1f3d87,CSM Truck Sales,RI,2020-02-01T00:00:00-05:00,2020-03-01T00:00:00-05:00,2915,9,23.0,"{""<5"":0,""5-20"":3,""21-60"":6,""61-240"":0,"">240"":0}",280.5,41.800281,-71.347507,441120.0,RI,44.0,44007.0,Providence County,440070105011.0
102761,sg:1224b74f4e094406b222271a7d714375,Yama Fuji,RI,2020-02-01T00:00:00-05:00,2020-03-01T00:00:00-05:00,2896,124,12.0,"{""<5"":3,""5-20"":70,""21-60"":15,""61-240"":23,"">240"":13}",8071.5,42.005354,-71.58488,722511.0,RI,44.0,44007.0,Providence County,440070128011.0
102808,sg:15f56c4585e6460ea01d2f1472656371,Vision Associates,RI,2020-02-01T00:00:00-05:00,2020-03-01T00:00:00-05:00,2920,130,21.5,"{""<5"":3,""5-20"":57,""21-60"":45,""61-240"":23,"">240"":2}",6484.0,41.767208000000004,-71.45796999999999,446130.0,RI,44.0,44007.0,Providence County,440070143001.0
102917,sg:1e92416e32464c78b3c9ac2914a617b2,University Otolaryngology,RI,2020-02-01T00:00:00-05:00,2020-03-01T00:00:00-05:00,2905,13,21.0,"{""<5"":0,""5-20"":6,""21-60"":2,""61-240"":3,"">240"":2}",1087.5,41.805197,-71.40664,621111.0,RI,44.0,44007.0,Providence County,440070006001.0
104444,sg:b2ae3632620e47178a611b8e67d5126c,Displays by Garo,RI,2020-02-01T00:00:00-05:00,2020-03-01T00:00:00-05:00,2865,55,247.0,"{""<5"":2,""5-20"":11,""21-60"":4,""61-240"":9,"">240"":29}",8619.0,41.923737,-71.479628,451211.0,RI,44.0,44007.0,Providence County,440070116004.0
104669,sg:c80f1fda50ae46c4ba3a29fd53246032,Nathan's Famous,RI,2020-02-01T00:00:00-05:00,2020-03-01T00:00:00-05:00,2898,366,11.0,"{""<5"":14,""5-20"":233,""21-60"":99,""61-240"":14,"">240"":6}",10504.0,41.512242,-71.686228,722513.0,RI,44.0,44009.0,Washington County,440090506001.0
104685,sg:c96a83db54a94da88fdcb8f99d9768e9,Portsmouth High School,RI,2020-02-01T00:00:00-05:00,2020-03-01T00:00:00-05:00,2871,2121,138.0,"{""<5"":24,""5-20"":341,""21-60"":332,""61-240"":588,"">240"":836}",306902.5,41.612258000000004,-71.249401,611110.0,RI,44.0,44005.0,Newport County,440050401023.0
104723,sg:cd8a76e67dc54056ab537a28dce1b5a4,Medical Cannabis Consultants,RI,2020-02-01T00:00:00-05:00,2020-03-01T00:00:00-05:00,2852,61,45.0,"{""<5"":2,""5-20"":10,""21-60"":26,""61-240"":17,"">240"":6}",5181.5,41.572496,-71.48455600000001,621111.0,RI,44.0,44009.0,Washington County,440090503013.0
105377,sg:0d2885845780495082fa34df17e7d368,Hassell's Garage,RI,2020-02-01T00:00:00-05:00,2020-03-01T00:00:00-05:00,2915,10,27.0,"{""<5"":0,""5-20"":4,""21-60"":3,""61-240"":3,"">240"":0}",623.0,41.795575,-71.352641,811111.0,RI,44.0,44007.0,Providence County,440070105023.0
105556,sg:1d836d68fba14de597551500df4643eb,Family Health Services,RI,2020-02-01T00:00:00-05:00,2020-03-01T00:00:00-05:00,2920,183,52.0,"{""<5"":3,""5-20"":40,""21-60"":63,""61-240"":51,"">240"":26}",16974.5,41.796693,-71.448408,621111.0,RI,44.0,44007.0,Providence County,440070141003.0
105661,sg:25e4f42b8a4a446abd79a1f3dd9b1a85,Kendra Capalbo LICSW,RI,2020-02-01T00:00:00-05:00,2020-03-01T00:00:00-05:00,2906,23,54.0,"{""<5"":1,""5-20"":7,""21-60"":7,""61-240"":7,"">240"":1}",1667.0,41.827847,-71.391627,621330.0,RI,44.0,44007.0,Providence County,440070036012.0
105865,sg:3a5210aa825642a997797d5f096530df,Persephone's Kitchen,RI,2020-02-01T00:00:00-05:00,2020-03-01T00:00:00-05:00,2807,9,46.0,"{""<5"":1,""5-20"":0,""21-60"":5,""61-240"":0,"">240"":3}",925.0,41.173893,-71.560801,722511.0,RI,44.0,44009.0,Washington County,440090415002.0
106126,sg:551c9b50f93e457a8613e29867931cdb,Micheletti Oil Service,RI,2020-02-01T00:00:00-05:00,2020-03-01T00:00:00-05:00,2919,103,16.0,"{""<5"":7,""5-20"":51,""21-60"":16,""61-240"":17,"">240"":12}",6741.5,41.804516,-71.46737399999999,447110.0,RI,44.0,44007.0,Providence County,440070124022.0
106637,sg:86cb2d8f6cf24cacb02632410dd13e00,Edward Jones,RI,2020-02-01T00:00:00-05:00,2020-03-01T00:00:00-05:00,2886,35,22.0,"{""<5"":1,""5-20"":16,""21-60"":4,""61-240"":12,"">240"":2}",2650.5,41.687823,-71.45574,523999.0,RI,44.0,44003.0,Kent County,440030222015.0
106807,sg:960e67810cdc4663b070989da73b2bb2,Eye Associates,RI,2020-02-01T00:00:00-05:00,2020-03-01T00:00:00-05:00,2865,163,14.0,"{""<5"":7,""5-20"":111,""21-60"":35,""61-240"":9,"">240"":1}",4417.0,41.938724,-71.477446,446130.0,RI,44.0,44007.0,Providence County,440070116004.0
107071,sg:b057ad51a8b54add84b4ab1f3dda4fc4,Shannon Motors,RI,2020-02-01T00:00:00-05:00,2020-03-01T00:00:00-05:00,2919,81,30.0,"{""<5"":3,""5-20"":30,""21-60"":18,""61-240"":17,"">240"":13}",6790.0,41.83013,-71.47339000000001,441120.0,RI,44.0,44007.0,Providence County,440070124013.0
107281,sg:c572e5d56f554628a736e1a475e3e039,Petco,RI,2020-02-01T00:00:00-05:00,2020-03-01T00:00:00-05:00,2920,457,17.0,"{""<5"":16,""5-20"":247,""21-60"":127,""61-240"":42,"">240"":25}",20592.0,41.754765,-71.460163,453910.0,RI,44.0,44007.0,Providence County,440070142002.0
107832,sg:fc154dd152cd43c4b1cddb79d535a288,Synergy Power Yoga,RI,2020-02-01T00:00:00-05:00,2020-03-01T00:00:00-05:00,2806,109,53.0,"{""<5"":1,""5-20"":15,""21-60"":46,""61-240"":43,"">240"":4}",9484.5,41.747581,-71.342892,713940.0,RI,44.0,44001.0,Bristol County,440010301003.0
108634,sg:44b8e5d39a8d4c9d8d9c5d05f10164a3,Circle Of Light,RI,2020-02-01T00:00:00-05:00,2020-03-01T00:00:00-05:00,2885,318,67.0,"{""<5"":4,""5-20"":25,""21-60"":103,""61-240"":184,"">240"":2}",32666.0,41.731439,-71.285102,713940.0,RI,44.0,44001.0,Bristol County,440010305003.0
108700,sg:4adfe10a69c34121ad31c51c2b6a41b9,Ros Johnson,RI,2020-02-01T00:00:00-05:00,2020-03-01T00:00:00-05:00,2860,33,90.0,"{""<5"":0,""5-20"":6,""21-60"":6,""61-240"":10,"">240"":11}",4463.0,41.857637,-71.391357,621330.0,RI,44.0,44007.0,Providence County,440070165002.0
109158,sg:7b481f176b10435f8d626f4e923c642c,Hair Contours,RI,2020-02-01T00:00:00-05:00,2020-03-01T00:00:00-05:00,2904,25,26.0,"{""<5"":2,""5-20"":9,""21-60"":6,""61-240"":3,"">240"":5}",2012.0,41.86541,-71.456811,812112.0,RI,44.0,44007.0,Providence County,440070119021.0
109368,sg:8fbd022434d64147b2edea6cdfbfaa2a,St Clare Church,RI,2020-02-01T00:00:00-05:00,2020-03-01T00:00:00-05:00,2891,97,43.0,"{""<5"":3,""5-20"":20,""21-60"":45,""61-240"":23,"">240"":6}",6981.5,41.324692,-71.81894799999999,813110.0,RI,44.0,44009.0,Washington County,440090510003.0
110070,sg:d405476720584a56afdba35e8119f87e,Oaklawn Animal Hospital,RI,2020-02-01T00:00:00-05:00,2020-03-01T00:00:00-05:00,2920,2,105.5,"{""<5"":0,""5-20"":1,""21-60"":0,""61-240"":1,"">240"":0}",163.0,41.755515,-71.476476,541940.0,RI,44.0,44007.0,Providence County,440070144002.0
110723,sg:1647dce4236d478983f05e9c91744934,Village Barber Shop,RI,2020-02-01T00:00:00-05:00,2020-03-01T00:00:00-05:00,2889,38,38.5,"{""<5"":0,""5-20"":11,""21-60"":12,""61-240"":12,"">240"":3}",3149.5,41.727233,-71.405404,812112.0,RI,44.0,44003.0,Kent County,440030214021.0
111329,sg:4c7ff46882034b598c5fb6fedbf41e6b,Fairlawn Auto Tech,RI,2020-02-01T00:00:00-05:00,2020-03-01T00:00:00-05:00,2860,109,39.0,"{""<5"":4,""5-20"":31,""21-60"":36,""61-240"":29,"">240"":9}",8380.0,41.876902,-71.406482,811111.0,RI,44.0,44007.0,Providence County,440070150001.0
112232,sg:a699a4dc6110486d897806c8b7a94778,Best Wheels Imports,RI,2020-02-01T00:00:00-05:00,2020-03-01T00:00:00-05:00,2919,58,56.5,"{""<5"":2,""5-20"":18,""21-60"":10,""61-240"":9,"">240"":19}",6549.5,41.804486,-71.489581,,RI,44.0,44007.0,Providence County,440070125002.0
112444,sg:ba6024ce4467447ebc8a950c5a6279e2,East Beach,RI,2020-02-01T00:00:00-05:00,2020-03-01T00:00:00-05:00,2813,13,13.0,"{""<5"":0,""5-20"":7,""21-60"":5,""61-240"":1,"">240"":0}",440.5,41.341832000000004,-71.694577,712190.0,RI,44.0,44009.0,Washington County,440090511012.0
112553,sg:c50bcfb686cb43d195a0fb460cb0ebef,Billeri & McGary Insurance Agency,RI,2020-02-01T00:00:00-05:00,2020-03-01T00:00:00-05:00,2889,59,50.0,"{""<5"":3,""5-20"":14,""21-60"":14,""61-240"":10,"">240"":18}",6574.5,41.717901,-71.401713,524210.0,RI,44.0,44003.0,Kent County,440030214011.0
112971,sg:ef10e62afdce4411ac72021ecbf5e1de,Sue Kelly Dermatology,RI,2020-02-01T00:00:00-05:00,2020-03-01T00:00:00-05:00,2852,4,27.5,"{""<5"":0,""5-20"":2,""21-60"":1,""61-240"":1,"">240"":0}",216.0,41.548218,-71.44184,621111.0,RI,44.0,44009.0,Washington County,440090504023.0
113006,sg:f23451b564e14a2d9fb4dc4ff0e89e5b,Providence Pawn Brokers,RI,2020-02-01T00:00:00-05:00,2020-03-01T00:00:00-05:00,2905,49,125.0,"{""<5"":0,""5-20"":9,""21-60"":4,""61-240"":21,"">240"":15}",7035.0,41.788637,-71.404267,522298.0,RI,44.0,44007.0,Providence County,440070001022.0
113065,sg:f863011f49584a11a480d744de133ccd,Cow's Tail,RI,2020-02-01T00:00:00-05:00,2020-03-01T00:00:00-05:00,2859,117,12.0,"{""<5"":5,""5-20"":77,""21-60"":30,""61-240"":4,"">240"":1}",3032.0,41.955128,-71.703666,722511.0,RI,44.0,44007.0,Providence County,440070129004.0
113673,sg:32d0750391464d74ba61af7e32557ec7,Primary Laser Skincare,RI,2020-02-01T00:00:00-05:00,2020-03-01T00:00:00-05:00,2914,9,28.0,"{""<5"":1,""5-20"":1,""21-60"":6,""61-240"":1,"">240"":0}",408.5,41.81075,-71.35595699999999,812199.0,RI,44.0,44007.0,Providence County,440070105011.0
113954,sg:4e2e3d88d12d4d87a43a538c59c460b2,Chum's Spirits,RI,2020-02-01T00:00:00-05:00,2020-03-01T00:00:00-05:00,2830,35,8.0,"{""<5"":4,""5-20"":21,""21-60"":4,""61-240"":6,"">240"":0}",1337.5,41.967374,-71.69067,445310.0,RI,44.0,44007.0,Providence County,440070129001.0
114189,sg:646b6929b9c84b818670c9d00ad5cb09,Iannucci Karen Rnp,RI,2020-02-01T00:00:00-05:00,2020-03-01T00:00:00-05:00,2860,5,49.0,"{""<5"":0,""5-20"":2,""21-60"":1,""61-240"":2,"">240"":0}",366.5,41.867222999999996,-71.377624,621111.0,RI,44.0,44007.0,Providence County,440070167002.0
115129,sg:c378f53c73004e308266e3b082c165c9,Providence Public Library,RI,2020-02-01T00:00:00-05:00,2020-03-01T00:00:00-05:00,2903,47,106.0,"{""<5"":0,""5-20"":10,""21-60"":4,""61-240"":23,"">240"":10}",6148.5,41.821701000000004,-71.41712,519120.0,RI,44.0,44007.0,Providence County,440070008001.0
115144,sg:c5417d7e48f24edd8f529969395f06a4,Stop &amp Shop,RI,2020-02-01T00:00:00-05:00,2020-03-01T00:00:00-05:00,2886,398,14.0,"{""<5"":17,""5-20"":243,""21-60"":115,""61-240"":22,"">240"":1}",11288.5,41.718942,-71.46607,445110.0,,,,,
115229,sg:cf2bd8cc14fa4343ab20925c81574d27,Dunkin',RI,2020-02-01T00:00:00-05:00,2020-03-01T00:00:00-05:00,2903,295,47.0,"{""<5"":12,""5-20"":93,""21-60"":55,""61-240"":79,"">240"":56}",28749.5,41.823661,-71.41421,722515.0,RI,44.0,44007.0,Providence County,440070008001.0
115690,sg:fd89f3de6df643c195b9ab83d8565be7,Critter Hut Aquarium & Pets,RI,2020-02-01T00:00:00-05:00,2020-03-01T00:00:00-05:00,2879,40,18.5,"{""<5"":0,""5-20"":23,""21-60"":14,""61-240"":1,"">240"":2}",1485.0,41.444133,-71.482527,453910.0,RI,44.0,44009.0,Washington County,440090512024.0
115906,sg:111aa5cf61954c7c92b75dd53c9ebea3,Custom Fiberglass,RI,2020-02-01T00:00:00-05:00,2020-03-01T00:00:00-05:00,2809,12,208.0,"{""<5"":0,""5-20"":2,""21-60"":0,""61-240"":4,"">240"":6}",2067.0,41.700195,-71.267698,441222.0,RI,44.0,44001.0,Bristol County,440010309021.0
116221,sg:2fa6a35ac9bc46d1b2596c726b39575b,Musician's Corner and Music Learning Center,RI,2020-02-01T00:00:00-05:00,2020-03-01T00:00:00-05:00,2904,241,31.0,"{""<5"":14,""5-20"":73,""21-60"":88,""61-240"":52,"">240"":14}",15697.5,41.864518,-71.446343,451140.0,RI,44.0,44007.0,Providence County,440070119011.0
116264,sg:33c3c8d6c9064626b6f863a2f4d05e31,Woodlake Park,RI,2020-02-01T00:00:00-05:00,2020-03-01T00:00:00-05:00,2919,81,55.0,"{""<5"":2,""5-20"":25,""21-60"":15,""61-240"":29,"">240"":10}",7689.5,41.817726,-71.524475,712190.0,RI,44.0,44007.0,Providence County,440070122003.0
