,safegraph_place_id,location_name,region,date_range_start,date_range_end,postal_code,raw_visit_counts,median_dwell,bucketed_dwell_times,est_total_dwell,latitude,longitude,naics_code,state,stateFIPS,countyFIPS,countyName,CBGFIPS
690,sg:3e9937b32e6845c882082b48cfeecfda,The Island Child Care Bristol,RI,2020-02-01T00:00:00-05:00,2020-03-01T00:00:00-05:00,2809,2,31.5,"{""<5"":0,""5-20"":1,""21-60"":1,""61-240"":0,"">240"":0}",53.0,41.669082,-71.276597,624410.0,RI,44.0,44001.0,Bristol County,440010307004.0
714,sg:41184a0504234c41858e589bae780f46,Nacho Mamma's,RI,2020-02-01T00:00:00-05:00,2020-03-01T00:00:00-05:00,2809,58,21.0,"{""<5"":3,""5-20"":25,""21-60"":19,""61-240"":11,"">240"":0}",2745.0,41.670243,-71.27601999999999,722511.0,RI,44.0,44001.0,Bristol County,440010307004.0
740,sg:437f50a354e04977b90bf13d0449e875,UnWine'd Beer & Wine Lounge,RI,2020-02-01T00:00:00-05:00,2020-03-01T00:00:00-05:00,2893,133,22.0,"{""<5"":4,""5-20"":59,""21-60"":23,""61-240"":32,"">240"":15}",10095.0,41.711673,-71.500087,722511.0,RI,44.0,44003.0,Kent County,440030223002.0
1316,sg:7771c83ac9c84a408e8273c4992d2f9d,Lasalle Automotive and Tire Service,RI,2020-02-01T00:00:00-05:00,2020-03-01T00:00:00-05:00,2910,134,46.0,"{""<5"":7,""5-20"":43,""21-60"":25,""61-240"":31,"">240"":28}",12953.0,41.784702,-71.435766,441310.0,RI,44.0,44007.0,Providence County,440070140001.0
1328,sg:797648baad55423e8050c69719c01c56,Back 40,RI,2020-02-01T00:00:00-05:00,2020-03-01T00:00:00-05:00,2852,657,59.0,"{""<5"":5,""5-20"":93,""21-60"":242,""61-240"":288,"">240"":29}",61280.0,41.575227000000005,-71.515977,722511.0,RI,44.0,44009.0,Washington County,440090503011.0
1665,sg:9b2418b6ccfc4d74bfbde3d7401c108a,Lincoln Public Library,RI,2020-02-01T00:00:00-05:00,2020-03-01T00:00:00-05:00,2865,151,10.0,"{""<5"":3,""5-20"":100,""21-60"":33,""61-240"":15,"">240"":0}",4851.5,41.938015,-71.452864,519120.0,RI,44.0,44007.0,Providence County,440070115001.0
2755,sg:09361d6115fd49bf8eedb0fb99c3bee7,Ti Adoro Jewelry,RI,2020-02-01T00:00:00-05:00,2020-03-01T00:00:00-05:00,2909,24,12.0,"{""<5"":1,""5-20"":16,""21-60"":4,""61-240"":3,"">240"":0}",816.0,41.826246999999995,-71.429007,448310.0,RI,44.0,44007.0,Providence County,440070025002.0
3272,sg:380cd47edab44d9789d747f687d17fbd,Rhode Island Traffic Court,RI,2020-02-01T00:00:00-05:00,2020-03-01T00:00:00-05:00,2920,495,40.0,"{""<5"":13,""5-20"":155,""21-60"":128,""61-240"":164,"">240"":35}",40236.0,41.747771,-71.46752099999999,448130.0,RI,44.0,44007.0,Providence County,440070142002.0
3303,sg:3aebcfee842b4a4e8999176a9d0a51d9,Bar 101,RI,2020-02-01T00:00:00-05:00,2020-03-01T00:00:00-05:00,2919,262,47.5,"{""<5"":5,""5-20"":60,""21-60"":88,""61-240"":92,"">240"":17}",22252.5,41.822682,-71.499092,722511.0,RI,44.0,44007.0,Providence County,440070124015.0
4824,sg:cb4805cb39094ef9abe6c838e61b4a83,Starbucks,RI,2020-02-01T00:00:00-05:00,2020-03-01T00:00:00-05:00,2906,277,27.0,"{""<5"":12,""5-20"":101,""21-60"":92,""61-240"":58,"">240"":14}",17107.5,41.830137,-71.389096,722515.0,RI,44.0,44007.0,Providence County,440070035001.0
5918,sg:39582f01219c48b7b545abf3757a88bf,Easy Vapor RI,RI,2020-02-01T00:00:00-05:00,2020-03-01T00:00:00-05:00,2919,19,7.0,"{""<5"":0,""5-20"":16,""21-60"":1,""61-240"":2,"">240"":0}",541.5,41.822693,-71.499107,444120.0,RI,44.0,44007.0,Providence County,440070124015.0
5932,sg:3aa8750901774538abbaadee72d19175,UMI Asian Cuisine,RI,2020-02-01T00:00:00-05:00,2020-03-01T00:00:00-05:00,2840,54,23.5,"{""<5"":1,""5-20"":24,""21-60"":14,""61-240"":9,"">240"":6}",3664.0,41.492219,-71.311611,722511.0,,,,,
5979,sg:3f6c8e9fe37a4368b46da7f72c0604ac,DC Automotive,RI,2020-02-01T00:00:00-05:00,2020-03-01T00:00:00-05:00,2921,32,75.0,"{""<5"":1,""5-20"":9,""21-60"":4,""61-240"":16,"">240"":2}",3165.0,41.785616999999995,-71.51666,811111.0,RI,44.0,44007.0,Providence County,440070146002.0
6072,sg:47d906d5f9554538b890d21eb39ed732,Target,RI,2020-02-01T00:00:00-05:00,2020-03-01T00:00:00-05:00,2865,2241,20.0,"{""<5"":34,""5-20"":1134,""21-60"":927,""61-240"":107,"">240"":39}",77267.0,41.938069,-71.478605,452210.0,RI,44.0,44007.0,Providence County,440070116004.0
6350,sg:601aade4741647b5bd08ebc4911c5f56,Wayland Square Surgicare,RI,2020-02-01T00:00:00-05:00,2020-03-01T00:00:00-05:00,2906,77,80.0,"{""<5"":1,""5-20"":12,""21-60"":15,""61-240"":40,"">240"":9}",8940.0,41.827646,-71.38771899999999,621111.0,RI,44.0,44007.0,Providence County,440070035003.0
6625,sg:7b3e0efd299f4173b7cbfa47c096bb40,U Haul Moving & Storage of Newport,RI,2020-02-01T00:00:00-05:00,2020-03-01T00:00:00-05:00,2840,6,5.5,"{""<5"":1,""5-20"":5,""21-60"":0,""61-240"":0,"">240"":0}",65.0,41.505261,-71.317177,532120.0,RI,44.0,44005.0,Newport County,440050405002.0
6745,sg:85d279d55bbf47159310ac3eda04d449,Jahmeir Skincare Studio,RI,2020-02-01T00:00:00-05:00,2020-03-01T00:00:00-05:00,2886,4,60.5,"{""<5"":0,""5-20"":0,""21-60"":2,""61-240"":2,"">240"":0}",382.0,41.705003000000005,-71.45300999999999,812112.0,RI,44.0,44003.0,Kent County,440030221002.0
6880,sg:94f4b2c51cc047649e7954d8aa720c4c,Melvin's Tire Pros,RI,2020-02-01T00:00:00-05:00,2020-03-01T00:00:00-05:00,2917,18,74.5,"{""<5"":1,""5-20"":2,""21-60"":3,""61-240"":12,"">240"":0}",1955.0,41.924414,-71.507809,811111.0,RI,44.0,44007.0,Providence County,440070126011.0
7724,sg:e9ccf71155ae46eb9395410830ed9601,Village Barn Country Store & Antiques,RI,2020-02-01T00:00:00-05:00,2020-03-01T00:00:00-05:00,2839,133,178.0,"{""<5"":0,""5-20"":30,""21-60"":17,""61-240"":33,"">240"":53}",18750.0,41.952625,-71.649199,453310.0,RI,44.0,44007.0,Providence County,440070130024.0
8267,sg:1d6c17981a9b46de8ece2bf8d5264912,Ormand Park,RI,2020-02-01T00:00:00-05:00,2020-03-01T00:00:00-05:00,2806,52,45.5,"{""<5"":5,""5-20"":9,""21-60"":15,""61-240"":21,"">240"":2}",4373.0,41.765326,-71.331001,712190.0,RI,44.0,44001.0,Bristol County,440010302001.0
8399,sg:28d739ab9c3949579d7304abf4680f43,Pitcher's Garage,RI,2020-02-01T00:00:00-05:00,2020-03-01T00:00:00-05:00,2879,11,10.0,"{""<5"":0,""5-20"":7,""21-60"":3,""61-240"":1,"">240"":0}",359.5,41.399879999999996,-71.563229,811111.0,RI,44.0,44009.0,Washington County,440090513041.0
8462,sg:2ec98e93b74a4e3e90167650db7c5145,Sea Fresh USA,RI,2020-02-01T00:00:00-05:00,2020-03-01T00:00:00-05:00,2852,49,436.0,"{""<5"":0,""5-20"":8,""21-60"":7,""61-240"":5,"">240"":29}",8096.0,41.603987,-71.47104300000001,445220.0,RI,44.0,44009.0,Washington County,440090501032.0
8474,sg:2fa575e1a64f44f4843835c82a76003c,Scribbles Academy,RI,2020-02-01T00:00:00-05:00,2020-03-01T00:00:00-05:00,2919,47,58.0,"{""<5"":2,""5-20"":16,""21-60"":7,""61-240"":21,"">240"":1}",3889.0,41.832151,-71.47448,624410.0,RI,44.0,44007.0,Providence County,440070124016.0
8732,sg:4a2c89bd0d9d4ac9a3ede61e98bb7fea,East Greenwich Pediatrics,RI,2020-02-01T00:00:00-05:00,2020-03-01T00:00:00-05:00,2818,74,38.0,"{""<5"":3,""5-20"":14,""21-60"":28,""61-240"":22,"">240"":7}",6307.5,41.659147,-71.498572,621111.0,RI,44.0,44003.0,Kent County,440030209031.0
8999,sg:63607419a765414dba5134eeeaca8438,Matunuck Pizza Pie,RI,2020-02-01T00:00:00-05:00,2020-03-01T00:00:00-05:00,2879,49,41.0,"{""<5"":0,""5-20"":14,""21-60"":14,""61-240"":11,"">240"":10}",4797.5,41.374749,-71.544309,722511.0,RI,44.0,44009.0,Washington County,440090513021.0
9410,sg:8c511a295a7b4db0a336204ab400fcb4,Joshua's Executive,RI,2020-02-01T00:00:00-05:00,2020-03-01T00:00:00-05:00,2910,1,6.0,"{""<5"":0,""5-20"":1,""21-60"":0,""61-240"":0,"">240"":0}",12.5,41.783017,-71.43934399999999,812320.0,RI,44.0,44007.0,Providence County,440070140002.0
9892,sg:bae474275ca1493da919b4a70a07e4db,Pine Food Market,RI,2020-02-01T00:00:00-05:00,2020-03-01T00:00:00-05:00,2907,559,55.0,"{""<5"":8,""5-20"":148,""21-60"":129,""61-240"":132,"">240"":142}",61040.5,41.81264,-71.419632,445110.0,RI,44.0,44007.0,Providence County,440070007003.0
10684,sg:0a597952e2f24d8ba5096714ed64db3e,Bamboo Chinese Restaurant,RI,2020-02-01T00:00:00-05:00,2020-03-01T00:00:00-05:00,2840,35,23.0,"{""<5"":2,""5-20"":13,""21-60"":10,""61-240"":6,"">240"":4}",2435.5,41.508115000000004,-71.317109,722511.0,RI,44.0,44005.0,Newport County,440050405001.0
10708,sg:0c07480ae2a74ae7b9548e03efdf2846,The Lookout,RI,2020-02-01T00:00:00-05:00,2020-03-01T00:00:00-05:00,2891,291,21.0,"{""<5"":4,""5-20"":133,""21-60"":109,""61-240"":43,"">240"":2}",13038.5,41.326440000000005,-71.753915,712190.0,RI,44.0,44009.0,Washington County,440090510002.0
10978,sg:244dfb8ce3f5460fb534b51124ddf848,Knock On Wood Furniture,RI,2020-02-01T00:00:00-05:00,2020-03-01T00:00:00-05:00,2865,107,27.0,"{""<5"":1,""5-20"":45,""21-60"":22,""61-240"":28,"">240"":11}",8310.0,41.907779999999995,-71.40299300000001,442110.0,RI,44.0,44007.0,Providence County,440070117011.0
11037,sg:2a54791cd2e144ec87b790a3bcdc9cef,Manville Tax Collector,RI,2020-02-01T00:00:00-05:00,2020-03-01T00:00:00-05:00,2838,30,31.5,"{""<5"":0,""5-20"":11,""21-60"":9,""61-240"":7,"">240"":3}",2275.5,41.967887,-71.471673,921190.0,RI,44.0,44007.0,Providence County,440070115002.0
11472,sg:51992fa0e83649598511d4946a943fc4,Dollar Tree,RI,2020-02-01T00:00:00-05:00,2020-03-01T00:00:00-05:00,2919,357,13.0,"{""<5"":7,""5-20"":229,""21-60"":78,""61-240"":29,"">240"":14}",13763.5,41.816013,-71.498429,452319.0,RI,44.0,44007.0,Providence County,440070122001.0
11497,sg:547287f25b59409e896e30f25dc982ac,Block H & R,RI,2020-02-01T00:00:00-05:00,2020-03-01T00:00:00-05:00,2895,49,54.0,"{""<5"":0,""5-20"":14,""21-60"":11,""61-240"":10,"">240"":14}",5485.5,42.010991,-71.465946,541213.0,RI,44.0,44007.0,Providence County,440070184001.0
11582,sg:5d867e149a784d52ba6392eeb4368a6d,Bold Point Park,RI,2020-02-01T00:00:00-05:00,2020-03-01T00:00:00-05:00,2903,43,17.0,"{""<5"":0,""5-20"":25,""21-60"":6,""61-240"":10,"">240"":2}",2540.5,41.815222,-71.390761,712190.0,RI,44.0,44007.0,Providence County,440070037002.0
11638,sg:62a232e75089416aac9924215c844cbc,Dialysis Centers of Rhode Island & Massachusetts,RI,2020-02-01T00:00:00-05:00,2020-03-01T00:00:00-05:00,2914,196,183.0,"{""<5"":4,""5-20"":29,""21-60"":16,""61-240"":63,"">240"":84}",30662.0,41.820638,-71.368464,621492.0,RI,44.0,44007.0,Providence County,440070102003.0
11973,sg:832308a6f399425d9c743d9bdf53b457,The Light House Preschool,RI,2020-02-01T00:00:00-05:00,2020-03-01T00:00:00-05:00,2889,61,11.0,"{""<5"":3,""5-20"":30,""21-60"":10,""61-240"":6,"">240"":12}",4570.5,41.733176,-71.404553,624410.0,RI,44.0,44003.0,Kent County,440030214021.0
12411,sg:af3db8f3ec4b49a192f406fca6de4c0c,Pots And Kettles,RI,2020-02-01T00:00:00-05:00,2020-03-01T00:00:00-05:00,2807,34,58.5,"{""<5"":0,""5-20"":10,""21-60"":8,""61-240"":6,"">240"":10}",3752.0,41.17286,-71.561651,722515.0,RI,44.0,44009.0,Washington County,440090415001.0
12424,sg:b0dbaab07d7c4119a2e5edc68c3b64c3,Frerichs,RI,2020-02-01T00:00:00-05:00,2020-03-01T00:00:00-05:00,2885,5,8.0,"{""<5"":1,""5-20"":2,""21-60"":1,""61-240"":0,"">240"":1}",308.0,41.736763,-71.259677,445230.0,RI,44.0,44001.0,Bristol County,440010306012.0
12592,sg:c0842bf3d93b4ebc83816645d71c9a95,B.GOOD,RI,2020-02-01T00:00:00-05:00,2020-03-01T00:00:00-05:00,2920,208,21.0,"{""<5"":5,""5-20"":89,""21-60"":77,""61-240"":26,"">240"":11}",10796.5,41.762921,-71.45781600000001,722513.0,RI,44.0,44007.0,Providence County,440070139002.0
12652,sg:c6f19a8a8055465193a601cc0d87e2e6,Hypertension & Nephrology,RI,2020-02-01T00:00:00-05:00,2020-03-01T00:00:00-05:00,2904,83,46.0,"{""<5"":0,""5-20"":18,""21-60"":33,""61-240"":25,"">240"":7}",7004.0,41.850319,-71.403684,621111.0,RI,44.0,44007.0,Providence County,440070033004.0
12680,sg:ca7d317c18924258b85d1b63932a38cd,Licata Paul Dr,RI,2020-02-01T00:00:00-05:00,2020-03-01T00:00:00-05:00,2891,41,41.0,"{""<5"":1,""5-20"":12,""21-60"":10,""61-240"":16,"">240"":2}",3445.5,41.344516999999996,-71.816913,621111.0,RI,44.0,44009.0,Washington County,440090508022.0
13099,sg:f3dd5adba028492aadd9367e90a27efd,Advance Auto Parts,RI,2020-02-01T00:00:00-05:00,2020-03-01T00:00:00-05:00,2896,34,8.0,"{""<5"":3,""5-20"":24,""21-60"":5,""61-240"":1,"">240"":1}",900.5,41.985209000000005,-71.52144,441310.0,RI,44.0,44007.0,Providence County,440070128022.0
13255,sg:04ae4ed97f54429a8433e70093100a89,El Taco Loco Restaurant,RI,2020-02-01T00:00:00-05:00,2020-03-01T00:00:00-05:00,2863,272,73.0,"{""<5"":6,""5-20"":67,""21-60"":54,""61-240"":74,"">240"":71}",31216.5,41.891713,-71.392719,722511.0,RI,44.0,44007.0,Providence County,440070109002.0
13754,sg:3741737df6bd4d108d4bcc7e70a05e41,Stadium School,RI,2020-02-01T00:00:00-05:00,2020-03-01T00:00:00-05:00,2910,200,32.0,"{""<5"":1,""5-20"":66,""21-60"":48,""61-240"":47,"">240"":38}",18965.0,41.789088,-71.447039,611110.0,RI,44.0,44007.0,Providence County,440070140003.0
14409,sg:71d9c011de974579b8874801ac902113,American Plating Company,RI,2020-02-01T00:00:00-05:00,2020-03-01T00:00:00-05:00,2910,87,299.0,"{""<5"":0,""5-20"":7,""21-60"":10,""61-240"":23,"">240"":47}",15234.0,41.766159,-71.41794399999999,448310.0,RI,44.0,44007.0,Providence County,440070136002.0
14708,sg:8d48b4cd69ba4644b853388ed2de895e,Brickyard Pizza,RI,2020-02-01T00:00:00-05:00,2020-03-01T00:00:00-05:00,2806,27,29.0,"{""<5"":0,""5-20"":9,""21-60"":15,""61-240"":3,"">240"":0}",1171.5,41.739706,-71.310247,722511.0,RI,44.0,44001.0,Bristol County,440010302003.0
14967,sg:a6c833317e1544d6bd6ec1928c2c4405,Pierce Imports,RI,2020-02-01T00:00:00-05:00,2020-03-01T00:00:00-05:00,2879,22,57.0,"{""<5"":0,""5-20"":2,""21-60"":9,""61-240"":4,"">240"":7}",2671.5,41.467766,-71.511556,811111.0,RI,44.0,44009.0,Washington County,440090513051.0
15092,sg:b3289d79b86348d386f9e8034211cc1a,Roy's Body Shop,RI,2020-02-01T00:00:00-05:00,2020-03-01T00:00:00-05:00,2895,13,78.0,"{""<5"":0,""5-20"":3,""21-60"":2,""61-240"":2,"">240"":6}",1859.5,42.017415,-71.497431,811121.0,MA,25.0,25021.0,Norfolk County,250214431025.0
16018,sg:14396a03c7fc49d38a9eb06a5d64ddec,White City Shopping Center,RI,2020-02-01T00:00:00-05:00,2020-03-01T00:00:00-05:00,2906,32,61.0,"{""<5"":0,""5-20"":3,""21-60"":12,""61-240"":13,"">240"":4}",3440.0,41.828157,-71.387186,531120.0,RI,44.0,44007.0,Providence County,440070035003.0
16143,sg:1f5a82ae819b4012928b0dfcd18aece1,Chester's Serv Sta,RI,2020-02-01T00:00:00-05:00,2020-03-01T00:00:00-05:00,2917,26,229.5,"{""<5"":1,""5-20"":4,""21-60"":2,""61-240"":7,"">240"":12}",4067.0,41.886662,-71.484259,447110.0,RI,44.0,44007.0,Providence County,440070126026.0
16280,sg:2b6df253259b4124a23064800b67456b,Lovely Lash,RI,2020-02-01T00:00:00-05:00,2020-03-01T00:00:00-05:00,2917,13,267.0,"{""<5"":0,""5-20"":0,""21-60"":0,""61-240"":5,"">240"":8}",2672.5,41.869176,-71.509732,812112.0,RI,44.0,44007.0,Providence County,440070126023.0
17757,sg:bad5e1e3e90f4661879065936b1f36eb,DiStefano Bros Construction,RI,2020-02-01T00:00:00-05:00,2020-03-01T00:00:00-05:00,2879,23,11.0,"{""<5"":0,""5-20"":15,""21-60"":6,""61-240"":2,"">240"":0}",731.5,41.436709,-71.50214,444130.0,RI,44.0,44009.0,Washington County,440090512023.0
18247,sg:e8c153c77c0641fab55fa4c3857e8bfa,Shaw's,RI,2020-02-01T00:00:00-05:00,2020-03-01T00:00:00-05:00,2915,858,14.0,"{""<5"":26,""5-20"":519,""21-60"":222,""61-240"":78,"">240"":13}",30402.5,41.759982,-71.343775,445110.0,RI,44.0,44007.0,Providence County,440070107023.0
18268,sg:ea97d901b3c040b8bb7c83677c6b250e,CPM Auto Care,RI,2020-02-01T00:00:00-05:00,2020-03-01T00:00:00-05:00,2816,69,37.0,"{""<5"":4,""5-20"":22,""21-60"":11,""61-240"":24,"">240"":8}",6262.5,41.679368,-71.576551,441310.0,RI,44.0,44003.0,Kent County,440030206033.0
18509,sg:04dc6c51ea2843729c02aad6f10893c5,Immaculate Conception Church,RI,2020-02-01T00:00:00-05:00,2020-03-01T00:00:00-05:00,2891,261,45.0,"{""<5"":8,""5-20"":47,""21-60"":122,""61-240"":78,"">240"":6}",18727.5,41.38115,-71.825236,813110.0,RI,44.0,44009.0,Washington County,440090508014.0
18518,sg:059f939829164dc09ab75d9709900c6a,Sneaker Junkies,RI,2020-02-01T00:00:00-05:00,2020-03-01T00:00:00-05:00,2906,2,9.5,"{""<5"":0,""5-20"":2,""21-60"":0,""61-240"":0,"">240"":0}",25.0,41.829896000000005,-71.401071,448210.0,RI,44.0,44007.0,Providence County,440070036023.0
18785,sg:20c6919a555a48e8a7acc083a340d42a,Rosalina,RI,2020-02-01T00:00:00-05:00,2020-03-01T00:00:00-05:00,2903,127,63.0,"{""<5"":3,""5-20"":17,""21-60"":36,""61-240"":68,"">240"":3}",12632.0,41.821988,-71.415767,722511.0,RI,44.0,44007.0,Providence County,440070008003.0
19287,sg:4f32f721234548af9c63fbc6a9a27dad,HealthSource,RI,2020-02-01T00:00:00-05:00,2020-03-01T00:00:00-05:00,2905,331,20.0,"{""<5"":9,""5-20"":158,""21-60"":65,""61-240"":83,"">240"":16}",20961.5,41.799778,-71.40526899999999,621310.0,RI,44.0,44007.0,Providence County,440070006001.0
19305,sg:51359dba6013449d99a684e8585b81c3,Block Island Club,RI,2020-02-01T00:00:00-05:00,2020-03-01T00:00:00-05:00,2807,8,237.0,"{""<5"":0,""5-20"":0,""21-60"":0,""61-240"":4,"">240"":4}",1562.0,41.201369,-71.57040699999999,713910.0,RI,44.0,44009.0,Washington County,440090415002.0
19431,sg:5db2c21e71f04ecdbb3d56aac8b3bd85,Antonio's Pizza,RI,2020-02-01T00:00:00-05:00,2020-03-01T00:00:00-05:00,2840,225,36.0,"{""<5"":3,""5-20"":62,""21-60"":100,""61-240"":45,"">240"":15}",15205.0,41.507333,-71.318411,722511.0,RI,44.0,44005.0,Newport County,440050405001.0
20180,sg:a7524ecc30c241589a020239c49991e0,Gutierrez barber shop,RI,2020-02-01T00:00:00-05:00,2020-03-01T00:00:00-05:00,2920,41,65.0,"{""<5"":0,""5-20"":9,""21-60"":11,""61-240"":14,"">240"":7}",4345.0,41.792684,-71.451739,812112.0,RI,44.0,44007.0,Providence County,440070147002.0
20181,sg:a784303b2ef24d25beb42bf8cd0d4cc2,Tony's Pizza Palace,RI,2020-02-01T00:00:00-05:00,2020-03-01T00:00:00-05:00,2917,62,10.0,"{""<5"":6,""5-20"":34,""21-60"":10,""61-240"":6,"">240"":6}",3188.0,41.897189000000004,-71.544552,722511.0,RI,44.0,44007.0,Providence County,440070127011.0
20578,sg:d156c67add5a4044a4113a80dca18423,Next Flush,RI,2020-02-01T00:00:00-05:00,2020-03-01T00:00:00-05:00,2895,196,30.5,"{""<5"":5,""5-20"":75,""21-60"":45,""61-240"":36,"">240"":35}",16590.5,42.000502000000004,-71.525596,444130.0,RI,44.0,44007.0,Providence County,440070174002.0
20612,sg:d486fb9edd8b4236be7c9c9dec9d35ce,Memorial Park,RI,2020-02-01T00:00:00-05:00,2020-03-01T00:00:00-05:00,2919,1223,38.0,"{""<5"":30,""5-20"":422,""21-60"":313,""61-240"":335,"">240"":123}",97964.0,41.828245,-71.505188,712190.0,RI,44.0,44007.0,Providence County,440070124014.0
20760,sg:e4b46be27899461092356f16f6403366,The Happy Tails Pet Lodge,RI,2020-02-01T00:00:00-05:00,2020-03-01T00:00:00-05:00,2817,9,8.0,"{""<5"":0,""5-20"":8,""21-60"":1,""61-240"":0,"">240"":0}",140.5,41.658322999999996,-71.653697,812910.0,RI,44.0,44003.0,Kent County,440030208002.0
21296,sg:190927535ea649868732044f3faebda7,Studio 204,RI,2020-02-01T00:00:00-05:00,2020-03-01T00:00:00-05:00,2885,113,53.0,"{""<5"":0,""5-20"":34,""21-60"":29,""61-240"":37,"">240"":13}",10288.0,41.731833,-71.255909,812112.0,RI,44.0,44001.0,Bristol County,440010306012.0
21685,sg:3f70d236b947414694f1d9e7169164a1,CosmoProf,RI,2020-02-01T00:00:00-05:00,2020-03-01T00:00:00-05:00,2910,6,12.0,"{""<5"":0,""5-20"":5,""21-60"":1,""61-240"":0,"">240"":0}",103.0,41.780983,-71.439357,423850.0,RI,44.0,44007.0,Providence County,440070140001.0
21831,sg:4ddbcb6455e44abaa86d3abd18a7cc68,Maggies Restaurant,RI,2020-02-01T00:00:00-05:00,2020-03-01T00:00:00-05:00,2882,75,82.0,"{""<5"":2,""5-20"":18,""21-60"":13,""61-240"":22,"">240"":20}",8867.5,41.375038,-71.489582,722511.0,RI,44.0,44009.0,Washington County,440090515041.0
21968,sg:5b9e7aed97014c37abfa8eba3aae9b65,The Healing Garden,RI,2020-02-01T00:00:00-05:00,2020-03-01T00:00:00-05:00,2916,7,13.0,"{""<5"":0,""5-20"":5,""21-60"":0,""61-240"":1,"">240"":1}",453.0,41.832411,-71.36055400000001,621111.0,RI,44.0,44007.0,Providence County,440070103001.0
22134,sg:6a7d8d9286b748508006c76f5782c446,Volunteer Services For Animals,RI,2020-02-01T00:00:00-05:00,2020-03-01T00:00:00-05:00,2905,219,129.0,"{""<5"":3,""5-20"":43,""21-60"":38,""61-240"":62,"">240"":73}",28935.0,41.79325,-71.390419,453910.0,RI,44.0,44007.0,Providence County,440070001011.0
22209,sg:729794fcac3a4cbca891ba5b9e8e8536,Davies Service Center,RI,2020-02-01T00:00:00-05:00,2020-03-01T00:00:00-05:00,2889,161,296.0,"{""<5"":1,""5-20"":29,""21-60"":21,""61-240"":25,"">240"":85}",25378.0,41.718777,-71.376338,447110.0,RI,44.0,44003.0,Kent County,440030215012.0
22470,sg:8df0698373884fffbdd8f93dd192f911,Rocky Hill School,RI,2020-02-01T00:00:00-05:00,2020-03-01T00:00:00-05:00,2818,542,117.0,"{""<5"":6,""5-20"":119,""21-60"":69,""61-240"":154,"">240"":194}",74034.0,41.659177,-71.420784,611110.0,RI,44.0,44003.0,Kent County,440030224001.0
22485,sg:8f0cd9196418475a97201acb4646aa4b,Shell Oil,RI,2020-02-01T00:00:00-05:00,2020-03-01T00:00:00-05:00,2909,167,8.0,"{""<5"":13,""5-20"":108,""21-60"":19,""61-240"":24,"">240"":3}",6484.0,41.807656,-71.443322,447110.0,RI,44.0,44007.0,Providence County,440070016003.0
22794,sg:aa2a36242f174d7a86efdfebb0ebdd40,Anthony's Coal Fired Pizza,RI,2020-02-01T00:00:00-05:00,2020-03-01T00:00:00-05:00,2920,142,33.0,"{""<5"":6,""5-20"":41,""21-60"":46,""61-240"":47,"">240"":2}",9944.0,41.757799,-71.457883,722511.0,RI,44.0,44007.0,Providence County,440070139003.0
23967,sg:1f717acf8910423db8d5f9395e463445,Flowers By Bert & Peg,RI,2020-02-01T00:00:00-05:00,2020-03-01T00:00:00-05:00,2852,85,10.0,"{""<5"":5,""5-20"":48,""21-60"":23,""61-240"":8,"">240"":1}",2988.0,41.560356,-71.464713,453110.0,RI,44.0,44009.0,Washington County,440090503021.0
24140,sg:2f181785e02747e8a8704e0b6a95381d,Natco Products,RI,2020-02-01T00:00:00-05:00,2020-03-01T00:00:00-05:00,2893,209,193.0,"{""<5"":1,""5-20"":29,""21-60"":38,""61-240"":68,"">240"":73}",29658.0,41.698661,-71.525093,561740.0,RI,44.0,44003.0,Kent County,440030202003.0
24236,sg:37420473654f4c5096093cf44397dea5,SCOTT VOLKSWAGEN,RI,2020-02-01T00:00:00-05:00,2020-03-01T00:00:00-05:00,2914,423,14.0,"{""<5"":15,""5-20"":231,""21-60"":67,""61-240"":71,"">240"":39}",25684.0,41.821528,-71.351661,441110.0,RI,44.0,44007.0,Providence County,440070103002.0
25285,sg:9b22de1652914631ac25cba13ba04364,Hair We Are,RI,2020-02-01T00:00:00-05:00,2020-03-01T00:00:00-05:00,2895,3,641.0,"{""<5"":0,""5-20"":0,""21-60"":0,""61-240"":1,"">240"":2}",630.5,41.997122,-71.517184,812112.0,RI,44.0,44007.0,Providence County,440070178003.0
25325,sg:9e6eeb93a2424858b1858e7ade319aab,North East Action Sports,RI,2020-02-01T00:00:00-05:00,2020-03-01T00:00:00-05:00,2818,58,21.0,"{""<5"":2,""5-20"":23,""21-60"":20,""61-240"":8,"">240"":5}",3506.5,41.63599,-71.46859599999999,721110.0,RI,44.0,44003.0,Kent County,440030209042.0
25327,sg:9ea413df785643a8b888b71a060cd976,Main Street Motors,RI,2020-02-01T00:00:00-05:00,2020-03-01T00:00:00-05:00,2823,25,11.0,"{""<5"":1,""5-20"":14,""21-60"":8,""61-240"":1,"">240"":1}",892.0,41.733755,-71.54823499999999,,RI,44.0,44007.0,Providence County,440070132013.0
25690,sg:c28d5c72c60647149535e6e0e84006eb,Denise Shapiro DDS,RI,2020-02-01T00:00:00-05:00,2020-03-01T00:00:00-05:00,2906,23,121.0,"{""<5"":0,""5-20"":4,""21-60"":3,""61-240"":7,"">240"":9}",3385.0,41.831208000000004,-71.390046,621210.0,RI,44.0,44007.0,Providence County,440070035001.0
25809,sg:ccc66278fd2d4a6697f1f97a25c51485,Bapsang,RI,2020-02-01T00:00:00-05:00,2020-03-01T00:00:00-05:00,2852,112,22.0,"{""<5"":11,""5-20"":38,""21-60"":27,""61-240"":24,"">240"":12}",8088.0,41.629418,-71.462374,722511.0,RI,44.0,44009.0,Washington County,440090501041.0
25923,sg:d902d2c7a13f445bba31139733057d78,Sunoco,RI,2020-02-01T00:00:00-05:00,2020-03-01T00:00:00-05:00,2860,263,12.0,"{""<5"":14,""5-20"":149,""21-60"":55,""61-240"":23,"">240"":22}",12866.5,41.873521999999994,-71.38113299999999,447110.0,RI,44.0,44007.0,Providence County,440070167002.0
26471,sg:0ef8faa3f6ca49899cf65e1ebe1d0090,Pawtucket Wine and Spirits,RI,2020-02-01T00:00:00-05:00,2020-03-01T00:00:00-05:00,2861,99,12.0,"{""<5"":2,""5-20"":72,""21-60"":24,""61-240"":1,"">240"":0}",2027.5,41.888837,-71.367649,445310.0,RI,44.0,44007.0,Providence County,440070155003.0
26961,sg:3b75131616cf491f937189c285067195,Kid's Kingdom Arlington School,RI,2020-02-01T00:00:00-05:00,2020-03-01T00:00:00-05:00,2920,34,81.0,"{""<5"":1,""5-20"":14,""21-60"":1,""61-240"":3,"">240"":15}",4269.5,41.794101,-71.454931,624410.0,RI,44.0,44007.0,Providence County,440070147002.0
27123,sg:4b116cc7ca54402b8d360cc769b44ef0,New England Wireless & Steam Museum,RI,2020-02-01T00:00:00-05:00,2020-03-01T00:00:00-05:00,2818,10,530.5,"{""<5"":0,""5-20"":2,""21-60"":0,""61-240"":2,"">240"":6}",1766.0,41.624282,-71.513005,712110.0,RI,44.0,44003.0,Kent County,440030209033.0
27390,sg:64c8751158884773ae9fecbf2f51c587,RE Antiques and Interiors,RI,2020-02-01T00:00:00-05:00,2020-03-01T00:00:00-05:00,2852,252,31.0,"{""<5"":16,""5-20"":89,""21-60"":58,""61-240"":59,"">240"":30}",19581.0,41.593583,-71.45608399999999,453310.0,RI,44.0,44009.0,Washington County,440090501021.0
27507,sg:7260ec8f60e64cc89e6e300913c6ae0c,Elmwood Health Center,RI,2020-02-01T00:00:00-05:00,2020-03-01T00:00:00-05:00,2907,216,116.0,"{""<5"":2,""5-20"":42,""21-60"":24,""61-240"":103,"">240"":45}",27803.5,41.806761,-71.425405,623312.0,RI,44.0,44007.0,Providence County,440070003005.0
27839,sg:9098f44a0b244375bdd2bcc685b64255,Dot's Dairy Bar,RI,2020-02-01T00:00:00-05:00,2020-03-01T00:00:00-05:00,2861,32,20.5,"{""<5"":0,""5-20"":16,""21-60"":5,""61-240"":5,"">240"":6}",2595.0,41.89355,-71.354295,722515.0,RI,44.0,44007.0,Providence County,440070156001.0
28264,sg:bbe17ca591a340bbb9937aabf9a9dff2,Cumberland Farms,RI,2020-02-01T00:00:00-05:00,2020-03-01T00:00:00-05:00,2818,88,7.0,"{""<5"":6,""5-20"":66,""21-60"":8,""61-240"":7,"">240"":1}",2457.5,41.641067,-71.4688,447110.0,RI,44.0,44003.0,Kent County,440030209042.0
28548,sg:d8c25ac9f752446799a6343bdeb8f2e7,Wood River Golf,RI,2020-02-01T00:00:00-05:00,2020-03-01T00:00:00-05:00,2832,52,58.0,"{""<5"":1,""5-20"":14,""21-60"":11,""61-240"":13,"">240"":13}",5699.5,41.449375,-71.720924,713910.0,RI,44.0,44009.0,Washington County,440090507004.0
28642,sg:e134ec8729814844b7ddad8b7d14bea8,Coletta's Collision Center,RI,2020-02-01T00:00:00-05:00,2020-03-01T00:00:00-05:00,2905,49,30.0,"{""<5"":1,""5-20"":19,""21-60"":15,""61-240"":7,"">240"":7}",3581.0,41.805232000000004,-71.40329399999999,811121.0,RI,44.0,44007.0,Providence County,440070006001.0
28700,sg:e8584241f5d44c0cad2f9ee6182f6323,West Davisville Solar,RI,2020-02-01T00:00:00-05:00,2020-03-01T00:00:00-05:00,2852,12,43.5,"{""<5"":0,""5-20"":4,""21-60"":3,""61-240"":3,"">240"":2}",1103.0,41.603458,-71.47772900000001,221114.0,RI,44.0,44009.0,Washington County,440090501032.0
29000,sg:06c3b0ace30f4d44b1a1db38464e0292,CK Bradley,RI,2020-02-01T00:00:00-05:00,2020-03-01T00:00:00-05:00,2840,91,12.0,"{""<5"":3,""5-20"":54,""21-60"":15,""61-240"":11,"">240"":8}",4865.5,41.482955,-71.304839,448120.0,RI,44.0,44005.0,Newport County,440050408001.0
29466,sg:32dcb57e665446dc93bab2dc90023a52,Rhode Island Hot Yoga Providence,RI,2020-02-01T00:00:00-05:00,2020-03-01T00:00:00-05:00,2909,264,94.5,"{""<5"":3,""5-20"":60,""21-60"":43,""61-240"":107,"">240"":51}",30842.5,41.820778000000004,-71.441204,713940.0,RI,44.0,44007.0,Providence County,440070019006.0
30074,sg:6aeba6f851564ed7bdfe5bb16b63aa9c,High Maintenance Salon,RI,2020-02-01T00:00:00-05:00,2020-03-01T00:00:00-05:00,2920,21,213.0,"{""<5"":0,""5-20"":1,""21-60"":3,""61-240"":7,"">240"":10}",3587.5,41.79326,-71.474401,621610.0,RI,44.0,44007.0,Providence County,440070148001.0
30953,sg:c1b1c4c02d4b4ab29e9e5370a0cae9bc,DVSKIN by Donna Viti,RI,2020-02-01T00:00:00-05:00,2020-03-01T00:00:00-05:00,2886,2,7.5,"{""<5"":0,""5-20"":2,""21-60"":0,""61-240"":0,"">240"":0}",25.0,41.718271,-71.463385,446120.0,RI,44.0,44003.0,Kent County,440030221001.0
31176,sg:dac06ffd02174281ae959c8bc6b9928f,Ardoene Park,RI,2020-02-01T00:00:00-05:00,2020-03-01T00:00:00-05:00,2907,182,26.0,"{""<5"":8,""5-20"":71,""21-60"":52,""61-240"":36,"">240"":15}",12031.5,41.79048,-71.425413,712190.0,RI,44.0,44007.0,Providence County,440070015002.0
31179,sg:daea71ff211247da94e3631583123d31,University Mart,RI,2020-02-01T00:00:00-05:00,2020-03-01T00:00:00-05:00,2903,412,63.0,"{""<5"":12,""5-20"":122,""21-60"":68,""61-240"":92,"">240"":118}",46475.0,41.820765,-71.41470600000001,445110.0,RI,44.0,44007.0,Providence County,440070008003.0
31740,sg:1289625c8f7f480f854047e42d13ef30,Domain Decor,RI,2020-02-01T00:00:00-05:00,2020-03-01T00:00:00-05:00,2852,26,47.5,"{""<5"":0,""5-20"":10,""21-60"":4,""61-240"":6,"">240"":6}",2630.0,41.567799,-71.470878,442110.0,RI,44.0,44009.0,Washington County,440090503013.0
31927,sg:231ca73bba124409a1c9c40701c84636,Ching Tao Restaurant,RI,2020-02-01T00:00:00-05:00,2020-03-01T00:00:00-05:00,2842,32,744.5,"{""<5"":1,""5-20"":3,""21-60"":0,""61-240"":3,"">240"":25}",6491.5,41.513008,-71.302587,722511.0,RI,44.0,44005.0,Newport County,440050403021.0
31992,sg:280f17471fb84e53ba2ca8342d955874,El Paisa,RI,2020-02-01T00:00:00-05:00,2020-03-01T00:00:00-05:00,2863,317,33.0,"{""<5"":6,""5-20"":107,""21-60"":101,""61-240"":70,"">240"":33}",23898.0,41.885537,-71.395928,722511.0,RI,44.0,44007.0,Providence County,440070111002.0
32640,sg:659d1aace6144a3fad4b70844189caf0,Frey Florist & Greenhouse,RI,2020-02-01T00:00:00-05:00,2020-03-01T00:00:00-05:00,2908,349,127.0,"{""<5"":2,""5-20"":20,""21-60"":74,""61-240"":99,"">240"":154}",55111.5,41.838488,-71.431694,453110.0,RI,44.0,44007.0,Providence County,440070023001.0
33159,sg:97fc9ee793d04c83a2533decd72bf6a8,The Victorian Rose Day Spa,RI,2020-02-01T00:00:00-05:00,2020-03-01T00:00:00-05:00,2895,73,71.0,"{""<5"":0,""5-20"":25,""21-60"":8,""61-240"":18,"">240"":22}",8625.5,41.986118,-71.51592600000001,812990.0,RI,44.0,44007.0,Providence County,440070175003.0
33167,sg:99219cc72284458297b33b127ff6f88f,Sunrise Restaurant,RI,2020-02-01T00:00:00-05:00,2020-03-01T00:00:00-05:00,2842,121,54.0,"{""<5"":1,""5-20"":31,""21-60"":34,""61-240"":44,"">240"":11}",11029.0,41.524904,-71.296892,722511.0,RI,44.0,44005.0,Newport County,440050403042.0
33443,sg:b43a561daa904c7b9468f5b8e9bb10bd,Jonathan Tire Shop,RI,2020-02-01T00:00:00-05:00,2020-03-01T00:00:00-05:00,2895,11,13.0,"{""<5"":0,""5-20"":7,""21-60"":3,""61-240"":1,"">240"":0}",359.5,42.005523,-71.51737,441310.0,RI,44.0,44007.0,Providence County,440070180002.0
33556,sg:bef1e7ac52e84eb99ff3cf63af4e309d,Toni Marine Sales & Service,RI,2020-02-01T00:00:00-05:00,2020-03-01T00:00:00-05:00,2842,44,26.5,"{""<5"":1,""5-20"":19,""21-60"":10,""61-240"":13,"">240"":1}",2841.5,41.523255999999996,-71.297864,441222.0,RI,44.0,44005.0,Newport County,440050403042.0
34066,sg:f2f9dfef261146539262af44a17ed7e8,Milk & More,RI,2020-02-01T00:00:00-05:00,2020-03-01T00:00:00-05:00,2910,434,40.0,"{""<5"":18,""5-20"":153,""21-60"":90,""61-240"":109,"">240"":64}",37367.0,41.784045,-71.452525,445110.0,RI,44.0,44007.0,Providence County,440070140004.0
34521,sg:205e075cc3084a63acfe2255e584881a,MrsMay,RI,2020-02-01T00:00:00-05:00,2020-03-01T00:00:00-05:00,2888,35,8.0,"{""<5"":4,""5-20"":29,""21-60"":2,""61-240"":0,"">240"":0}",453.5,41.752353,-71.415476,446120.0,RI,44.0,44003.0,Kent County,440030212001.0
34660,sg:2c0b3ea2b961473e86d642381aefbc13,Newport Chiropractic Center,RI,2020-02-01T00:00:00-05:00,2020-03-01T00:00:00-05:00,2840,2,47.0,"{""<5"":0,""5-20"":0,""21-60"":1,""61-240"":1,"">240"":0}",191.0,41.494465000000005,-71.308734,621310.0,RI,44.0,44005.0,Newport County,440050406003.0
34703,sg:3001108a57f447e8885eff5eddadbc18,New Asian Market,RI,2020-02-01T00:00:00-05:00,2020-03-01T00:00:00-05:00,2907,68,10.5,"{""<5"":3,""5-20"":45,""21-60"":13,""61-240"":7,"">240"":0}",2150.0,41.814156,-71.42194,445110.0,RI,44.0,44007.0,Providence County,440070012001.0
34755,sg:358418f975db49598e8c7a9f061cb091,Craft Burgers and Beer,RI,2020-02-01T00:00:00-05:00,2020-03-01T00:00:00-05:00,2860,339,61.0,"{""<5"":3,""5-20"":67,""21-60"":99,""61-240"":105,"">240"":65}",36257.0,41.869489,-71.38683499999999,722511.0,RI,44.0,44007.0,Providence County,440070166001.0
34762,sg:3641071462b04705b72c14ef5555271c,Benchmark Assisted Living,RI,2020-02-01T00:00:00-05:00,2020-03-01T00:00:00-05:00,2888,60,77.5,"{""<5"":1,""5-20"":13,""21-60"":16,""61-240"":27,"">240"":3}",5596.5,41.739913,-71.42879,621610.0,RI,44.0,44003.0,Kent County,440030211003.0
35655,sg:8e640ceca5d9423dbe5e8f77a72bf550,Hema Eyebrow Threading,RI,2020-02-01T00:00:00-05:00,2020-03-01T00:00:00-05:00,2914,156,48.5,"{""<5"":2,""5-20"":37,""21-60"":45,""61-240"":52,"">240"":20}",14916.0,41.819656,-71.367515,446120.0,RI,44.0,44007.0,Providence County,440070102004.0
35772,sg:9896a20cb6cb4372be960b73873728e3,Something's Brewing,RI,2020-02-01T00:00:00-05:00,2020-03-01T00:00:00-05:00,2852,19,48.0,"{""<5"":0,""5-20"":4,""21-60"":6,""61-240"":3,"">240"":6}",2184.5,41.595201,-71.455294,722515.0,RI,44.0,44009.0,Washington County,440090501021.0
35929,sg:a7fb190c049f4f249aff3d0b43f2355e,DrDuffs Lost &amp Found Project,RI,2020-02-01T00:00:00-05:00,2020-03-01T00:00:00-05:00,2919,104,55.5,"{""<5"":1,""5-20"":16,""21-60"":42,""61-240"":39,"">240"":6}",9213.0,41.866178999999995,-71.501848,722511.0,,,,,
36947,sg:0d2c460548ac4634b635475d7afa1ad1,Cohen Heating Supply,RI,2020-02-01T00:00:00-05:00,2020-03-01T00:00:00-05:00,2908,92,20.0,"{""<5"":2,""5-20"":45,""21-60"":22,""61-240"":18,"">240"":5}",5367.5,41.831171000000005,-71.42443399999999,444130.0,RI,44.0,44007.0,Providence County,440070025002.0
37399,sg:34d6867d0c944465ab3d26e502e2cff7,Sher Le Mon Swim Club,RI,2020-02-01T00:00:00-05:00,2020-03-01T00:00:00-05:00,2864,1142,42.0,"{""<5"":18,""5-20"":270,""21-60"":423,""61-240"":369,"">240"":62}",90966.0,41.965603,-71.445359,712190.0,RI,44.0,44007.0,Providence County,440070114015.0
37759,sg:55a3c516c24141708190d1b8f222f501,Intuitive Touch Massage,RI,2020-02-01T00:00:00-05:00,2020-03-01T00:00:00-05:00,2852,17,37.0,"{""<5"":0,""5-20"":6,""21-60"":4,""61-240"":2,"">240"":5}",1738.0,41.587785,-71.46558,812199.0,RI,44.0,44009.0,Washington County,440090503012.0
38537,sg:a4839d4eb36640259b8a15e7454abd0d,The Inside Scoop,RI,2020-02-01T00:00:00-05:00,2020-03-01T00:00:00-05:00,2852,79,169.0,"{""<5"":1,""5-20"":17,""21-60"":8,""61-240"":22,"">240"":31}",11290.0,41.566179999999996,-71.464866,722515.0,RI,44.0,44009.0,Washington County,440090503013.0
39051,sg:d5840a5cfa5247e1a520a83acd567bce,Crazy Computers,RI,2020-02-01T00:00:00-05:00,2020-03-01T00:00:00-05:00,2885,42,22.0,"{""<5"":2,""5-20"":18,""21-60"":12,""61-240"":5,"">240"":5}",2668.5,41.730056,-71.27666500000001,443142.0,RI,44.0,44001.0,Bristol County,440010305001.0
39095,sg:da68f225aa89429492b6c4b6d4f0732d,Yris Bridal Design,RI,2020-02-01T00:00:00-05:00,2020-03-01T00:00:00-05:00,2893,45,236.0,"{""<5"":1,""5-20"":8,""21-60"":3,""61-240"":12,"">240"":21}",7070.0,41.715098,-71.523341,448120.0,RI,44.0,44003.0,Kent County,440030203002.0
39815,sg:23e15842fbe84b9ebd618d5e670f8ad4,KNEAD Doughnuts,RI,2020-02-01T00:00:00-05:00,2020-03-01T00:00:00-05:00,2907,293,91.0,"{""<5"":7,""5-20"":58,""21-60"":52,""61-240"":83,"">240"":93}",37660.0,41.809031,-71.426036,722515.0,RI,44.0,44007.0,Providence County,440070012003.0
40132,sg:41292ca6e3f94889b737220de21bbafa,Brigido's Marketplace,RI,2020-02-01T00:00:00-05:00,2020-03-01T00:00:00-05:00,2857,78,11.0,"{""<5"":1,""5-20"":59,""21-60"":15,""61-240"":3,"">240"":0}",1799.0,41.836827,-71.574075,445110.0,RI,44.0,44007.0,Providence County,440070132011.0
40600,sg:6c3c4bdc664d4ac09e5a0393a433147a,Yes Gallery,RI,2020-02-01T00:00:00-05:00,2020-03-01T00:00:00-05:00,2852,51,10.0,"{""<5"":6,""5-20"":32,""21-60"":7,""61-240"":5,"">240"":1}",1691.0,41.569175,-71.452554,452319.0,RI,44.0,44009.0,Washington County,440090503023.0
40660,sg:70ef08be73a64c219ae28056ce55bc69,Providence Eye Associates,RI,2020-02-01T00:00:00-05:00,2020-03-01T00:00:00-05:00,2908,454,74.5,"{""<5"":4,""5-20"":91,""21-60"":108,""61-240"":151,"">240"":100}",52247.0,41.836271999999994,-71.434197,621111.0,RI,44.0,44007.0,Providence County,440070023002.0
40696,sg:7411fba2b25d44f8ac446f20498d956c,Coastal Eye Associates,RI,2020-02-01T00:00:00-05:00,2020-03-01T00:00:00-05:00,2891,295,27.0,"{""<5"":10,""5-20"":102,""21-60"":110,""61-240"":58,"">240"":15}",18084.0,41.362241999999995,-71.827177,446130.0,RI,44.0,44009.0,Washington County,440090508022.0
40783,sg:7d2f30e3b2484f3a9b63a58922e3be96,United States Postal Service (USPS),RI,2020-02-01T00:00:00-05:00,2020-03-01T00:00:00-05:00,2894,17,330.0,"{""<5"":1,""5-20"":3,""21-60"":3,""61-240"":0,"">240"":10}",2561.5,41.437604,-71.693781,491110.0,RI,44.0,44009.0,Washington County,440090506002.0
41370,sg:b7830b8a12c846fcb7ad39e096f92199,East St Park,RI,2020-02-01T00:00:00-05:00,2020-03-01T00:00:00-05:00,2903,140,59.5,"{""<5"":2,""5-20"":36,""21-60"":33,""61-240"":35,"">240"":34}",15219.0,41.819705,-71.392227,712190.0,RI,44.0,44007.0,Providence County,440070037002.0
41399,sg:ba20a178136d43eea5d8b5831bf97e2a,Manic Training East Greenwich,RI,2020-02-01T00:00:00-05:00,2020-03-01T00:00:00-05:00,2818,537,60.0,"{""<5"":8,""5-20"":99,""21-60"":170,""61-240"":226,"">240"":34}",50315.5,41.60562,-71.496205,713940.0,RI,44.0,44003.0,Kent County,440030209032.0
41657,sg:d37e3cb6d1b8451b93e5de88fbe04105,TKO Fitness,RI,2020-02-01T00:00:00-05:00,2020-03-01T00:00:00-05:00,2878,290,62.0,"{""<5"":3,""5-20"":21,""21-60"":111,""61-240"":145,"">240"":10}",28988.0,41.665059,-71.18856600000001,713940.0,RI,44.0,44005.0,Newport County,440050416012.0
41806,sg:e30e8604b8c2496aad2350084cc33b86,Richardson Park,RI,2020-02-01T00:00:00-05:00,2020-03-01T00:00:00-05:00,2919,1252,43.0,"{""<5"":22,""5-20"":337,""21-60"":358,""61-240"":434,"">240"":101}",108323.5,41.797267,-71.409767,712190.0,RI,44.0,44007.0,Providence County,440070005003.0
41816,sg:e41688f923674d18b97053f2bdcd9436,Kenyon's Grist Mill,RI,2020-02-01T00:00:00-05:00,2020-03-01T00:00:00-05:00,2892,17,79.0,"{""<5"":1,""5-20"":4,""21-60"":3,""61-240"":5,"">240"":4}",1886.5,41.504215,-71.608419,445110.0,RI,44.0,44009.0,Washington County,440090513061.0
42172,sg:081e93be3c0d4d218d48c30c5179bf96,Birch,RI,2020-02-01T00:00:00-05:00,2020-03-01T00:00:00-05:00,2903,52,21.5,"{""<5"":5,""5-20"":19,""21-60"":12,""61-240"":16,"">240"":0}",3144.0,41.82202,-71.416012,722511.0,RI,44.0,44007.0,Providence County,440070008003.0
42644,sg:3302bc478db04d50b909e48237dc5eb3,Autowizard Inc,RI,2020-02-01T00:00:00-05:00,2020-03-01T00:00:00-05:00,2828,40,60.5,"{""<5"":1,""5-20"":11,""21-60"":8,""61-240"":20,"">240"":0}",3474.0,41.866554,-71.53691500000001,811111.0,RI,44.0,44007.0,Providence County,440070127021.0
42686,sg:363ff8226297405d98e99793a21a07b7,Rhode Island Guns & Ammo,RI,2020-02-01T00:00:00-05:00,2020-03-01T00:00:00-05:00,2888,1,6.0,"{""<5"":0,""5-20"":1,""21-60"":0,""61-240"":0,"">240"":0}",12.5,41.747426000000004,-71.425232,451110.0,RI,44.0,44003.0,Kent County,440030211001.0
42793,sg:406262df86e54f7d9339e8844e0413fc,Complete Car Care,RI,2020-02-01T00:00:00-05:00,2020-03-01T00:00:00-05:00,2885,3,16.0,"{""<5"":0,""5-20"":2,""21-60"":0,""61-240"":0,"">240"":1}",265.0,41.743934,-71.272689,811192.0,RI,44.0,44001.0,Bristol County,440010306011.0
42875,sg:4652429334e34cb49c20a3fcd2b0f9d7,Hill and Harbor Cigar Lounge,RI,2020-02-01T00:00:00-05:00,2020-03-01T00:00:00-05:00,2818,61,78.0,"{""<5"":2,""5-20"":11,""21-60"":14,""61-240"":22,"">240"":12}",6900.5,41.656568,-71.45229599999999,453991.0,RI,44.0,44003.0,Kent County,440030209011.0
42989,sg:517e853ff4a8413588fe16250aa46d04,Gearhead DIY Super Center,RI,2020-02-01T00:00:00-05:00,2020-03-01T00:00:00-05:00,2889,3,211.0,"{""<5"":0,""5-20"":0,""21-60"":0,""61-240"":2,"">240"":1}",541.0,41.701429,-71.398544,811111.0,RI,44.0,44003.0,Kent County,440030218002.0
43063,sg:57effc60b2de47218d9d21f6baebc9a3,RI Pole Space,RI,2020-02-01T00:00:00-05:00,2020-03-01T00:00:00-05:00,2865,76,30.0,"{""<5"":1,""5-20"":26,""21-60"":29,""61-240"":14,"">240"":6}",5049.0,41.893578999999995,-71.408107,713940.0,RI,44.0,44007.0,Providence County,440070117021.0
43351,sg:72443970978641959c0869466992fb67,Taproot Brewing Co Newport Vineyards,RI,2020-02-01T00:00:00-05:00,2020-03-01T00:00:00-05:00,2842,43,91.0,"{""<5"":0,""5-20"":7,""21-60"":10,""61-240"":20,"">240"":6}",4942.5,41.529309000000005,-71.272643,312120.0,RI,44.0,44005.0,Newport County,440050404001.0
43703,sg:93002aeb06194b999ca2074f88bf81da,Cracker Barrel,RI,2020-02-01T00:00:00-05:00,2020-03-01T00:00:00-05:00,2816,641,52.0,"{""<5"":4,""5-20"":77,""21-60"":294,""61-240"":221,"">240"":45}",56940.0,41.661095,-71.546461,722511.0,RI,44.0,44003.0,Kent County,440030209031.0
43853,sg:a3df741f004046d69bfcf4e9c55a4024,Dunkin',RI,2020-02-01T00:00:00-05:00,2020-03-01T00:00:00-05:00,2891,121,9.0,"{""<5"":15,""5-20"":63,""21-60"":22,""61-240"":18,"">240"":3}",5145.0,41.367891,-71.81869,722515.0,RI,44.0,44009.0,Washington County,440090508021.0
43984,sg:b0082872e6a34da187724a25b16a41db,BoneBuilders of RI,RI,2020-02-01T00:00:00-05:00,2020-03-01T00:00:00-05:00,2828,320,144.0,"{""<5"":2,""5-20"":40,""21-60"":60,""61-240"":145,"">240"":73}",42277.5,41.880767999999996,-71.571965,713940.0,RI,44.0,44007.0,Providence County,440070127013.0
44133,sg:bda6da23cee040419adec7744b91804b,Cultro,RI,2020-02-01T00:00:00-05:00,2020-03-01T00:00:00-05:00,2885,49,70.0,"{""<5"":2,""5-20"":10,""21-60"":12,""61-240"":17,"">240"":8}",5094.5,41.725204,-71.281873,722511.0,RI,44.0,44001.0,Bristol County,440010305003.0
44618,sg:eb43af2d0ce645a98f9d7d32f63b33dd,West Marine,RI,2020-02-01T00:00:00-05:00,2020-03-01T00:00:00-05:00,2882,20,10.0,"{""<5"":0,""5-20"":18,""21-60"":1,""61-240"":0,"">240"":1}",505.5,41.430414,-71.484883,441222.0,RI,44.0,44009.0,Washington County,440090515044.0
44845,sg:02ae310174254d56badfa8cfbc733f52,Munro Dugald H,RI,2020-02-01T00:00:00-05:00,2020-03-01T00:00:00-05:00,2915,261,32.0,"{""<5"":6,""5-20"":65,""21-60"":123,""61-240"":44,"">240"":23}",17951.0,41.773402000000004,-71.326575,446130.0,RI,44.0,44007.0,Providence County,440070107011.0
45065,sg:165f0af9145f41ffac3d337a5e527f14,Lucky Bait and Tackle,RI,2020-02-01T00:00:00-05:00,2020-03-01T00:00:00-05:00,2885,79,119.0,"{""<5"":2,""5-20"":15,""21-60"":14,""61-240"":26,"">240"":22}",9952.5,41.736446,-71.274084,451110.0,RI,44.0,44001.0,Bristol County,440010306011.0
46678,sg:af5f676e4a5d42828d4cc1bed9c7c2d3,Lincoln Tax Services of RI,RI,2020-02-01T00:00:00-05:00,2020-03-01T00:00:00-05:00,2865,23,44.0,"{""<5"":1,""5-20"":6,""21-60"":9,""61-240"":6,"">240"":1}",1585.0,41.934692999999996,-71.457021,541213.0,RI,44.0,44007.0,Providence County,440070116004.0
46843,sg:bee7f9a25da446fd9a52fb8390b84981,Dunkin',RI,2020-02-01T00:00:00-05:00,2020-03-01T00:00:00-05:00,2889,266,7.0,"{""<5"":36,""5-20"":169,""21-60"":14,""61-240"":25,"">240"":22}",11812.0,41.711608,-71.39764,722515.0,RI,44.0,44003.0,Kent County,440030218001.0
47022,sg:d0c3d41fa760432fb0c695694444a968,The Country Mutt,RI,2020-02-01T00:00:00-05:00,2020-03-01T00:00:00-05:00,2857,361,10.0,"{""<5"":40,""5-20"":160,""21-60"":54,""61-240"":76,"">240"":31}",23165.0,41.832178000000006,-71.587666,453910.0,RI,44.0,44007.0,Providence County,440070132012.0
47732,sg:169a730916ff4057a6daadfa092bb1fd,Sunoco,RI,2020-02-01T00:00:00-05:00,2020-03-01T00:00:00-05:00,2830,177,9.0,"{""<5"":23,""5-20"":96,""21-60"":41,""61-240"":14,"">240"":3}",5745.0,41.977711,-71.61455699999999,447110.0,RI,44.0,44007.0,Providence County,440070130021.0
47823,sg:1ced765d7af14df1b805c9515f97863d,Subway,RI,2020-02-01T00:00:00-05:00,2020-03-01T00:00:00-05:00,2860,163,25.0,"{""<5"":7,""5-20"":67,""21-60"":26,""61-240"":41,"">240"":22}",13358.5,41.871697,-71.413117,722513.0,RI,44.0,44007.0,Providence County,440070150001.0
47928,sg:255e50b9eb1a4013a3ec7bbfc9b2b4f6,Cozy Quarters Pet Inn,RI,2020-02-01T00:00:00-05:00,2020-03-01T00:00:00-05:00,2896,29,279.0,"{""<5"":1,""5-20"":5,""21-60"":5,""61-240"":3,"">240"":15}",4319.0,41.953886,-71.490997,453910.0,RI,44.0,44007.0,Providence County,440070128032.0
48240,sg:3f6845dabca740b2b2f7e0786c682283,Coastway Bank,RI,2020-02-01T00:00:00-05:00,2020-03-01T00:00:00-05:00,2921,3,9.0,"{""<5"":0,""5-20"":3,""21-60"":0,""61-240"":0,"">240"":0}",37.5,41.783482,-71.515013,522110.0,RI,44.0,44007.0,Providence County,440070146002.0
48764,sg:6f5338ae61bf452ebdac1f5b83e71b8c,NBX Bikes of East Providence,RI,2020-02-01T00:00:00-05:00,2020-03-01T00:00:00-05:00,2914,126,20.0,"{""<5"":5,""5-20"":59,""21-60"":33,""61-240"":25,"">240"":4}",6809.0,41.813227000000005,-71.366654,451110.0,RI,44.0,44007.0,Providence County,440070104001.0
48959,sg:83c10f58332e4e41855ccf1405954d72,Studio101,RI,2020-02-01T00:00:00-05:00,2020-03-01T00:00:00-05:00,2903,16,47.5,"{""<5"":0,""5-20"":6,""21-60"":2,""61-240"":8,"">240"":0}",1360.0,41.822537,-71.4094,812112.0,RI,44.0,44007.0,Providence County,440070008003.0
49283,sg:a231d01c3ff34a18a59d49bdf208b8ba,Dear Hearts Iii,RI,2020-02-01T00:00:00-05:00,2020-03-01T00:00:00-05:00,2889,24,16.5,"{""<5"":1,""5-20"":12,""21-60"":8,""61-240"":3,"">240"":0}",928.0,41.703033000000005,-71.406222,722515.0,RI,44.0,44003.0,Kent County,440030218002.0
49653,sg:c6f1167fd8024bfe822a97d571559dd9,New York Style Pizza Boulevard,RI,2020-02-01T00:00:00-05:00,2020-03-01T00:00:00-05:00,2910,62,60.0,"{""<5"":0,""5-20"":23,""21-60"":8,""61-240"":15,"">240"":16}",6709.0,41.785768,-71.451173,722511.0,RI,44.0,44007.0,Providence County,440070140003.0
49686,sg:ca4df931cbf9446ba894b73a5960afc5,International jewelers inc,RI,2020-02-01T00:00:00-05:00,2020-03-01T00:00:00-05:00,2904,3,243.0,"{""<5"":0,""5-20"":0,""21-60"":1,""61-240"":0,"">240"":2}",520.5,41.867446,-71.438769,448310.0,RI,44.0,44007.0,Providence County,440070118005.0
49749,sg:d2a625c5579149459019d8b610fd6d47,Applebee's,RI,2020-02-01T00:00:00-05:00,2020-03-01T00:00:00-05:00,2816,568,46.0,"{""<5"":5,""5-20"":98,""21-60"":286,""61-240"":178,"">240"":1}",39849.5,41.662063,-71.546425,722511.0,RI,44.0,44003.0,Kent County,440030206033.0
49940,sg:e6e77247fee74565b1b106bf518b096d,Advance Auto Parts,RI,2020-02-01T00:00:00-05:00,2020-03-01T00:00:00-05:00,2861,20,9.5,"{""<5"":3,""5-20"":16,""21-60"":0,""61-240"":1,"">240"":0}",358.0,41.889109000000005,-71.367778,441310.0,RI,44.0,44007.0,Providence County,440070155003.0
50243,sg:04325c7592af47d8986b2fe69726041a,Travel Whiz,RI,2020-02-01T00:00:00-05:00,2020-03-01T00:00:00-05:00,2895,82,67.5,"{""<5"":1,""5-20"":24,""21-60"":13,""61-240"":24,"">240"":20}",9241.0,42.005342,-71.51446700000001,561510.0,RI,44.0,44007.0,Providence County,440070180002.0
50291,sg:081b15a4bc5b4f46ba368c8fcd0a8aa9,Stan Dezjot DC South County Chiropractic,RI,2020-02-01T00:00:00-05:00,2020-03-01T00:00:00-05:00,2891,1,10.0,"{""<5"":0,""5-20"":1,""21-60"":0,""61-240"":0,"">240"":0}",12.5,41.344513,-71.816934,621310.0,RI,44.0,44009.0,Washington County,440090508022.0
50780,sg:33bd9e1e24384527bbe0c75023c18d92,Soban Korean Eatery,RI,2020-02-01T00:00:00-05:00,2020-03-01T00:00:00-05:00,2906,341,40.0,"{""<5"":3,""5-20"":100,""21-60"":106,""61-240"":32,"">240"":100}",34366.5,41.82943,-71.40101700000001,722511.0,RI,44.0,44007.0,Providence County,440070036023.0
50809,sg:360594904606485b91e5ae8d44565655,Bristol Bed & Breakfast,RI,2020-02-01T00:00:00-05:00,2020-03-01T00:00:00-05:00,2809,29,8.0,"{""<5"":2,""5-20"":20,""21-60"":6,""61-240"":1,"">240"":0}",648.5,41.670654,-71.27627199999999,721110.0,RI,44.0,44001.0,Bristol County,440010307004.0
50881,sg:3df56c789840460b8a3ab865c1ad39c8,Best Taste,RI,2020-02-01T00:00:00-05:00,2020-03-01T00:00:00-05:00,2904,47,22.0,"{""<5"":1,""5-20"":19,""21-60"":11,""61-240"":10,"">240"":6}",3630.5,41.869440000000004,-71.422912,722511.0,RI,44.0,44007.0,Providence County,440070118001.0
51407,sg:70162cbd1a864c27906d2ec904042ef5,Metro By Tmobile,RI,2020-02-01T00:00:00-05:00,2020-03-01T00:00:00-05:00,2910,69,21.0,"{""<5"":3,""5-20"":31,""21-60"":13,""61-240"":18,"">240"":4}",4590.5,41.783009,-71.439195,517312.0,RI,44.0,44007.0,Providence County,440070140002.0
52033,sg:ae50fe4f27fc4921bae519b3d783abac,Sprigs,RI,2020-02-01T00:00:00-05:00,2020-03-01T00:00:00-05:00,2852,21,12.0,"{""<5"":2,""5-20"":14,""21-60"":4,""61-240"":1,"">240"":0}",492.5,41.571049,-71.452636,453110.0,RI,44.0,44009.0,Washington County,440090503023.0
52182,sg:bb75183bf2454f96af746a9a48757409,Hope Valley Wyoming Fire District Camp Yawgoog,RI,2020-02-01T00:00:00-05:00,2020-03-01T00:00:00-05:00,2832,89,53.0,"{""<5"":0,""5-20"":29,""21-60"":16,""61-240"":11,"">240"":33}",10586.0,41.519088,-71.775826,922160.0,RI,44.0,44009.0,Washington County,440090507003.0
52623,sg:e98291c290314258981ea6b2b297c7a0,Mamby's Barber Shop,RI,2020-02-01T00:00:00-05:00,2020-03-01T00:00:00-05:00,2909,21,33.0,"{""<5"":1,""5-20"":6,""21-60"":4,""61-240"":8,"">240"":2}",1923.5,41.818697,-71.46023100000001,812112.0,RI,44.0,44007.0,Providence County,440070018005.0
53136,sg:1ccaed6548404b7db68f76c9ee3e856a,Bridge To Fitness,RI,2020-02-01T00:00:00-05:00,2020-03-01T00:00:00-05:00,2842,301,42.0,"{""<5"":4,""5-20"":72,""21-60"":127,""61-240"":93,"">240"":5}",21250.0,41.51397,-71.28209100000001,713940.0,RI,44.0,44005.0,Newport County,440050404002.0
53418,sg:373a29840eea4de79f635ff32cf13710,Gilded,RI,2020-02-01T00:00:00-05:00,2020-03-01T00:00:00-05:00,2840,43,43.0,"{""<5"":1,""5-20"":12,""21-60"":15,""61-240"":9,"">240"":6}",3554.5,41.488052,-71.30808499999999,721110.0,RI,44.0,44005.0,Newport County,440050407002.0
53529,sg:42045b5d64a045199902968221e84476,Bulldog Stadium,RI,2020-02-01T00:00:00-05:00,2020-03-01T00:00:00-05:00,2917,723,62.0,"{""<5"":9,""5-20"":161,""21-60"":176,""61-240"":268,"">240"":109}",75657.0,41.924813,-71.538618,711211.0,RI,44.0,44007.0,Providence County,440070126011.0
53714,sg:53acc4dd32b8423c91857632bb81ac1f,Lawrence P Stephenson DDS,RI,2020-02-01T00:00:00-05:00,2020-03-01T00:00:00-05:00,2904,165,49.0,"{""<5"":2,""5-20"":30,""21-60"":59,""61-240"":36,"">240"":38}",17307.5,41.861383000000004,-71.461727,621210.0,RI,44.0,44007.0,Providence County,440070120001.0
53803,sg:5ad1c6349b6c4b0ca18b5e2e3b52783d,The Y At Blackstone Valley Prep,RI,2020-02-01T00:00:00-05:00,2020-03-01T00:00:00-05:00,2864,13,17.0,"{""<5"":0,""5-20"":8,""21-60"":1,""61-240"":1,"">240"":3}",1011.0,41.906051,-71.392276,624410.0,RI,44.0,44007.0,Providence County,440070112002.0
54254,sg:89fb41afa40845f690a39b901924586c,Kohl's,RI,2020-02-01T00:00:00-05:00,2020-03-01T00:00:00-05:00,2852,536,22.0,"{""<5"":5,""5-20"":228,""21-60"":249,""61-240"":53,"">240"":1}",21163.5,41.607079,-71.451402,452210.0,RI,44.0,44009.0,Washington County,440090501032.0
54397,sg:9783ea572b814c55b6107bb1f2828ba4,Subway,RI,2020-02-01T00:00:00-05:00,2020-03-01T00:00:00-05:00,2893,38,21.5,"{""<5"":2,""5-20"":15,""21-60"":10,""61-240"":11,"">240"":0}",2253.0,41.71763,-71.524512,722513.0,RI,44.0,44003.0,Kent County,440030204002.0
54468,sg:9d2b171d30c54c5490afa475bfdd68e1,Bagel Express on Broadway,RI,2020-02-01T00:00:00-05:00,2020-03-01T00:00:00-05:00,2903,132,43.5,"{""<5"":2,""5-20"":35,""21-60"":42,""61-240"":45,"">240"":8}",10836.0,41.820406,-71.42610400000001,722515.0,RI,44.0,44007.0,Providence County,440070011003.0
54689,sg:b37dc228075045c9be8c176a2928ad49,Leaders in Ear Nose & Throat Health,RI,2020-02-01T00:00:00-05:00,2020-03-01T00:00:00-05:00,2886,46,299.0,"{""<5"":0,""5-20"":9,""21-60"":4,""61-240"":9,"">240"":24}",7389.0,41.693121000000005,-71.456071,621111.0,RI,44.0,44003.0,Kent County,440030220003.0
54812,sg:c06cf8adf80a411faac5b75aa083e72b,Capital Auto Sales,RI,2020-02-01T00:00:00-05:00,2020-03-01T00:00:00-05:00,2909,114,12.0,"{""<5"":7,""5-20"":69,""21-60"":16,""61-240"":15,"">240"":7}",5465.5,41.833473,-71.46633800000001,,RI,44.0,44007.0,Providence County,440070020002.0
54847,sg:c41d1f830b5b47e08b24d3d38be1365b,Dive On It Scuba,RI,2020-02-01T00:00:00-05:00,2020-03-01T00:00:00-05:00,2864,36,27.5,"{""<5"":0,""5-20"":17,""21-60"":8,""61-240"":5,"">240"":6}",2729.0,41.928902,-71.42126800000001,451110.0,RI,44.0,44007.0,Providence County,440070113012.0
55091,sg:de384467c94f43f1b3fc9cfb52a03274,Walmart,RI,2020-02-01T00:00:00-05:00,2020-03-01T00:00:00-05:00,2891,3089,22.0,"{""<5"":69,""5-20"":1327,""21-60"":1232,""61-240"":327,"">240"":134}",148029.5,41.354306,-71.76683,452319.0,RI,44.0,44009.0,Washington County,440090509022.0
55323,sg:f454163e98e547ada23de04fae3f61ae,Friskie Fries,RI,2020-02-01T00:00:00-05:00,2020-03-01T00:00:00-05:00,2903,323,39.0,"{""<5"":10,""5-20"":94,""21-60"":119,""61-240"":77,"">240"":23}",23128.0,41.823181,-71.41440300000001,722511.0,RI,44.0,44007.0,Providence County,440070008003.0
55331,sg:f5376ee449b540228d7870184785cfc0,Bagel Express Deli & Cafe in the Village,RI,2020-02-01T00:00:00-05:00,2020-03-01T00:00:00-05:00,2905,106,44.5,"{""<5"":1,""5-20"":14,""21-60"":57,""61-240"":34,"">240"":0}",7603.0,41.765409999999996,-71.390365,722515.0,RI,44.0,44007.0,Providence County,440070134003.0
55521,sg:05e6889283c14b15bf19b817bb72a188,Bonetown Burgers & BBQ,RI,2020-02-01T00:00:00-05:00,2020-03-01T00:00:00-05:00,2920,55,45.0,"{""<5"":1,""5-20"":11,""21-60"":20,""61-240"":19,"">240"":4}",4769.5,41.78241,-71.466747,722511.0,RI,44.0,44007.0,Providence County,440070147005.0
55971,sg:2d6711eaa3a64aac96569a1024d15d01,Kingston Congregational Church,RI,2020-02-01T00:00:00-05:00,2020-03-01T00:00:00-05:00,2881,101,58.0,"{""<5"":0,""5-20"":39,""21-60"":13,""61-240"":43,"">240"":6}",8925.5,41.480059999999995,-71.525512,813110.0,RI,44.0,44009.0,Washington County,440090513063.0
56112,sg:3a5b3a05ed584d5b9617d28956b87b6f,Bay Marina,RI,2020-02-01T00:00:00-05:00,2020-03-01T00:00:00-05:00,2889,23,24.0,"{""<5"":0,""5-20"":11,""21-60"":6,""61-240"":6,"">240"":0}",1283.5,41.698153000000005,-71.38810500000001,441222.0,RI,44.0,44003.0,Kent County,440030217001.0
56296,sg:48bbaa8444844dcb84ec6e090a96a87f,YMCA,RI,2020-02-01T00:00:00-05:00,2020-03-01T00:00:00-05:00,2816,13,32.0,"{""<5"":1,""5-20"":3,""21-60"":6,""61-240"":2,"">240"":1}",824.0,41.679024,-71.671625,624190.0,RI,44.0,44003.0,Kent County,440030207022.0
56349,sg:4bed263254494b708e71e821dac6bf6c,Jeff Allen's Latin and Ballroom Dance Studio,RI,2020-02-01T00:00:00-05:00,2020-03-01T00:00:00-05:00,2920,219,41.0,"{""<5"":5,""5-20"":63,""21-60"":67,""61-240"":43,"">240"":41}",19825.0,41.784886,-71.473382,713940.0,RI,44.0,44007.0,Providence County,440070148003.0
56477,sg:58cb52622ebd4cc79ad069f39fa4c0a5,Oop,RI,2020-02-01T00:00:00-05:00,2020-03-01T00:00:00-05:00,2906,105,108.0,"{""<5"":2,""5-20"":16,""21-60"":21,""61-240"":27,"">240"":39}",14479.0,41.827464,-71.39263100000001,452319.0,RI,44.0,44007.0,Providence County,440070036012.0
56516,sg:5c7a19dacad7496e92c0c0a81c15f9dc,Cranston Fire Department Station 2,RI,2020-02-01T00:00:00-05:00,2020-03-01T00:00:00-05:00,2910,247,60.0,"{""<5"":6,""5-20"":73,""21-60"":46,""61-240"":71,"">240"":51}",25716.0,41.779683,-71.43509399999999,922160.0,RI,44.0,44007.0,Providence County,440070140001.0
56688,sg:6cc36a6a86a64b28b3fc9a8f7bbbaf0a,Wally's Tap House,RI,2020-02-01T00:00:00-05:00,2020-03-01T00:00:00-05:00,2878,147,35.0,"{""<5"":4,""5-20"":47,""21-60"":47,""61-240"":49,"">240"":0}",9875.5,41.624887,-71.146982,722511.0,RI,44.0,44005.0,Newport County,440050417021.0
57098,sg:91eec752a4b8422687ba342f03f8362c,1 Alpha And Omega Cleaning Services,RI,2020-02-01T00:00:00-05:00,2020-03-01T00:00:00-05:00,2886,158,62.0,"{""<5"":2,""5-20"":44,""21-60"":32,""61-240"":57,"">240"":23}",15949.5,41.720009999999995,-71.47284300000001,561740.0,RI,44.0,44003.0,Kent County,440030223003.0
57274,sg:a3409a431fa34dcba83d5ef9431fc86a,Olympic Physical Therapy & Foot Orthotics,RI,2020-02-01T00:00:00-05:00,2020-03-01T00:00:00-05:00,2809,4,22.0,"{""<5"":0,""5-20"":1,""21-60"":3,""61-240"":0,"">240"":0}",134.0,41.670056,-71.27620999999999,446199.0,RI,44.0,44001.0,Bristol County,440010307004.0
57338,sg:a9c4aef88b2a46ca986489e2a0060d30,Ardente Supply Co Inc,RI,2020-02-01T00:00:00-05:00,2020-03-01T00:00:00-05:00,2908,100,18.0,"{""<5"":0,""5-20"":52,""21-60"":19,""61-240"":16,"">240"":13}",6947.5,41.827901000000004,-71.436596,444130.0,RI,44.0,44007.0,Providence County,440070022002.0
57397,sg:af4fa215b8ff47eca34f07c0cab30695,Robin Hollow Farm,RI,2020-02-01T00:00:00-05:00,2020-03-01T00:00:00-05:00,2874,2,5.0,"{""<5"":0,""5-20"":2,""21-60"":0,""61-240"":0,"">240"":0}",25.0,41.517711,-71.451385,453110.0,RI,44.0,44009.0,Washington County,440090504023.0
57689,sg:c910cb9ab39149438846530bc597f053,El Paso Restaurant,RI,2020-02-01T00:00:00-05:00,2020-03-01T00:00:00-05:00,2863,357,73.0,"{""<5"":5,""5-20"":72,""21-60"":89,""61-240"":128,"">240"":63}",38901.0,41.896822,-71.388819,722511.0,RI,44.0,44007.0,Providence County,440070109003.0
57848,sg:d8c5b89fa43f4a83997bca8a71a10a98,Nicholas A Ferri Middle,RI,2020-02-01T00:00:00-05:00,2020-03-01T00:00:00-05:00,2919,253,364.0,"{""<5"":0,""5-20"":6,""21-60"":2,""61-240"":47,"">240"":198}",54749.5,41.829582,-71.502307,611110.0,RI,44.0,44007.0,Providence County,440070124014.0
57966,sg:e5cdb024c1e44e0a982f910b86439ab7,J's Deli,RI,2020-02-01T00:00:00-05:00,2020-03-01T00:00:00-05:00,2864,3,67.0,"{""<5"":0,""5-20"":0,""21-60"":1,""61-240"":2,"">240"":0}",341.5,41.954081,-71.402109,722511.0,RI,44.0,44007.0,Providence County,440070114013.0
58230,sg:015c7e51eaf442ba903261833d91fd31,Little Caesars,RI,2020-02-01T00:00:00-05:00,2020-03-01T00:00:00-05:00,2910,82,10.0,"{""<5"":7,""5-20"":52,""21-60"":14,""61-240"":3,"">240"":6}",3126.0,41.779422,-71.444193,722513.0,RI,44.0,44007.0,Providence County,440070140005.0
58408,sg:0efea47f828f4a1dbcfa84209db582fe,McCarthy's Auto Repair & Service,RI,2020-02-01T00:00:00-05:00,2020-03-01T00:00:00-05:00,2809,1,9.0,"{""<5"":0,""5-20"":1,""21-60"":0,""61-240"":0,"">240"":0}",12.5,41.674189,-71.259507,811111.0,RI,44.0,44001.0,Bristol County,440010308001.0
58560,sg:1d8e1846f6b74732a0178824c4e58757,BrewGrindz,RI,2020-02-01T00:00:00-05:00,2020-03-01T00:00:00-05:00,2904,207,30.0,"{""<5"":5,""5-20"":69,""21-60"":72,""61-240"":44,"">240"":17}",14493.0,41.862372,-71.45841,722515.0,RI,44.0,44007.0,Providence County,440070119021.0
58868,sg:3bcde52faf3e489b9f539f32eb259d3f,Wendy's,RI,2020-02-01T00:00:00-05:00,2020-03-01T00:00:00-05:00,2852,384,10.0,"{""<5"":22,""5-20"":253,""21-60"":64,""61-240"":27,"">240"":18}",14193.0,41.631214,-71.468968,722513.0,RI,44.0,44009.0,Washington County,440090501035.0
59747,sg:8b09c87db1954986bb9487e53726d25c,The Chicken Coop on Smith Hill,RI,2020-02-01T00:00:00-05:00,2020-03-01T00:00:00-05:00,2908,118,61.5,"{""<5"":5,""5-20"":38,""21-60"":15,""61-240"":32,"">240"":28}",12631.0,41.834876,-71.42435400000001,722511.0,RI,44.0,44007.0,Providence County,440070026001.0
59933,sg:9bf4e0cccb274b639b8b84de51618f89,Dunkin',RI,2020-02-01T00:00:00-05:00,2020-03-01T00:00:00-05:00,2874,254,7.0,"{""<5"":26,""5-20"":192,""21-60"":18,""61-240"":17,"">240"":1}",5992.5,41.494968,-71.457321,722515.0,RI,44.0,44009.0,Washington County,440090513051.0
60328,sg:c19fd4d5fb7247409270b929580de59d,Smithfield Dental Associates,RI,2020-02-01T00:00:00-05:00,2020-03-01T00:00:00-05:00,2917,16,316.0,"{""<5"":0,""5-20"":0,""21-60"":1,""61-240"":2,"">240"":13}",3461.5,41.865029,-71.532985,621210.0,RI,44.0,44007.0,Providence County,440070127021.0
60589,sg:dc7283ec2b814c519fa8fceece8867ce,Providence Country Day School,RI,2020-02-01T00:00:00-05:00,2020-03-01T00:00:00-05:00,2914,1381,61.0,"{""<5"":9,""5-20"":278,""21-60"":396,""61-240"":532,"">240"":166}",139441.5,41.816731,-71.354381,611110.0,RI,44.0,44007.0,Providence County,440070103002.0
61456,sg:2c166622de574b4391b83337d8ad51f7,South Kingstown Dog Park,RI,2020-02-01T00:00:00-05:00,2020-03-01T00:00:00-05:00,2879,585,42.0,"{""<5"":10,""5-20"":112,""21-60"":264,""61-240"":194,"">240"":5}",42514.0,41.45228,-71.481829,712190.0,RI,44.0,44009.0,Washington County,440090512024.0
61569,sg:35d4e4302f9b40878eb0f529eaf74438,Brookdale,RI,2020-02-01T00:00:00-05:00,2020-03-01T00:00:00-05:00,2889,56,74.5,"{""<5"":0,""5-20"":14,""21-60"":11,""61-240"":20,"">240"":11}",6270.5,41.703924,-71.4225,623110.0,RI,44.0,44003.0,Kent County,440030219022.0
61979,sg:5c0b60459b2f48b4b04fab3d52477db0,Sunshine Creamery,RI,2020-02-01T00:00:00-05:00,2020-03-01T00:00:00-05:00,2916,62,10.5,"{""<5"":4,""5-20"":32,""21-60"":1,""61-240"":17,"">240"":8}",4929.0,41.833037,-71.360782,722515.0,RI,44.0,44007.0,Providence County,440070102001.0
62358,sg:7f37cb2392ba42a3b3a76d2fba987c3a,The Aesthetic Dental Studio of RI,RI,2020-02-01T00:00:00-05:00,2020-03-01T00:00:00-05:00,2911,96,55.0,"{""<5"":2,""5-20"":29,""21-60"":20,""61-240"":17,"">240"":28}",10456.0,41.858534000000006,-71.478871,621210.0,RI,44.0,44007.0,Providence County,440070121041.0
62732,sg:a318a9faad9446ca8fd07ac8b648821f,Manton Liquors,RI,2020-02-01T00:00:00-05:00,2020-03-01T00:00:00-05:00,2909,91,47.0,"{""<5"":3,""5-20"":36,""21-60"":8,""61-240"":12,"">240"":32}",10267.5,41.823402,-71.45151899999999,445310.0,RI,44.0,44007.0,Providence County,440070019003.0
62991,sg:bcc19e9895844421ac9ee10fdc65e75d,Culinary Art Museum And Archives,RI,2020-02-01T00:00:00-05:00,2020-03-01T00:00:00-05:00,2903,2527,80.0,"{""<5"":16,""5-20"":321,""21-60"":621,""61-240"":1325,"">240"":244}",287175.5,41.819894,-71.412757,712110.0,RI,44.0,44007.0,Providence County,440070008003.0
63102,sg:c7c61292cc384347bc57433fe8e6662f,Grandma's Library Little Free Library Charter 34034,RI,2020-02-01T00:00:00-05:00,2020-03-01T00:00:00-05:00,2864,55,167.0,"{""<5"":0,""5-20"":5,""21-60"":9,""61-240"":18,"">240"":23}",8656.0,41.949141,-71.397584,451211.0,RI,44.0,44007.0,Providence County,440070114012.0
63298,sg:dadf15207b0547f2b9694bc1e6bdc8be,Final Gift Cremation Service,RI,2020-02-01T00:00:00-05:00,2020-03-01T00:00:00-05:00,2921,71,46.0,"{""<5"":1,""5-20"":22,""21-60"":17,""61-240"":14,"">240"":17}",7153.0,41.783953000000004,-71.52348,812910.0,RI,44.0,44007.0,Providence County,440070146002.0
64415,sg:440b313a70c34a41ae764d412ef61bf9,Casey's Auto Sales,RI,2020-02-01T00:00:00-05:00,2020-03-01T00:00:00-05:00,2889,105,53.0,"{""<5"":0,""5-20"":31,""21-60"":28,""61-240"":35,"">240"":11}",9429.0,41.700881,-71.40038299999999,,RI,44.0,44003.0,Kent County,440030217004.0
64898,sg:70534537f15a427294d7afb82594fc7c,Islamic Center of Rhode Island,RI,2020-02-01T00:00:00-05:00,2020-03-01T00:00:00-05:00,2903,105,94.0,"{""<5"":3,""5-20"":13,""21-60"":26,""61-240"":51,"">240"":12}",11778.5,41.815568,-71.419143,813110.0,RI,44.0,44007.0,Providence County,440070007003.0
65311,sg:988ae70a0b7e4b04b2b8e8ac4008a183,Domino's Pizza,RI,2020-02-01T00:00:00-05:00,2020-03-01T00:00:00-05:00,2888,61,13.0,"{""<5"":5,""5-20"":31,""21-60"":13,""61-240"":8,"">240"":4}",3090.5,41.760809,-71.40513100000001,722513.0,RI,44.0,44003.0,Kent County,440030210011.0
65520,sg:aead779f853b49ff9d1650a8d566ac90,The Education Exchange,RI,2020-02-01T00:00:00-05:00,2020-03-01T00:00:00-05:00,2879,20,78.0,"{""<5"":0,""5-20"":4,""21-60"":4,""61-240"":11,"">240"":1}",2107.5,41.453044,-71.496098,611310.0,RI,44.0,44009.0,Washington County,440090512011.0
66412,sg:07452329ae1b4a7dbefa66b16147097a,Tritan Systems LLC,RI,2020-02-01T00:00:00-05:00,2020-03-01T00:00:00-05:00,2910,62,199.0,"{""<5"":0,""5-20"":9,""21-60"":7,""61-240"":18,"">240"":28}",9825.0,41.780833,-71.45040999999999,443142.0,RI,44.0,44007.0,Providence County,440070140004.0
66620,sg:1a8a959a3fd248f28e5c7cd73577831b,Lees Chinese Restaurant & Lounge,RI,2020-02-01T00:00:00-05:00,2020-03-01T00:00:00-05:00,2915,271,42.0,"{""<5"":8,""5-20"":85,""21-60"":59,""61-240"":77,"">240"":42}",25140.5,41.768786999999996,-71.360879,722511.0,RI,44.0,44007.0,Providence County,440070106006.0
67479,sg:6f85858898d2486e85a6b68d4743347a,Ryder,RI,2020-02-01T00:00:00-05:00,2020-03-01T00:00:00-05:00,2888,199,65.0,"{""<5"":7,""5-20"":60,""21-60"":30,""61-240"":46,"">240"":56}",22345.5,41.756693,-71.43815,532120.0,RI,44.0,44003.0,Kent County,440030211002.0
67532,sg:7562271b05c4429aac4fe0e2ced9598f,The Barn,RI,2020-02-01T00:00:00-05:00,2020-03-01T00:00:00-05:00,2801,125,47.0,"{""<5"":1,""5-20"":8,""21-60"":71,""61-240"":33,"">240"":12}",10824.5,41.554536999999996,-71.12858100000001,722511.0,RI,44.0,44005.0,Newport County,440050414002.0
68495,sg:d367f53d7a2e434baf39d6962afaaa0c,Johnston Acupuncture Clinic,RI,2020-02-01T00:00:00-05:00,2020-03-01T00:00:00-05:00,2919,20,51.5,"{""<5"":0,""5-20"":4,""21-60"":7,""61-240"":3,"">240"":6}",2225.0,41.823584999999994,-71.49585,621111.0,RI,44.0,44007.0,Providence County,440070124014.0
68994,sg:03a7b6cbd27f48cfb026feac88fe483d,West Warwick Fire Department Station 1 Headquarters,RI,2020-02-01T00:00:00-05:00,2020-03-01T00:00:00-05:00,2893,31,107.0,"{""<5"":0,""5-20"":3,""21-60"":4,""61-240"":18,"">240"":6}",4348.5,41.706540000000004,-71.522786,922160.0,RI,44.0,44003.0,Kent County,440030203003.0
69237,sg:179d1cb9329b4c6e83272a2e20643b91,Hair Designs,RI,2020-02-01T00:00:00-05:00,2020-03-01T00:00:00-05:00,2886,4,92.5,"{""<5"":0,""5-20"":1,""21-60"":0,""61-240"":3,"">240"":0}",464.0,41.722121,-71.441643,812112.0,RI,44.0,44003.0,Kent County,440030211004.0
69331,sg:215e6619b16b4e0bacc9b6ce3dbd23e2,L'atelier Hair Salon,RI,2020-02-01T00:00:00-05:00,2020-03-01T00:00:00-05:00,2885,3,297.0,"{""<5"":0,""5-20"":1,""21-60"":0,""61-240"":0,"">240"":2}",492.5,41.729704999999996,-71.278852,812112.0,RI,44.0,44001.0,Bristol County,440010305002.0
69628,sg:3bebd51d8b7d413ba576aacf42dddf2a,Petro Home Services,RI,2020-02-01T00:00:00-05:00,2020-03-01T00:00:00-05:00,2895,26,16.5,"{""<5"":2,""5-20"":13,""21-60"":7,""61-240"":3,"">240"":1}",1142.5,42.009027,-71.529609,221210.0,RI,44.0,44007.0,Providence County,440070174001.0
70224,sg:70780cd2eac944f7818872f3375ac04e,Universe Bar & Cafe,RI,2020-02-01T00:00:00-05:00,2020-03-01T00:00:00-05:00,2904,131,33.0,"{""<5"":3,""5-20"":40,""21-60"":50,""61-240"":36,"">240"":2}",8430.5,41.869026,-71.423787,722511.0,RI,44.0,44007.0,Providence County,440070118001.0
70530,sg:8d02d428e05c4f4f88fec7f72459ae53,Advance America Cash Advance Center,RI,2020-02-01T00:00:00-05:00,2020-03-01T00:00:00-05:00,2919,11,5.0,"{""<5"":0,""5-20"":10,""21-60"":1,""61-240"":0,"">240"":0}",165.5,41.825585,-71.499976,522291.0,RI,44.0,44007.0,Providence County,440070124014.0
70981,sg:b71f5bd32cf742dcafdc516e83c62521,White Dog Distilling,RI,2020-02-01T00:00:00-05:00,2020-03-01T00:00:00-05:00,2860,7,704.0,"{""<5"":0,""5-20"":1,""21-60"":0,""61-240"":0,"">240"":6}",1452.5,41.872713,-71.407493,722515.0,RI,44.0,44007.0,Providence County,440070163001.0
70991,sg:b82b2eb234ff49c4b0348de95ceb90d5,Magniventris,RI,2020-02-01T00:00:00-05:00,2020-03-01T00:00:00-05:00,2905,153,62.0,"{""<5"":5,""5-20"":42,""21-60"":27,""61-240"":27,"">240"":52}",18174.5,41.787158000000005,-71.39695,448140.0,RI,44.0,44007.0,Providence County,440070001013.0
71202,sg:cb4c659565974e8e983503bc2219b6b8,Caribe Super Market,RI,2020-02-01T00:00:00-05:00,2020-03-01T00:00:00-05:00,2904,479,30.0,"{""<5"":17,""5-20"":196,""21-60"":90,""61-240"":91,"">240"":85}",40233.0,41.853419,-71.420053,445110.0,RI,44.0,44007.0,Providence County,440070029002.0
71500,sg:e7b2753e11fb40b096190ddb42fd9751,United Brothers Synagogue,RI,2020-02-01T00:00:00-05:00,2020-03-01T00:00:00-05:00,2809,7,13.0,"{""<5"":2,""5-20"":3,""21-60"":1,""61-240"":0,"">240"":1}",323.0,41.668913,-71.273425,813110.0,RI,44.0,44001.0,Bristol County,440010307004.0
72056,sg:1a812176c4614fe3ad93a8a12cb0f6e1,South County Nursing and Subacute Center,RI,2020-02-01T00:00:00-05:00,2020-03-01T00:00:00-05:00,2852,45,244.0,"{""<5"":0,""5-20"":1,""21-60"":3,""61-240"":18,"">240"":23}",8363.0,41.558822,-71.487905,621340.0,RI,44.0,44009.0,Washington County,440090503013.0
72486,sg:3eac9d1b77d64dc4a37c3ccf07f0cdd2,Shell Oil,RI,2020-02-01T00:00:00-05:00,2020-03-01T00:00:00-05:00,2905,98,5.5,"{""<5"":25,""5-20"":56,""21-60"":7,""61-240"":8,"">240"":2}",2730.0,41.786184999999996,-71.39474200000001,447110.0,RI,44.0,44007.0,Providence County,440070001011.0
72790,sg:59a4b39d412e4be49036add5e1b5142a,Slate Hill Park,RI,2020-02-01T00:00:00-05:00,2020-03-01T00:00:00-05:00,2920,125,45.0,"{""<5"":4,""5-20"":40,""21-60"":24,""61-240"":44,"">240"":13}",11224.0,41.756726,-71.463042,712190.0,RI,44.0,44007.0,Providence County,440070144001.0
73891,sg:c747d50dcdad444bab583656c4b2395b,Smithfield High School,RI,2020-02-01T00:00:00-05:00,2020-03-01T00:00:00-05:00,2917,2627,239.0,"{""<5"":15,""5-20"":240,""21-60"":348,""61-240"":713,"">240"":1311}",439078.0,41.880657,-71.543948,611110.0,RI,44.0,44007.0,Providence County,440070127013.0
75460,sg:5e0185bb6e2549889ebcf61909515536,Ace Towing,RI,2020-02-01T00:00:00-05:00,2020-03-01T00:00:00-05:00,2809,41,83.0,"{""<5"":2,""5-20"":9,""21-60"":6,""61-240"":12,"">240"":12}",5046.5,41.710251,-71.279388,488410.0,RI,44.0,44001.0,Bristol County,440010309021.0
75738,sg:776c17e72f9f46729b379b358b8f66f5,Stop & Go Gas Convenience,RI,2020-02-01T00:00:00-05:00,2020-03-01T00:00:00-05:00,2889,47,6.0,"{""<5"":4,""5-20"":32,""21-60"":7,""61-240"":3,"">240"":1}",1385.0,41.722963,-71.404768,447110.0,RI,44.0,44003.0,Kent County,440030214012.0
75826,sg:7fd51f550278481b8de063f85af6e195,North Smithfield Urgent Care,RI,2020-02-01T00:00:00-05:00,2020-03-01T00:00:00-05:00,2896,15,20.0,"{""<5"":0,""5-20"":8,""21-60"":3,""61-240"":0,"">240"":4}",1181.5,41.998142,-71.549778,621493.0,RI,44.0,44007.0,Providence County,440070128021.0
76192,sg:a2f724d946524bbfbc43e242f76e3d72,Devanney James F Dent,RI,2020-02-01T00:00:00-05:00,2020-03-01T00:00:00-05:00,2886,37,41.0,"{""<5"":3,""5-20"":9,""21-60"":9,""61-240"":8,"">240"":8}",3608.5,41.70812,-71.435383,621210.0,RI,44.0,44003.0,Kent County,440030219014.0
76218,sg:a537780c18794c738628301175d7ecb6,Del's Lemonade,RI,2020-02-01T00:00:00-05:00,2020-03-01T00:00:00-05:00,2842,32,57.0,"{""<5"":0,""5-20"":8,""21-60"":8,""61-240"":6,"">240"":10}",3727.0,41.52256,-71.29826700000001,722515.0,RI,44.0,44005.0,Newport County,440050403042.0
76308,sg:af1a612ecbb74507a3e8a8a5227d9a59,Barreiros Auto Sales,RI,2020-02-01T00:00:00-05:00,2020-03-01T00:00:00-05:00,2865,10,24.5,"{""<5"":1,""5-20"":1,""21-60"":4,""61-240"":4,"">240"":0}",779.0,41.880464,-71.415963,,RI,44.0,44007.0,Providence County,440070117022.0
76607,sg:ce5301acac264e26812c26b2b5e807de,Wood River Animal Hospital,RI,2020-02-01T00:00:00-05:00,2020-03-01T00:00:00-05:00,2898,4,39.0,"{""<5"":0,""5-20"":1,""21-60"":2,""61-240"":1,"">240"":0}",244.0,41.511086999999996,-71.685772,541940.0,RI,44.0,44009.0,Washington County,440090506001.0
76613,sg:ce9fd361a9a844c09f56ba85bb47f57f,Cumberland Farms,RI,2020-02-01T00:00:00-05:00,2020-03-01T00:00:00-05:00,2809,553,6.0,"{""<5"":76,""5-20"":400,""21-60"":44,""61-240"":9,"">240"":24}",14086.5,41.679623,-71.259877,447110.0,RI,44.0,44001.0,Bristol County,440010309013.0
77239,sg:0c46523b61be4777b5112b564c42a632,Eden Park School,RI,2020-02-01T00:00:00-05:00,2020-03-01T00:00:00-05:00,2910,260,39.5,"{""<5"":1,""5-20"":93,""21-60"":56,""61-240"":52,"">240"":58}",25179.0,41.772403000000004,-71.446072,611110.0,RI,44.0,44007.0,Providence County,440070137023.0
77855,sg:4467eea3ea964b73902c3075210f5681,Papi's Tacos,RI,2020-02-01T00:00:00-05:00,2020-03-01T00:00:00-05:00,2889,91,43.0,"{""<5"":3,""5-20"":29,""21-60"":30,""61-240"":29,"">240"":0}",5949.5,41.724138,-71.382548,722511.0,RI,44.0,44003.0,Kent County,440030215011.0
77891,sg:476ea91a5ac24515b556c360d5077e36,Sandy Lane Auto Sales & Repairs,RI,2020-02-01T00:00:00-05:00,2020-03-01T00:00:00-05:00,2889,22,14.0,"{""<5"":0,""5-20"":13,""21-60"":8,""61-240"":1,"">240"":0}",637.0,41.704776,-71.418227,441120.0,RI,44.0,44003.0,Kent County,440030219031.0
78106,sg:5bd1fa20a730401dba99beda14bb35cf,Sakonnet Greenway Trail,RI,2020-02-01T00:00:00-05:00,2020-03-01T00:00:00-05:00,2832,2,13.0,"{""<5"":0,""5-20"":1,""21-60"":1,""61-240"":0,"">240"":0}",53.0,41.541034,-71.696512,712190.0,RI,44.0,44009.0,Washington County,440090507001.0
78536,sg:84d70d937aa049eeb2959d2c53f0a89d,Dialysis Center Of Pawtucket,RI,2020-02-01T00:00:00-05:00,2020-03-01T00:00:00-05:00,2860,50,137.0,"{""<5"":2,""5-20"":5,""21-60"":10,""61-240"":13,"">240"":20}",7229.0,41.87975,-71.368375,621492.0,RI,44.0,44007.0,Providence County,440070171002.0
78903,sg:a78d909083e14ad2ad7e630263341901,Verizon Wireless,RI,2020-02-01T00:00:00-05:00,2020-03-01T00:00:00-05:00,2852,112,24.5,"{""<5"":2,""5-20"":45,""21-60"":32,""61-240"":14,"">240"":19}",8530.5,41.581185999999995,-71.500341,517312.0,RI,44.0,44009.0,Washington County,440090503011.0
79167,sg:c247e8921f4b4e98afa5ab9f3e12a3c8,3 Amigos Taqueria,RI,2020-02-01T00:00:00-05:00,2020-03-01T00:00:00-05:00,2863,95,23.0,"{""<5"":3,""5-20"":40,""21-60"":25,""61-240"":19,"">240"":8}",6299.5,41.887189,-71.39726800000001,722511.0,RI,44.0,44007.0,Providence County,440070110003.0
79772,sg:ff305bdb56184ac38531878e7f8d5e3d,Coventry Pines Country Club,RI,2020-02-01T00:00:00-05:00,2020-03-01T00:00:00-05:00,2816,26,22.5,"{""<5"":0,""5-20"":13,""21-60"":4,""61-240"":9,"">240"":0}",1679.0,41.669672,-71.630027,713910.0,RI,44.0,44003.0,Kent County,440030207022.0
80167,sg:20f2d7c0bb1a4c59b544ac66be24ea09,Harbour Point Financial Group,RI,2020-02-01T00:00:00-05:00,2020-03-01T00:00:00-05:00,2828,279,33.0,"{""<5"":6,""5-20"":104,""21-60"":79,""61-240"":65,"">240"":25}",20297.0,41.873852,-71.557045,524210.0,RI,44.0,44007.0,Providence County,440070127013.0
81298,sg:897c1b5009fe468382f737befcc7270e,Mobil,RI,2020-02-01T00:00:00-05:00,2020-03-01T00:00:00-05:00,2816,203,20.0,"{""<5"":14,""5-20"":89,""21-60"":57,""61-240"":32,"">240"":11}",10912.0,41.704975,-71.616807,447110.0,RI,44.0,44003.0,Kent County,440030207031.0
81607,sg:a70ba4ff591d4de5846891a70c49ffb7,Sky Lounge,RI,2020-02-01T00:00:00-05:00,2020-03-01T00:00:00-05:00,2917,7,193.0,"{""<5"":0,""5-20"":1,""21-60"":0,""61-240"":3,"">240"":3}",1184.0,41.877183,-71.470789,721110.0,RI,44.0,44007.0,Providence County,440070126026.0
81773,sg:b8574d9a235746d1b273aabac2b90a2b,SandFree,RI,2020-02-01T00:00:00-05:00,2020-03-01T00:00:00-05:00,2826,20,95.0,"{""<5"":2,""5-20"":2,""21-60"":2,""61-240"":11,"">240"":3}",2486.5,41.983204,-71.660178,561740.0,RI,44.0,44007.0,Providence County,440070130022.0
81968,sg:cafc2dfcbd364248a89f8a9bc857527a,The Home Depot,RI,2020-02-01T00:00:00-05:00,2020-03-01T00:00:00-05:00,2891,997,19.0,"{""<5"":31,""5-20"":514,""21-60"":337,""61-240"":76,"">240"":39}",40949.0,41.362638000000004,-71.807355,444130.0,RI,44.0,44009.0,Washington County,440090509012.0
82025,sg:d0dcd4fdc5fa42f3be104ba17b7b5783,Warwick Industrial Fasteners,RI,2020-02-01T00:00:00-05:00,2020-03-01T00:00:00-05:00,2888,80,228.0,"{""<5"":1,""5-20"":19,""21-60"":7,""61-240"":17,"">240"":36}",11722.0,41.742163,-71.442044,452319.0,RI,44.0,44003.0,Kent County,440030211004.0
82110,sg:da24f5b64f134adfb24958045db418fb,Little Engine,RI,2020-02-01T00:00:00-05:00,2020-03-01T00:00:00-05:00,2909,137,60.0,"{""<5"":1,""5-20"":30,""21-60"":38,""61-240"":54,"">240"":14}",13403.5,41.826705,-71.433989,713940.0,RI,44.0,44007.0,Providence County,440070025002.0
82149,sg:dce40d9d15874ae7a19f9581f876b68a,Berkman Lawrence E DMD,RI,2020-02-01T00:00:00-05:00,2020-03-01T00:00:00-05:00,2833,9,17.0,"{""<5"":0,""5-20"":6,""21-60"":2,""61-240"":1,"">240"":0}",306.5,41.512867,-71.70864,621210.0,RI,44.0,44009.0,Washington County,440090507001.0
82278,sg:eae0a808d48b4f8dacdf1c7cea819b1d,Storage Pros,RI,2020-02-01T00:00:00-05:00,2020-03-01T00:00:00-05:00,2879,12,15.5,"{""<5"":0,""5-20"":6,""21-60"":4,""61-240"":2,"">240"":0}",538.0,41.443052,-71.483526,531130.0,RI,44.0,44009.0,Washington County,440090512024.0
82545,sg:059216c6baf0483c961e0f65212d742b,Iannotti Brothers Select Cars,RI,2020-02-01T00:00:00-05:00,2020-03-01T00:00:00-05:00,2816,6,26.0,"{""<5"":0,""5-20"":2,""21-60"":3,""61-240"":1,"">240"":0}",297.0,41.683577,-71.556286,,RI,44.0,44003.0,Kent County,440030206031.0
83070,sg:34de6ac63ae94d719dda8891194e170c,Speedway,RI,2020-02-01T00:00:00-05:00,2020-03-01T00:00:00-05:00,2904,383,9.0,"{""<5"":33,""5-20"":241,""21-60"":41,""61-240"":51,"">240"":17}",16511.0,41.853187,-71.400685,447110.0,RI,44.0,44007.0,Providence County,440070033004.0
83365,sg:504bc29c88a743f0a8a7db52992a7e67,Keller Williams,RI,2020-02-01T00:00:00-05:00,2020-03-01T00:00:00-05:00,2906,1,5.0,"{""<5"":0,""5-20"":1,""21-60"":0,""61-240"":0,"">240"":0}",12.5,41.827884000000005,-71.388853,531210.0,RI,44.0,44007.0,Providence County,440070035003.0
84268,sg:a3861fe1df784b478aea5cce69fcd0e8,Johnny Rockets,RI,2020-02-01T00:00:00-05:00,2020-03-01T00:00:00-05:00,2865,2441,44.0,"{""<5"":84,""5-20"":804,""21-60"":469,""61-240"":898,"">240"":186}",209043.5,41.887901,-71.44894599999999,722511.0,RI,44.0,44007.0,Providence County,440070116002.0
84634,sg:c7d077bec1d34e54ac3531914bf84517,Blackstone Valley Chiropractic Health Care,RI,2020-02-01T00:00:00-05:00,2020-03-01T00:00:00-05:00,2861,73,121.0,"{""<5"":1,""5-20"":18,""21-60"":11,""61-240"":18,"">240"":25}",9382.0,41.886029,-71.354422,621310.0,RI,44.0,44007.0,Providence County,440070159001.0
84961,sg:e83531bbeb1d4c2ea381b12c53f7c2bb,Pet Valu,RI,2020-02-01T00:00:00-05:00,2020-03-01T00:00:00-05:00,2891,176,12.0,"{""<5"":10,""5-20"":106,""21-60"":34,""61-240"":18,"">240"":8}",7356.0,41.369745,-71.819299,453910.0,RI,44.0,44009.0,Washington County,440090508021.0
85162,sg:fd851a6af9914dbb88624a482a4a9a76,Chaves Gardens & Florist,RI,2020-02-01T00:00:00-05:00,2020-03-01T00:00:00-05:00,2842,70,29.0,"{""<5"":2,""5-20"":23,""21-60"":24,""61-240"":19,"">240"":2}",4604.0,41.53006,-71.272491,453110.0,RI,44.0,44005.0,Newport County,440050404001.0
85210,sg:018e88fc8e1d4a18948ae328598bec8b,D'alessandro Vincent A,RI,2020-02-01T00:00:00-05:00,2020-03-01T00:00:00-05:00,2919,20,15.0,"{""<5"":1,""5-20"":10,""21-60"":4,""61-240"":3,"">240"":2}",1221.0,41.8434,-71.502424,621111.0,RI,44.0,44007.0,Providence County,440070123002.0
85537,sg:1c4769222b3a4ae0abeda7dc074eaeb2,Bradford Sutcliffe Insurance,RI,2020-02-01T00:00:00-05:00,2020-03-01T00:00:00-05:00,2828,27,26.0,"{""<5"":2,""5-20"":11,""21-60"":10,""61-240"":3,"">240"":1}",1239.0,41.870528,-71.537583,524210.0,RI,44.0,44007.0,Providence County,440070127023.0
86746,sg:8fc237becbee4537b54c8f2160265ff1,Skate Pond,RI,2020-02-01T00:00:00-05:00,2020-03-01T00:00:00-05:00,2865,283,19.0,"{""<5"":6,""5-20"":141,""21-60"":57,""61-240"":56,"">240"":23}",18034.0,41.935922999999995,-71.45323,713940.0,RI,44.0,44007.0,Providence County,440070116004.0
87080,sg:af3de4e2a2434b8583b863b609ad3a18,Wickford Package Store,RI,2020-02-01T00:00:00-05:00,2020-03-01T00:00:00-05:00,2852,41,19.0,"{""<5"":2,""5-20"":21,""21-60"":12,""61-240"":6,"">240"":0}",1656.5,41.571832,-71.453845,445310.0,RI,44.0,44009.0,Washington County,440090503023.0
87532,sg:da199c8cac9d498b956afa60a767bdb6,Greenbush Elementary School,RI,2020-02-01T00:00:00-05:00,2020-03-01T00:00:00-05:00,2893,181,34.0,"{""<5"":4,""5-20"":65,""21-60"":42,""61-240"":30,"">240"":40}",16638.5,41.669928000000006,-71.525221,611110.0,RI,44.0,44003.0,Kent County,440030201012.0
87559,sg:db78f4134986464e914de3ae086b1cdb,IGA,RI,2020-02-01T00:00:00-05:00,2020-03-01T00:00:00-05:00,2876,32,10.0,"{""<5"":1,""5-20"":31,""21-60"":0,""61-240"":0,"">240"":0}",390.0,42.005476,-71.584587,445110.0,RI,44.0,44007.0,Providence County,440070128011.0
88352,sg:2166a114a72f4afabaf72d473badbadf,AutoZone,RI,2020-02-01T00:00:00-05:00,2020-03-01T00:00:00-05:00,2904,56,10.5,"{""<5"":5,""5-20"":39,""21-60"":9,""61-240"":2,"">240"":1}",1405.5,41.863824,-71.449595,441310.0,RI,44.0,44007.0,Providence County,440070119011.0
88531,sg:322eeb00adaa41b5bc457a75bd6c3c50,CSL Plasma,RI,2020-02-01T00:00:00-05:00,2020-03-01T00:00:00-05:00,2916,89,108.0,"{""<5"":0,""5-20"":7,""21-60"":10,""61-240"":49,"">240"":23}",13387.0,41.856595,-71.35238299999999,621991.0,RI,44.0,44007.0,Providence County,440070101021.0
88747,sg:4561a9e3992f4fa5a169f36892c77668,Precious Pups Day Camp and Spa,RI,2020-02-01T00:00:00-05:00,2020-03-01T00:00:00-05:00,2852,9,40.0,"{""<5"":0,""5-20"":4,""21-60"":1,""61-240"":3,"">240"":1}",782.0,41.556374,-71.472103,453910.0,RI,44.0,44009.0,Washington County,440090503013.0
89213,sg:721f0ffc3d39496195b47062443b5777,Tombo Kai,RI,2020-02-01T00:00:00-05:00,2020-03-01T00:00:00-05:00,2919,2,69.0,"{""<5"":0,""5-20"":0,""21-60"":1,""61-240"":1,"">240"":0}",191.0,41.803249,-71.467747,713940.0,RI,44.0,44007.0,Providence County,440070125001.0
89664,sg:9c2bbe8b87354affb98386aeb8223bba,Personal Touch Express Car Wash,RI,2020-02-01T00:00:00-05:00,2020-03-01T00:00:00-05:00,2919,75,10.0,"{""<5"":3,""5-20"":54,""21-60"":11,""61-240"":5,"">240"":2}",2360.5,41.822859,-71.47172900000001,811192.0,RI,44.0,44007.0,Providence County,440070124012.0
89722,sg:a1ca773d7d4f4dc3acc30069608c8187,Diamond Hill Animal Clinic,RI,2020-02-01T00:00:00-05:00,2020-03-01T00:00:00-05:00,2864,8,21.5,"{""<5"":0,""5-20"":2,""21-60"":6,""61-240"":0,"">240"":0}",268.0,42.012190000000004,-71.455962,541940.0,RI,44.0,44007.0,Providence County,440070114021.0
90150,sg:cc40d5931fb2436aa0cc8ef169fc9e8f,Rosely's Beauty Salon Spa and Barbershop,RI,2020-02-01T00:00:00-05:00,2020-03-01T00:00:00-05:00,2909,6,105.5,"{""<5"":1,""5-20"":1,""21-60"":0,""61-240"":4,"">240"":0}",617.0,41.808073,-71.45575799999999,812112.0,RI,44.0,44007.0,Providence County,440070017001.0
90443,sg:e6f6dd0a8390406b93384388ae7483c5,Dunkin',RI,2020-02-01T00:00:00-05:00,2020-03-01T00:00:00-05:00,2904,289,9.0,"{""<5"":21,""5-20"":181,""21-60"":55,""61-240"":27,"">240"":5}",9806.0,41.864011,-71.448985,722515.0,RI,44.0,44007.0,Providence County,440070119011.0
90518,sg:ef25ccf5ce7946c6a020e17a766250f6,Cafeteria La Rueda,RI,2020-02-01T00:00:00-05:00,2020-03-01T00:00:00-05:00,2905,518,42.0,"{""<5"":13,""5-20"":186,""21-60"":82,""61-240"":155,"">240"":82}",48686.0,41.788146000000005,-71.403702,722511.0,RI,44.0,44007.0,Providence County,440070001022.0
90573,sg:f3e5113fa1974dcbb0ab7dc48b95a5a2,Sanford & Son Auto Parts,RI,2020-02-01T00:00:00-05:00,2020-03-01T00:00:00-05:00,2878,14,10.0,"{""<5"":1,""5-20"":9,""21-60"":3,""61-240"":1,"">240"":0}",387.0,41.622924,-71.181263,441310.0,RI,44.0,44005.0,Newport County,440050417021.0
90658,sg:fb1fc7d234d748c0b54e822c15da4df3,Nikos Pizza House,RI,2020-02-01T00:00:00-05:00,2020-03-01T00:00:00-05:00,2830,28,118.0,"{""<5"":0,""5-20"":7,""21-60"":3,""61-240"":18,"">240"":0}",2918.0,41.963741,-71.675084,722511.0,RI,44.0,44007.0,Providence County,440070129001.0
90973,sg:1ad957c738af4abc9165433a42fbc53e,Van Dyke Hair Salon,RI,2020-02-01T00:00:00-05:00,2020-03-01T00:00:00-05:00,2920,1,45.0,"{""<5"":0,""5-20"":0,""21-60"":1,""61-240"":0,"">240"":0}",40.5,41.73451,-71.468225,812112.0,RI,44.0,44007.0,Providence County,440070142001.0
91267,sg:3362da2946514d9eb634204fd8b0c316,Sound Fx,RI,2020-02-01T00:00:00-05:00,2020-03-01T00:00:00-05:00,2893,133,43.0,"{""<5"":5,""5-20"":34,""21-60"":43,""61-240"":26,"">240"":25}",12092.0,41.686634000000005,-71.501374,443142.0,RI,44.0,44003.0,Kent County,440030201021.0
91315,sg:388ea7b398fa4918b334a3bc8e6bde2a,The Tavern on Main,RI,2020-02-01T00:00:00-05:00,2020-03-01T00:00:00-05:00,2814,279,64.0,"{""<5"":10,""5-20"":55,""21-60"":63,""61-240"":117,"">240"":34}",29032.5,41.913212,-71.669111,722511.0,RI,44.0,44007.0,Providence County,440070131022.0
91419,sg:41922b8b91134d6e99f3bb2335be2fe3,JW Graham,RI,2020-02-01T00:00:00-05:00,2020-03-01T00:00:00-05:00,2852,20,20.5,"{""<5"":0,""5-20"":10,""21-60"":9,""61-240"":0,"">240"":1}",729.5,41.569462,-71.452986,448310.0,RI,44.0,44009.0,Washington County,440090503023.0
91474,sg:468764af1d5243548452eb8f05982661,CrossFit,RI,2020-02-01T00:00:00-05:00,2020-03-01T00:00:00-05:00,2916,52,77.5,"{""<5"":0,""5-20"":13,""21-60"":12,""61-240"":20,"">240"":7}",5338.5,41.842121999999996,-71.36891,713940.0,RI,44.0,44007.0,Providence County,440070101014.0
91506,sg:49ae5bab0ca743de8b17d3ba80e7740e,Metro By Tmobile,RI,2020-02-01T00:00:00-05:00,2020-03-01T00:00:00-05:00,2907,288,41.0,"{""<5"":8,""5-20"":88,""21-60"":78,""61-240"":93,"">240"":21}",23315.5,41.803403,-71.419535,517312.0,RI,44.0,44007.0,Providence County,440070003002.0
91656,sg:56fe9beef657435d917fbd68b2c2e290,Benny's Clam Shack,RI,2020-02-01T00:00:00-05:00,2020-03-01T00:00:00-05:00,2879,146,30.5,"{""<5"":4,""5-20"":55,""21-60"":43,""61-240"":32,"">240"":12}",10135.0,41.438458000000004,-71.502324,722511.0,RI,44.0,44009.0,Washington County,440090512023.0
91931,sg:70e813285b094104ad01b2ed167feb72,Tennis Rhode Island,RI,2020-02-01T00:00:00-05:00,2020-03-01T00:00:00-05:00,2914,233,84.0,"{""<5"":3,""5-20"":25,""21-60"":42,""61-240"":110,"">240"":53}",31296.0,41.805451,-71.348835,713940.0,RI,44.0,44007.0,Providence County,440070105011.0
91995,sg:770e42aa7bba4f63a6023e5f44e0c2ef,Lindsay Brislin Dentistry,RI,2020-02-01T00:00:00-05:00,2020-03-01T00:00:00-05:00,2861,13,36.0,"{""<5"":0,""5-20"":4,""21-60"":6,""61-240"":2,"">240"":1}",834.0,41.886202000000004,-71.362154,621210.0,RI,44.0,44007.0,Providence County,440070156003.0
92091,sg:813239e313764bbaa6a0bc139c8d1837,Dr Conrad A Cadoret,RI,2020-02-01T00:00:00-05:00,2020-03-01T00:00:00-05:00,2895,14,14.0,"{""<5"":0,""5-20"":9,""21-60"":2,""61-240"":2,"">240"":1}",734.5,42.001982,-71.504676,446130.0,RI,44.0,44007.0,Providence County,440070179002.0
92248,sg:903230f8a6ad4fd5b48130ecd867bf00,Creatures Creatures Creatures,RI,2020-02-01T00:00:00-05:00,2020-03-01T00:00:00-05:00,2896,164,21.0,"{""<5"":5,""5-20"":73,""21-60"":49,""61-240"":17,"">240"":20}",10268.0,41.994424,-71.598905,453910.0,RI,44.0,44007.0,Providence County,440070128011.0
92378,sg:9b71dd48576842f2bec0d8af03675844,Mt Hope Paint & Decorating Llc,RI,2020-02-01T00:00:00-05:00,2020-03-01T00:00:00-05:00,2809,25,12.0,"{""<5"":2,""5-20"":14,""21-60"":5,""61-240"":2,"">240"":2}",1163.5,41.692954,-71.263701,444120.0,RI,44.0,44001.0,Bristol County,440010309024.0
92781,sg:c6092510897948a0a2b509216ad9a536,AAA,RI,2020-02-01T00:00:00-05:00,2020-03-01T00:00:00-05:00,2882,4,59.5,"{""<5"":0,""5-20"":1,""21-60"":1,""61-240"":1,"">240"":1}",443.5,41.430101,-71.481564,524210.0,RI,44.0,44009.0,Washington County,440090515044.0
92801,sg:c89d42ef11704242a41892c752d4b06a,Pansa Andrew A Hardware,RI,2020-02-01T00:00:00-05:00,2020-03-01T00:00:00-05:00,2809,20,42.0,"{""<5"":0,""5-20"":4,""21-60"":8,""61-240"":6,"">240"":2}",1757.0,41.666796999999995,-71.272632,444130.0,RI,44.0,44001.0,Bristol County,440010308003.0
93218,sg:f29c3994f00b4c6ba04d839c84517bf0,Furniture Factory Outlet,RI,2020-02-01T00:00:00-05:00,2020-03-01T00:00:00-05:00,2910,109,31.0,"{""<5"":0,""5-20"":39,""21-60"":28,""61-240"":19,"">240"":23}",10001.0,41.772493,-71.423478,442110.0,RI,44.0,44007.0,Providence County,440070136003.0
93332,sg:fe69dbe27d234899a65d9f7893daea10,Red Stone Tire,RI,2020-02-01T00:00:00-05:00,2020-03-01T00:00:00-05:00,2891,18,18.0,"{""<5"":0,""5-20"":9,""21-60"":8,""61-240"":1,"">240"":0}",587.0,41.394386,-71.803525,441310.0,RI,44.0,44009.0,Washington County,440090509013.0
93758,sg:230f4109dbc4487fa3e49928b7786804,Staples,RI,2020-02-01T00:00:00-05:00,2020-03-01T00:00:00-05:00,2842,174,11.0,"{""<5"":9,""5-20"":118,""21-60"":34,""61-240"":8,"">240"":5}",5278.5,41.527201,-71.297618,453210.0,RI,44.0,44005.0,Newport County,440050403032.0
94114,sg:44b85e80b79d48a898830151d3b255a5,Consultants In Urology,RI,2020-02-01T00:00:00-05:00,2020-03-01T00:00:00-05:00,2919,57,69.0,"{""<5"":0,""5-20"":1,""21-60"":22,""61-240"":22,"">240"":12}",7094.5,41.827391999999996,-71.501663,621111.0,RI,44.0,44007.0,Providence County,440070124014.0
94211,sg:4d1aa62122744745987e9d6bcb39b762,Dusty's Ice Cream Weekapaug,RI,2020-02-01T00:00:00-05:00,2020-03-01T00:00:00-05:00,2891,4,10.5,"{""<5"":0,""5-20"":3,""21-60"":0,""61-240"":1,"">240"":0}",188.0,41.330562,-71.764888,722515.0,RI,44.0,44009.0,Washington County,440090510004.0
94388,sg:5e39d4365a7b46cf926014b92474608e,Godavari,RI,2020-02-01T00:00:00-05:00,2020-03-01T00:00:00-05:00,2864,13,42.0,"{""<5"":1,""5-20"":4,""21-60"":3,""61-240"":2,"">240"":3}",1195.0,41.918926,-71.407585,722511.0,RI,44.0,44007.0,Providence County,440070113012.0
94619,sg:754d00187ad9447b982d9c3afc4ac1f4,Joshua's top notch,RI,2020-02-01T00:00:00-05:00,2020-03-01T00:00:00-05:00,2860,15,23.0,"{""<5"":1,""5-20"":5,""21-60"":3,""61-240"":4,"">240"":2}",1268.5,41.863125,-71.41287,812320.0,RI,44.0,44007.0,Providence County,440070163001.0
94690,sg:7c2b2feaec044df6aea2bd08ae9cd085,Taqueria,RI,2020-02-01T00:00:00-05:00,2020-03-01T00:00:00-05:00,2904,485,23.0,"{""<5"":6,""5-20"":183,""21-60"":189,""61-240"":63,"">240"":44}",29998.5,41.837222,-71.408268,722511.0,RI,44.0,44007.0,Providence County,440070031003.0
94818,sg:87908e5a2c164473a78f80469924b40a,G & S Automotive Repair,RI,2020-02-01T00:00:00-05:00,2020-03-01T00:00:00-05:00,2871,14,45.5,"{""<5"":0,""5-20"":6,""21-60"":1,""61-240"":3,"">240"":4}",1527.0,41.560931,-71.28705500000001,811111.0,RI,44.0,44005.0,Newport County,440050401032.0
94928,sg:93e4e60295434c67a10f962cd007f3a8,YMCA,RI,2020-02-01T00:00:00-05:00,2020-03-01T00:00:00-05:00,2865,85,20.0,"{""<5"":2,""5-20"":41,""21-60"":28,""61-240"":14,"">240"":0}",3758.5,41.903775,-71.44391,624190.0,RI,44.0,44007.0,Providence County,440070116003.0
96027,sg:013698dcadb74ee792e5f480ab060e13,ANLI Academy,RI,2020-02-01T00:00:00-05:00,2020-03-01T00:00:00-05:00,2914,16,59.0,"{""<5"":0,""5-20"":4,""21-60"":4,""61-240"":8,"">240"":0}",1416.0,41.816618,-71.358081,611310.0,RI,44.0,44007.0,Providence County,440070103003.0
96155,sg:0dc5c14060d34b629c59a3a6f3a2f47e,Triggs Memorial Golf Course,RI,2020-02-01T00:00:00-05:00,2020-03-01T00:00:00-05:00,2909,976,90.0,"{""<5"":11,""5-20"":222,""21-60"":168,""61-240"":281,"">240"":294}",122457.0,41.836644,-71.458718,713910.0,RI,44.0,44007.0,Providence County,440070024005.0
96221,sg:13a9a2736f154688a140e84856416006,Ivy Lodge Bed and Breakfast,RI,2020-02-01T00:00:00-05:00,2020-03-01T00:00:00-05:00,2840,219,47.0,"{""<5"":4,""5-20"":65,""21-60"":54,""61-240"":46,"">240"":50}",21932.5,41.476844,-71.306035,721110.0,RI,44.0,44005.0,Newport County,440050408003.0
96384,sg:22364343a2624c74864186f44a332908,Washington Trust,RI,2020-02-01T00:00:00-05:00,2020-03-01T00:00:00-05:00,2886,83,12.0,"{""<5"":4,""5-20"":42,""21-60"":5,""61-240"":8,"">240"":24}",7701.5,41.697505,-71.468096,522110.0,RI,44.0,44003.0,Kent County,440030222011.0
96638,sg:3822b9be5dc94e1da8f46ea83b13d664,R B S,RI,2020-02-01T00:00:00-05:00,2020-03-01T00:00:00-05:00,2842,77,182.0,"{""<5"":0,""5-20"":5,""21-60"":9,""61-240"":35,"">240"":28}",12414.5,41.501872,-71.287583,541213.0,RI,44.0,44005.0,Newport County,440050404002.0
96809,sg:455d5133e463418d81e973ce0f41956f,Fearless Fish Market,RI,2020-02-01T00:00:00-05:00,2020-03-01T00:00:00-05:00,2903,2,5.0,"{""<5"":0,""5-20"":2,""21-60"":0,""61-240"":0,"">240"":0}",25.0,41.818838,-71.423889,445220.0,RI,44.0,44007.0,Providence County,440070011002.0
97025,sg:5bca9d707ba7452eab9acd6762eed9d0,Dog House,RI,2020-02-01T00:00:00-05:00,2020-03-01T00:00:00-05:00,2879,20,12.0,"{""<5"":1,""5-20"":11,""21-60"":5,""61-240"":1,"">240"":2}",973.0,41.440374,-71.493921,453910.0,RI,44.0,44009.0,Washington County,440090512021.0
97117,sg:6442a838cf07477b9106f299e7811688,Living Hope Assembly of God,RI,2020-02-01T00:00:00-05:00,2020-03-01T00:00:00-05:00,2860,129,81.0,"{""<5"":3,""5-20"":22,""21-60"":34,""61-240"":55,"">240"":15}",13537.0,41.877449,-71.380619,813110.0,RI,44.0,44007.0,Providence County,440070160001.0
97565,sg:8fa9ff173ffd459a952bc6d4ce80363d,Uncle's Sound Systems,RI,2020-02-01T00:00:00-05:00,2020-03-01T00:00:00-05:00,2838,1,19.0,"{""<5"":0,""5-20"":1,""21-60"":0,""61-240"":0,"">240"":0}",12.5,41.972057,-71.475799,811192.0,RI,44.0,44007.0,Providence County,440070115004.0
98497,sg:e8bcf9165cb54dd79dc5e8bbde29536c,Belanger Michael Dr,RI,2020-02-01T00:00:00-05:00,2020-03-01T00:00:00-05:00,2919,12,117.5,"{""<5"":0,""5-20"":0,""21-60"":2,""61-240"":6,"">240"":4}",1944.0,41.827502,-71.50142199999999,621111.0,RI,44.0,44007.0,Providence County,440070124014.0
98886,sg:0b2ebe3f71ab4422a06dd23810783eb7,Vantage Point Tutors,RI,2020-02-01T00:00:00-05:00,2020-03-01T00:00:00-05:00,2906,1,708.0,"{""<5"":0,""5-20"":0,""21-60"":0,""61-240"":0,"">240"":1}",240.0,41.827940999999996,-71.385385,611691.0,RI,44.0,44007.0,Providence County,440070035004.0
98995,sg:151060a717f849de8a00cfc95c4e9f08,Atomic salon,RI,2020-02-01T00:00:00-05:00,2020-03-01T00:00:00-05:00,2904,5,18.0,"{""<5"":1,""5-20"":2,""21-60"":0,""61-240"":1,"">240"":1}",418.0,41.868584999999996,-71.434352,812112.0,RI,44.0,44007.0,Providence County,440070118005.0
99056,sg:19d5d84e5b5245738e85c283b9d26cf1,Baja's,RI,2020-02-01T00:00:00-05:00,2020-03-01T00:00:00-05:00,2916,275,20.0,"{""<5"":12,""5-20"":135,""21-60"":86,""61-240"":29,"">240"":13}",12685.0,41.848138,-71.354098,722511.0,RI,44.0,44007.0,Providence County,440070101021.0
99199,sg:24dc7e3953c340ab8e64f957120a20e4,Ace Hardware,RI,2020-02-01T00:00:00-05:00,2020-03-01T00:00:00-05:00,2888,198,12.5,"{""<5"":15,""5-20"":117,""21-60"":47,""61-240"":14,"">240"":5}",6710.5,41.765924,-71.404308,444130.0,RI,44.0,44003.0,Kent County,440030210022.0
99430,sg:391d3170c5cd434e9f7624317c5cce3a,Artistic Pet Salon,RI,2020-02-01T00:00:00-05:00,2020-03-01T00:00:00-05:00,2920,58,57.5,"{""<5"":3,""5-20"":16,""21-60"":11,""61-240"":15,"">240"":13}",6030.5,41.782234,-71.46399100000001,453910.0,RI,44.0,44007.0,Providence County,440070145023.0
99902,sg:67ce6f3dbdb54aeea7f1a1e18c42f9ae,Politelli Family Dental,RI,2020-02-01T00:00:00-05:00,2020-03-01T00:00:00-05:00,2888,21,55.0,"{""<5"":0,""5-20"":3,""21-60"":9,""61-240"":7,"">240"":2}",1935.5,41.739343,-71.408441,621210.0,RI,44.0,44003.0,Kent County,440030212003.0
100116,sg:7ea004e736a74033a73143760a52fe80,Central Car Wash,RI,2020-02-01T00:00:00-05:00,2020-03-01T00:00:00-05:00,2861,57,115.0,"{""<5"":3,""5-20"":12,""21-60"":6,""61-240"":17,"">240"":19}",7519.0,41.886156,-71.360171,811192.0,RI,44.0,44007.0,Providence County,440070159001.0
100552,sg:a83352294aa3496aa8f9badce27eca89,Life Care Centers of America,RI,2020-02-01T00:00:00-05:00,2020-03-01T00:00:00-05:00,2914,321,85.0,"{""<5"":6,""5-20"":69,""21-60"":58,""61-240"":82,"">240"":106}",41007.5,41.806995,-71.344142,623110.0,RI,44.0,44007.0,Providence County,440070105011.0
100604,sg:acfa39a64f5343bbabc25fd3ca156c2b,Critter Hut Aquarium and Pets,RI,2020-02-01T00:00:00-05:00,2020-03-01T00:00:00-05:00,2852,92,9.0,"{""<5"":8,""5-20"":79,""21-60"":0,""61-240"":2,"">240"":3}",2028.5,41.616999,-71.45933199999999,453910.0,RI,44.0,44009.0,Washington County,440090501034.0
100708,sg:b755d5d06ac440afad098cc5f8244531,Shell Oil,RI,2020-02-01T00:00:00-05:00,2020-03-01T00:00:00-05:00,2904,191,6.0,"{""<5"":15,""5-20"":150,""21-60"":14,""61-240"":8,"">240"":4}",4643.5,41.852026,-71.424604,447110.0,RI,44.0,44007.0,Providence County,440070029004.0
100958,sg:d1db5f3dc18248709ed2f448bc436ff1,Westerly DMV,RI,2020-02-01T00:00:00-05:00,2020-03-01T00:00:00-05:00,2891,30,42.5,"{""<5"":0,""5-20"":9,""21-60"":9,""61-240"":10,"">240"":2}",2462.0,41.376678000000005,-71.82969399999999,926120.0,RI,44.0,44009.0,Washington County,440090508014.0
101327,sg:f60d256b4b624552974dcc9ecd07ced7,Mangia Trattoria & Pizzeria,RI,2020-02-01T00:00:00-05:00,2020-03-01T00:00:00-05:00,2806,132,31.0,"{""<5"":4,""5-20"":44,""21-60"":48,""61-240"":26,"">240"":10}",8817.0,41.740938,-71.309724,722511.0,RI,44.0,44001.0,Bristol County,440010302003.0
102363,sg:53f1d8f030f64009975d2b18aaf7c369,Urology Associates,RI,2020-02-01T00:00:00-05:00,2020-03-01T00:00:00-05:00,2840,56,64.0,"{""<5"":2,""5-20"":16,""21-60"":8,""61-240"":11,"">240"":19}",6744.5,41.496112,-71.304742,621111.0,RI,44.0,44005.0,Newport County,440050406002.0
102472,sg:5e0390207f4d4a2980af9a6640b7a24c,Childrens Learning Express,RI,2020-02-01T00:00:00-05:00,2020-03-01T00:00:00-05:00,2852,29,7.0,"{""<5"":1,""5-20"":21,""21-60"":3,""61-240"":3,"">240"":1}",1078.0,41.593378,-71.457076,624410.0,RI,44.0,44009.0,Washington County,440090501022.0
102761,sg:790af7e72c7747c985deee23bf03302c,Jeff Dantas indoor Golf Baseball Training,RI,2020-02-01T00:00:00-05:00,2020-03-01T00:00:00-05:00,2885,257,60.0,"{""<5"":1,""5-20"":51,""21-60"":78,""61-240"":101,"">240"":26}",25239.5,41.727028000000004,-71.269379,713940.0,RI,44.0,44001.0,Bristol County,440010306021.0
102857,sg:81aed499a1c14a2b82c6c4e90391e6a6,Busy Bee Florist,RI,2020-02-01T00:00:00-05:00,2020-03-01T00:00:00-05:00,2818,67,13.0,"{""<5"":3,""5-20"":42,""21-60"":16,""61-240"":3,"">240"":3}",2352.0,41.638018,-71.468216,453110.0,RI,44.0,44003.0,Kent County,440030224002.0
103461,sg:c0c269dbd6434160a929d29195ed8384,Empower the Change Nutrition,RI,2020-02-01T00:00:00-05:00,2020-03-01T00:00:00-05:00,2886,3,9.0,"{""<5"":0,""5-20"":3,""21-60"":0,""61-240"":0,"">240"":0}",37.5,41.73129,-71.43520600000001,722515.0,RI,44.0,44003.0,Kent County,440039800001.0
103732,sg:dd4206b892a94cd6807509c363760785,Gessman and Company,RI,2020-02-01T00:00:00-05:00,2020-03-01T00:00:00-05:00,2886,9,66.0,"{""<5"":0,""5-20"":2,""21-60"":2,""61-240"":3,"">240"":2}",1037.5,41.690127000000004,-71.455853,541213.0,RI,44.0,44003.0,Kent County,440030220003.0
103777,sg:e282b20d7e7540fc8015aca6aa98b0b1,J & L Autobody & Automotive,RI,2020-02-01T00:00:00-05:00,2020-03-01T00:00:00-05:00,2893,7,96.0,"{""<5"":0,""5-20"":0,""21-60"":3,""61-240"":4,"">240"":0}",723.5,41.696656,-71.520308,811111.0,RI,44.0,44003.0,Kent County,440030202002.0
103952,sg:f40677c7df0f42cb8cb5e648510e0ea2,Medical Diagnostics,RI,2020-02-01T00:00:00-05:00,2020-03-01T00:00:00-05:00,2886,334,44.5,"{""<5"":1,""5-20"":84,""21-60"":128,""61-240"":51,"">240"":70}",30712.0,41.698443,-71.478466,621111.0,RI,44.0,44003.0,Kent County,440030222021.0
104178,sg:0a1c095340584380b3bff90af8db12c9,Frog & Toad East,RI,2020-02-01T00:00:00-05:00,2020-03-01T00:00:00-05:00,2906,115,20.0,"{""<5"":8,""5-20"":51,""21-60"":38,""61-240"":18,"">240"":0}",4905.5,41.848463,-71.395075,453220.0,RI,44.0,44007.0,Providence County,440070033003.0
104299,sg:14a72042f58848558f14d3837c81acf2,Sakonnet River Grille,RI,2020-02-01T00:00:00-05:00,2020-03-01T00:00:00-05:00,2878,92,34.5,"{""<5"":3,""5-20"":28,""21-60"":39,""61-240"":18,"">240"":4}",5606.0,41.659278,-71.191304,722511.0,RI,44.0,44005.0,Newport County,440050416022.0
105138,sg:6257efd37e444b6cadfcabe66e4ccaab,Veterans Park,RI,2020-02-01T00:00:00-05:00,2020-03-01T00:00:00-05:00,2809,5,14.0,"{""<5"":0,""5-20"":3,""21-60"":1,""61-240"":1,"">240"":0}",228.5,41.681044,-71.274973,712190.0,RI,44.0,44001.0,Bristol County,440010309024.0
105217,sg:69aaa9fcff3444448b1bc61833c69e31,New England Farms,RI,2020-02-01T00:00:00-05:00,2020-03-01T00:00:00-05:00,2830,18,5.0,"{""<5"":5,""5-20"":13,""21-60"":0,""61-240"":0,"">240"":0}",175.0,41.977628,-71.614631,447110.0,RI,44.0,44007.0,Providence County,440070130021.0
105296,sg:7301d61a64464b418cd692553de5d44e,Empowerment Counseling & Psychotherapy Center,RI,2020-02-01T00:00:00-05:00,2020-03-01T00:00:00-05:00,2903,2,43.5,"{""<5"":1,""5-20"":0,""21-60"":0,""61-240"":1,"">240"":0}",153.0,41.820168,-71.42688000000001,621330.0,RI,44.0,44007.0,Providence County,440070011003.0
105313,sg:74a0a5f20f154a74bc6d91da334fe5ee,Estee Bridal,RI,2020-02-01T00:00:00-05:00,2020-03-01T00:00:00-05:00,2818,10,18.0,"{""<5"":0,""5-20"":5,""21-60"":3,""61-240"":2,"">240"":0}",485.0,41.656431,-71.453913,448120.0,RI,44.0,44003.0,Kent County,440030209012.0
105338,sg:770232b9c4ba4539a20afe04971d423b,Town Hall Park,RI,2020-02-01T00:00:00-05:00,2020-03-01T00:00:00-05:00,2865,378,41.0,"{""<5"":9,""5-20"":114,""21-60"":108,""61-240"":127,"">240"":20}",29735.0,41.929269,-71.444526,712190.0,RI,44.0,44007.0,Providence County,440070116001.0
106145,sg:c352f31d2af648c08bb3a02ea49949a0,Paul's Liquor Mart,RI,2020-02-01T00:00:00-05:00,2020-03-01T00:00:00-05:00,2864,63,15.0,"{""<5"":3,""5-20"":33,""21-60"":4,""61-240"":20,"">240"":3}",4312.0,41.914568,-71.404496,445310.0,RI,44.0,44007.0,Providence County,440070113012.0
106262,sg:cd83facb300244e0a26ea85805a908e8,Northstar Yacht Sales,RI,2020-02-01T00:00:00-05:00,2020-03-01T00:00:00-05:00,2871,99,41.0,"{""<5"":0,""5-20"":38,""21-60"":26,""61-240"":29,"">240"":6}",7332.5,41.590663,-71.282403,441222.0,RI,44.0,44005.0,Newport County,440050401034.0
106521,sg:e60eed655c714969bd09bc755a5faa47,Apponaug Chiropractic Center,RI,2020-02-01T00:00:00-05:00,2020-03-01T00:00:00-05:00,2886,29,19.0,"{""<5"":0,""5-20"":17,""21-60"":8,""61-240"":3,"">240"":1}",1228.0,41.71418,-71.44648199999999,621310.0,RI,44.0,44003.0,Kent County,440030219011.0
106887,sg:0aab3edf5e624effa96cfaa0e4d6196f,Carolyn Anne Wellness,RI,2020-02-01T00:00:00-05:00,2020-03-01T00:00:00-05:00,2852,138,26.0,"{""<5"":3,""5-20"":48,""21-60"":59,""61-240"":23,"">240"":5}",7658.5,41.566571,-71.4633,713940.0,RI,44.0,44009.0,Washington County,440090503023.0
106893,sg:0b1fbae350c9455e8676330daac7708c,Robert J Varone DDS,RI,2020-02-01T00:00:00-05:00,2020-03-01T00:00:00-05:00,2886,85,44.0,"{""<5"":2,""5-20"":23,""21-60"":28,""61-240"":28,"">240"":4}",6600.5,41.731414,-71.442459,621210.0,RI,44.0,44003.0,Kent County,440030211004.0
106923,sg:0d6003c0c25a45fdb83fa31113ee57a0,Valvoline,RI,2020-02-01T00:00:00-05:00,2020-03-01T00:00:00-05:00,2888,60,19.5,"{""<5"":2,""5-20"":29,""21-60"":16,""61-240"":10,"">240"":3}",3240.5,41.745377000000005,-71.406085,811198.0,RI,44.0,44003.0,Kent County,440030213003.0
