,safegraph_place_id,location_name,region,date_range_start,date_range_end,postal_code,raw_visit_counts,median_dwell,bucketed_dwell_times,est_total_dwell,latitude,longitude,naics_code,state,stateFIPS,countyFIPS,countyName,CBGFIPS
207,sg:14cab907718f41a789d55a2a781478bc,Spring Street Market and Pizza,RI,2020-01-01T00:00:00-05:00,2020-02-01T00:00:00-05:00,2832,74,15.0,"{""<5"":3,""5-20"":39,""21-60"":15,""61-240"":11,"">240"":6}",4198.0,41.507385,-71.716817,722511.0,RI,44.0,44009.0,Washington County,440090507001.0
1677,sg:a28ecd6b68404b9a89b793667d7d1833,Malone Raymond L,RI,2020-01-01T00:00:00-05:00,2020-02-01T00:00:00-05:00,2837,27,30.0,"{""<5"":1,""5-20"":9,""21-60"":6,""61-240"":2,"">240"":9}",2819.0,41.539881,-71.156492,611692.0,RI,44.0,44005.0,Newport County,440050414002.0
1970,sg:be594ecac27a4337a03e26b856f243cf,Greenwich Bay Marina A Safe Harbor Marina,RI,2020-01-01T00:00:00-05:00,2020-02-01T00:00:00-05:00,2889,64,17.0,"{""<5"":1,""5-20"":36,""21-60"":8,""61-240"":11,"">240"":8}",4352.0,41.693835,-71.391537,441222.0,RI,44.0,44003.0,Kent County,440030217001.0
2511,sg:f610561c6685455b9517515455b04c5c,Brown St Playground,RI,2020-01-01T00:00:00-05:00,2020-02-01T00:00:00-05:00,2906,35,675.0,"{""<5"":1,""5-20"":7,""21-60"":4,""61-240"":2,"">240"":21}",5593.0,41.833762,-71.404246,713990.0,RI,44.0,44007.0,Providence County,440070036022.0
2888,sg:1a33821a6aae4a52b25d9140a0c81100,Victoria's Flowers,RI,2020-01-01T00:00:00-05:00,2020-02-01T00:00:00-05:00,2885,164,24.0,"{""<5"":7,""5-20"":67,""21-60"":47,""61-240"":24,"">240"":19}",10930.5,41.719721,-71.26867299999999,453110.0,RI,44.0,44001.0,Bristol County,440010306022.0
3183,sg:3801532d245041c39cae7a96c8bdb409,New England Truck Solutions,RI,2020-01-01T00:00:00-05:00,2020-02-01T00:00:00-05:00,2896,81,52.0,"{""<5"":3,""5-20"":24,""21-60"":16,""61-240"":22,"">240"":16}",8106.5,41.991685,-71.563304,339950.0,RI,44.0,44007.0,Providence County,440070128031.0
3313,sg:439652c7d80b4119b28a81f6eca6ea81,Pooch Pawsitive,RI,2020-01-01T00:00:00-05:00,2020-02-01T00:00:00-05:00,2914,39,27.0,"{""<5"":0,""5-20"":18,""21-60"":3,""61-240"":8,"">240"":10}",3950.5,41.813619,-71.352733,812910.0,RI,44.0,44007.0,Providence County,440070103003.0
3755,sg:6d214c61624e4bfdb464bd713f913639,Mc Caffrey John T DO,RI,2020-01-01T00:00:00-05:00,2020-02-01T00:00:00-05:00,2840,107,269.0,"{""<5"":4,""5-20"":17,""21-60"":16,""61-240"":15,"">240"":55}",16328.0,41.501427,-71.304641,621111.0,RI,44.0,44005.0,Newport County,440050406001.0
3767,sg:6e56d19a6c3b488db89c6f63bcab746d,Bonollo Provision Co,RI,2020-01-01T00:00:00-05:00,2020-02-01T00:00:00-05:00,2908,5,10.0,"{""<5"":0,""5-20"":3,""21-60"":0,""61-240"":2,"">240"":0}",338.5,41.843773999999996,-71.420262,445110.0,RI,44.0,44007.0,Providence County,440070027002.0
4935,sg:e25913ee2ae74086b71837cb57db94fb,Dunkin',RI,2020-01-01T00:00:00-05:00,2020-02-01T00:00:00-05:00,2817,169,6.0,"{""<5"":26,""5-20"":112,""21-60"":19,""61-240"":8,"">240"":4}",4398.5,41.612534000000004,-71.665989,722515.0,RI,44.0,44003.0,Kent County,440030208002.0
5875,sg:3cbca7e829a7424fa8795336b70c4a22,Johnston Child Care Center,RI,2020-01-01T00:00:00-05:00,2020-02-01T00:00:00-05:00,2919,10,9.0,"{""<5"":0,""5-20"":6,""21-60"":1,""61-240"":2,"">240"":1}",656.5,41.862671,-71.492017,624410.0,,,,,
6082,sg:51cb06ee47524b439f4782e7230daafa,Newport Dog Park,RI,2020-01-01T00:00:00-05:00,2020-02-01T00:00:00-05:00,2840,50,20.5,"{""<5"":0,""5-20"":25,""21-60"":11,""61-240"":14,"">240"":0}",2865.0,41.504211,-71.31814399999999,712190.0,RI,44.0,44005.0,Newport County,440050405002.0
6788,sg:9d9104b68c704d40a4f27b19255d6d4c,Knight St Park,RI,2020-01-01T00:00:00-05:00,2020-02-01T00:00:00-05:00,2909,457,68.0,"{""<5"":6,""5-20"":71,""21-60"":130,""61-240"":189,"">240"":61}",49252.0,41.822559999999996,-71.431143,712190.0,RI,44.0,44007.0,Providence County,440070009002.0
7398,sg:ddcc1a7e9ec844599fc0869818708b51,Warren Monument,RI,2020-01-01T00:00:00-05:00,2020-02-01T00:00:00-05:00,2885,65,49.0,"{""<5"":2,""5-20"":21,""21-60"":14,""61-240"":23,"">240"":5}",5496.0,41.728704,-71.28085300000001,712120.0,RI,44.0,44001.0,Bristol County,440010305002.0
7598,sg:eeee8eacc81345d48c36dd83380d2532,University Medical Foundation,RI,2020-01-01T00:00:00-05:00,2020-02-01T00:00:00-05:00,2888,4,78.5,"{""<5"":0,""5-20"":1,""21-60"":1,""61-240"":1,"">240"":1}",443.5,41.749937,-71.42103399999999,621111.0,RI,44.0,44003.0,Kent County,440030211001.0
8277,sg:35e149d4a7cb476dbd0ecd8a68a3cc38,Pastiche,RI,2020-01-01T00:00:00-05:00,2020-02-01T00:00:00-05:00,2903,223,21.0,"{""<5"":9,""5-20"":92,""21-60"":86,""61-240"":30,"">240"":6}",10610.5,41.824177,-71.42658399999999,722515.0,RI,44.0,44007.0,Providence County,440070009001.0
8323,sg:3a2d3952cc8f427cb129c649f5374319,Dunkin',RI,2020-01-01T00:00:00-05:00,2020-02-01T00:00:00-05:00,2816,796,8.5,"{""<5"":92,""5-20"":428,""21-60"":116,""61-240"":140,"">240"":20}",36148.0,41.690713,-71.566786,722515.0,RI,44.0,44003.0,Kent County,440030206021.0
8823,sg:6e6c30451a4c47afb4602684bdf19269,Pet Valu,RI,2020-01-01T00:00:00-05:00,2020-02-01T00:00:00-05:00,2842,712,17.0,"{""<5"":36,""5-20"":372,""21-60"":223,""61-240"":52,"">240"":29}",28557.5,41.516246,-71.298136,453910.0,RI,44.0,44005.0,Newport County,440050403021.0
8940,sg:78b5adec3e764631a17ce06246b5fe5f,Midstate Gun Company,RI,2020-01-01T00:00:00-05:00,2020-02-01T00:00:00-05:00,2816,165,56.0,"{""<5"":0,""5-20"":28,""21-60"":63,""61-240"":68,"">240"":6}",14575.5,41.678203,-71.58587299999999,451110.0,RI,44.0,44003.0,Kent County,440030207032.0
9016,sg:80f59d7acdc744e0b17d1d7f9bed271f,Weight Watchers,RI,2020-01-01T00:00:00-05:00,2020-02-01T00:00:00-05:00,2878,40,48.0,"{""<5"":1,""5-20"":5,""21-60"":15,""61-240"":15,"">240"":4}",3890.0,41.642285,-71.205246,812191.0,RI,44.0,44005.0,Newport County,440050416022.0
9312,sg:9fa9fba226114497b32226bf66b9a7b1,United States Postal Service (USPS),RI,2020-01-01T00:00:00-05:00,2020-02-01T00:00:00-05:00,2801,36,17.0,"{""<5"":1,""5-20"":21,""21-60"":7,""61-240"":6,"">240"":1}",1691.5,41.555412,-71.12904499999999,491110.0,RI,44.0,44005.0,Newport County,440050414002.0
9495,sg:b0eb446f0ecb4f3aa211e27175559890,City Kitty Veterinary Care For Cats,RI,2020-01-01T00:00:00-05:00,2020-02-01T00:00:00-05:00,2906,2,308.5,"{""<5"":0,""5-20"":0,""21-60"":0,""61-240"":0,"">240"":2}",480.0,41.837134999999996,-71.401176,541940.0,RI,44.0,44007.0,Providence County,440070031001.0
9600,sg:bd28aa04a280481996082c8d5890f708,Popeyes Louisiana Kitchen,RI,2020-01-01T00:00:00-05:00,2020-02-01T00:00:00-05:00,2817,152,517.0,"{""<5"":5,""5-20"":9,""21-60"":15,""61-240"":23,"">240"":100}",28194.0,41.608944,-71.66428,722513.0,RI,44.0,44003.0,Kent County,440030208003.0
10180,sg:f7b78d020bff42739aa99c5913b54acf,Firestone Complete Auto Care,RI,2020-01-01T00:00:00-05:00,2020-02-01T00:00:00-05:00,2914,184,19.0,"{""<5"":9,""5-20"":92,""21-60"":49,""61-240"":20,"">240"":14}",9527.0,41.821803,-71.35975,441310.0,RI,44.0,44007.0,Providence County,440070103001.0
10242,sg:fdc74c5259184442bce2af78b5a44733,Pito's Restaurant 1,RI,2020-01-01T00:00:00-05:00,2020-02-01T00:00:00-05:00,2905,544,21.0,"{""<5"":13,""5-20"":247,""21-60"":145,""61-240"":77,"">240"":62}",35461.0,41.796834999999994,-71.413253,722511.0,RI,44.0,44007.0,Providence County,440070002004.0
10500,sg:15910f43a6524689a66a3175b6aeb1d8,CrossFit,RI,2020-01-01T00:00:00-05:00,2020-02-01T00:00:00-05:00,2891,193,49.0,"{""<5"":1,""5-20"":40,""21-60"":76,""61-240"":73,"">240"":3}",15287.0,41.378299,-71.830016,713940.0,RI,44.0,44009.0,Washington County,440090508014.0
11414,sg:6f678eba528d4edb8000408c23fa58c7,Lion's Den Thrift Shop,RI,2020-01-01T00:00:00-05:00,2020-02-01T00:00:00-05:00,2885,43,85.0,"{""<5"":3,""5-20"":13,""21-60"":4,""61-240"":15,"">240"":8}",4509.5,41.730894,-71.283536,453310.0,RI,44.0,44001.0,Bristol County,440010305003.0
11664,sg:87d1d1b81d804d35a2ac543790cf0586,Blasball Melvin,RI,2020-01-01T00:00:00-05:00,2020-02-01T00:00:00-05:00,2816,102,29.5,"{""<5"":2,""5-20"":38,""21-60"":27,""61-240"":26,"">240"":9}",7646.5,41.680563,-71.567231,446130.0,RI,44.0,44003.0,Kent County,440030206032.0
11868,sg:9e1602f6ca0f44069ed98d83dc620ca4,Gilbert's Auto Service,RI,2020-01-01T00:00:00-05:00,2020-02-01T00:00:00-05:00,2809,130,60.0,"{""<5"":3,""5-20"":39,""21-60"":24,""61-240"":41,"">240"":23}",13157.5,41.675989,-71.267673,811111.0,RI,44.0,44001.0,Bristol County,440010308001.0
12081,sg:b27df70f00bb4508808f36acbe058cb3,Mobil,RI,2020-01-01T00:00:00-05:00,2020-02-01T00:00:00-05:00,2892,53,6.0,"{""<5"":6,""5-20"":38,""21-60"":2,""61-240"":0,"">240"":7}",2251.0,41.483823,-71.553285,447110.0,RI,44.0,44009.0,Washington County,440090513061.0
12094,sg:b34b6e8194e1428282e4348488e81b95,Pizza Amore,RI,2020-01-01T00:00:00-05:00,2020-02-01T00:00:00-05:00,2914,251,26.0,"{""<5"":15,""5-20"":94,""21-60"":67,""61-240"":44,"">240"":31}",17988.0,41.798888,-71.362826,722511.0,RI,44.0,44007.0,Providence County,440070105013.0
12960,sg:0f5566f0e9a24b8ea83b466ebc407f94,Master Han's Us Taekwondo Complex,RI,2020-01-01T00:00:00-05:00,2020-02-01T00:00:00-05:00,2910,68,299.5,"{""<5"":0,""5-20"":4,""21-60"":3,""61-240"":16,"">240"":45}",13379.5,41.770988,-71.424933,624410.0,RI,44.0,44007.0,Providence County,440070136003.0
13209,sg:256ca4f33bf34121905916a2fe80d324,Eric M Johnsen DMD,RI,2020-01-01T00:00:00-05:00,2020-02-01T00:00:00-05:00,2871,2,886.5,"{""<5"":0,""5-20"":0,""21-60"":0,""61-240"":0,"">240"":2}",480.0,41.558848,-71.25571,621210.0,RI,44.0,44005.0,Newport County,440050401036.0
13223,sg:268a62b08bbc4081ba2ff0076ad0b837,Forman Sylvia PHD,RI,2020-01-01T00:00:00-05:00,2020-02-01T00:00:00-05:00,2909,127,53.0,"{""<5"":2,""5-20"":48,""21-60"":15,""61-240"":23,"">240"":39}",14034.0,41.808257,-71.439789,621111.0,RI,44.0,44007.0,Providence County,440070014005.0
13680,sg:52d005d505d1472ca7b5661cedd5a567,1935,RI,2020-01-01T00:00:00-05:00,2020-02-01T00:00:00-05:00,2904,236,45.0,"{""<5"":5,""5-20"":79,""21-60"":43,""61-240"":52,"">240"":57}",24247.5,41.835719,-71.40655799999999,621330.0,RI,44.0,44007.0,Providence County,440070031003.0
14706,sg:bc1b1ae2f23348729a6660e02bf1ec9e,Soiree Salon & Spa,RI,2020-01-01T00:00:00-05:00,2020-02-01T00:00:00-05:00,2915,22,182.0,"{""<5"":0,""5-20"":2,""21-60"":2,""61-240"":12,"">240"":6}",3352.0,41.759646999999994,-71.346474,812112.0,RI,44.0,44007.0,Providence County,440070107023.0
15051,sg:e04b36a882194600aebbf796ff8cb94c,Kerry's Warwick Photo,RI,2020-01-01T00:00:00-05:00,2020-02-01T00:00:00-05:00,2889,204,41.5,"{""<5"":5,""5-20"":59,""21-60"":48,""61-240"":54,"">240"":38}",19941.0,41.72351,-71.404133,451130.0,RI,44.0,44003.0,Kent County,440030214021.0
15597,sg:18489d84155a4518bbf01cebb6f06b8f,The Mint Gallery,RI,2020-01-01T00:00:00-05:00,2020-02-01T00:00:00-05:00,2809,42,20.5,"{""<5"":2,""5-20"":19,""21-60"":9,""61-240"":11,"">240"":1}",2502.5,41.669889000000005,-71.276629,453920.0,RI,44.0,44001.0,Bristol County,440010307004.0
16020,sg:407ad49493dc4a7b8fb44244f855e3f7,West Shore Nutrition,RI,2020-01-01T00:00:00-05:00,2020-02-01T00:00:00-05:00,2889,681,41.0,"{""<5"":5,""5-20"":124,""21-60"":344,""61-240"":192,"">240"":16}",48230.5,41.703646,-71.410678,713940.0,RI,44.0,44003.0,Kent County,440030217005.0
16084,sg:4601080981bc4adcb7e32e7ac5490fcc,Pastryland Bakery,RI,2020-01-01T00:00:00-05:00,2020-02-01T00:00:00-05:00,2917,11,7.0,"{""<5"":0,""5-20"":8,""21-60"":2,""61-240"":1,"">240"":0}",331.5,41.868055,-71.531772,311811.0,RI,44.0,44007.0,Providence County,440070127021.0
16322,sg:5f33c5fe0f03482986a2a1b0a0fd6c79,Emely Party Store,RI,2020-01-01T00:00:00-05:00,2020-02-01T00:00:00-05:00,2907,84,109.0,"{""<5"":0,""5-20"":13,""21-60"":17,""61-240"":18,"">240"":36}",12200.0,41.809067999999996,-71.420419,311811.0,RI,44.0,44007.0,Providence County,440070004001.0
16933,sg:9d7f6f71888044a78992e0120c646897,Randstad,RI,2020-01-01T00:00:00-05:00,2020-02-01T00:00:00-05:00,2917,260,262.0,"{""<5"":6,""5-20"":31,""21-60"":22,""61-240"":64,"">240"":137}",43805.5,41.910792,-71.517964,561311.0,RI,44.0,44007.0,Providence County,440070126012.0
16973,sg:a2a367b6eb7a404d8a4773c7d0071206,Colonial Baptist Church,RI,2020-01-01T00:00:00-05:00,2020-02-01T00:00:00-05:00,2916,135,348.0,"{""<5"":1,""5-20"":17,""21-60"":13,""61-240"":28,"">240"":76}",23195.5,41.84285,-71.349637,813110.0,RI,44.0,44007.0,Providence County,440070101022.0
17003,sg:a560843ebd3246c88489e6a3e3f99303,Cucina Rustica,RI,2020-01-01T00:00:00-05:00,2020-02-01T00:00:00-05:00,2920,250,79.5,"{""<5"":4,""5-20"":35,""21-60"":57,""61-240"":128,"">240"":26}",28260.0,41.790964,-71.471663,722511.0,RI,44.0,44007.0,Providence County,440070147006.0
17210,sg:bbff0bcc97354152961d5e9ea6788325,Red White and Brew,RI,2020-01-01T00:00:00-05:00,2020-02-01T00:00:00-05:00,2896,123,50.0,"{""<5"":1,""5-20"":37,""21-60"":33,""61-240"":26,"">240"":26}",11954.5,41.99905,-71.548897,722515.0,RI,44.0,44007.0,Providence County,440070128012.0
17227,sg:bdadcaeddca34cd8b11604223959180e,Efendi's Med Grill & Bar,RI,2020-01-01T00:00:00-05:00,2020-02-01T00:00:00-05:00,2920,145,13.0,"{""<5"":9,""5-20"":76,""21-60"":28,""61-240"":28,"">240"":4}",7280.5,41.780378999999996,-71.472082,722511.0,RI,44.0,44007.0,Providence County,440070145023.0
17246,sg:c03e432b97654a588f39c55d1c89f527,Venice Restaurant,RI,2020-01-01T00:00:00-05:00,2020-02-01T00:00:00-05:00,2891,68,88.0,"{""<5"":1,""5-20"":8,""21-60"":16,""61-240"":23,"">240"":20}",9012.0,41.336265999999995,-71.796876,722511.0,RI,44.0,44009.0,Washington County,440090510004.0
17254,sg:c13d042438494135b9d7d80b128860e8,Sanders Park,RI,2020-01-01T00:00:00-05:00,2020-02-01T00:00:00-05:00,2910,140,66.0,"{""<5"":4,""5-20"":48,""21-60"":17,""61-240"":22,"">240"":49}",16369.5,41.766090000000005,-71.421898,712190.0,RI,44.0,44007.0,Providence County,440070136002.0
17330,sg:c905df6af7604617b48c52b83403ebb2,Morley Field,RI,2020-01-01T00:00:00-05:00,2020-02-01T00:00:00-05:00,2860,85,24.0,"{""<5"":2,""5-20"":40,""21-60"":13,""61-240"":23,"">240"":7}",6173.0,41.858723,-71.40271800000001,713940.0,RI,44.0,44007.0,Providence County,440070164003.0
18077,sg:1516bd1f45f24146b09615e5b7e01713,Edgewood Congregational United Church of Christ,RI,2020-01-01T00:00:00-05:00,2020-02-01T00:00:00-05:00,2905,11,39.0,"{""<5"":0,""5-20"":4,""21-60"":6,""61-240"":1,"">240"":0}",443.5,41.776919,-71.39952199999999,813110.0,RI,44.0,44007.0,Providence County,440070134001.0
20299,sg:f3442fbde4cd45769cb2719615428e65,K R Baseball Academy,RI,2020-01-01T00:00:00-05:00,2020-02-01T00:00:00-05:00,2861,274,126.0,"{""<5"":3,""5-20"":52,""21-60"":54,""61-240"":62,"">240"":103}",36895.5,41.884642,-71.36543,713940.0,RI,44.0,44007.0,Providence County,440070159004.0
20727,sg:1a6ca079f81f4ce8ba946cf794c69fa4,CVS,RI,2020-01-01T00:00:00-05:00,2020-02-01T00:00:00-05:00,2909,310,11.0,"{""<5"":18,""5-20"":193,""21-60"":36,""61-240"":47,"">240"":16}",14829.0,41.834247999999995,-71.46848,446110.0,RI,44.0,44007.0,Providence County,440070020001.0
21229,sg:4abd8602929647bba3abcd38639d2a5f,Ace Armature,RI,2020-01-01T00:00:00-05:00,2020-02-01T00:00:00-05:00,2860,170,118.5,"{""<5"":2,""5-20"":40,""21-60"":25,""61-240"":55,"">240"":48}",21315.0,41.872245,-71.410851,441228.0,RI,44.0,44007.0,Providence County,440070150001.0
21567,sg:6c4da2b4bcc547b6a32650266d8d6214,Main Street Cafe,RI,2020-01-01T00:00:00-05:00,2020-02-01T00:00:00-05:00,2895,5,1395.0,"{""<5"":0,""5-20"":0,""21-60"":0,""61-240"":0,"">240"":5}",1200.0,42.00162,-71.515068,722511.0,RI,44.0,44007.0,Providence County,440070180003.0
21698,sg:7c63233a8e5540d2a866efd6416b23d0,Fit 2 The Core NutritionWorks,RI,2020-01-01T00:00:00-05:00,2020-02-01T00:00:00-05:00,2920,396,39.5,"{""<5"":10,""5-20"":113,""21-60"":155,""61-240"":95,"">240"":23}",27532.5,41.735802,-71.47834300000001,713940.0,RI,44.0,44007.0,Providence County,440070142003.0
21707,sg:7d67c29ff5a1405fb59b4be8162f4293,Rego's Auto Body,RI,2020-01-01T00:00:00-05:00,2020-02-01T00:00:00-05:00,2908,148,156.5,"{""<5"":3,""5-20"":45,""21-60"":15,""61-240"":33,"">240"":52}",18624.0,41.83632,-71.41747099999999,811121.0,RI,44.0,44007.0,Providence County,440070026002.0
21821,sg:89a7046c298347f8a5a1e286f4e51cf2,Cortland Place,RI,2020-01-01T00:00:00-05:00,2020-02-01T00:00:00-05:00,2828,334,108.0,"{""<5"":2,""5-20"":46,""21-60"":69,""61-240"":145,"">240"":72}",42477.0,41.875682,-71.556046,621610.0,RI,44.0,44007.0,Providence County,440070127013.0
22204,sg:b61752e610714b7d8c17f5553257d6b1,Sunoco,RI,2020-01-01T00:00:00-05:00,2020-02-01T00:00:00-05:00,2842,294,21.0,"{""<5"":17,""5-20"":125,""21-60"":86,""61-240"":60,"">240"":6}",15558.0,41.515365,-71.301406,447110.0,RI,44.0,44005.0,Newport County,440050403021.0
22222,sg:b866727d16f64344a115807cd6e21a27,Main Street Wine & Spirits,RI,2020-01-01T00:00:00-05:00,2020-02-01T00:00:00-05:00,2816,45,9.0,"{""<5"":6,""5-20"":28,""21-60"":3,""61-240"":7,"">240"":1}",1780.0,41.690113000000004,-71.565335,445310.0,RI,44.0,44003.0,Kent County,440030206021.0
22870,sg:fc4a74ac7e044e1e83323115963f26e3,LA Fitness,RI,2020-01-01T00:00:00-05:00,2020-02-01T00:00:00-05:00,2920,851,48.0,"{""<5"":11,""5-20"":136,""21-60"":367,""61-240"":302,"">240"":35}",70442.0,41.759147,-71.45704,713940.0,RI,44.0,44007.0,Providence County,440070139003.0
23606,sg:42e9b0ceeaa945f2b318fada8b456f8c,Steel Curtain Boxing & Fitness,RI,2020-01-01T00:00:00-05:00,2020-02-01T00:00:00-05:00,2888,251,63.0,"{""<5"":2,""5-20"":43,""21-60"":75,""61-240"":90,"">240"":41}",26965.0,41.751384,-71.40443,713940.0,RI,44.0,44003.0,Kent County,440030212001.0
23751,sg:516e831db5dd49b3ab77533d25b757bc,Bandidos Mexican Restaurant,RI,2020-01-01T00:00:00-05:00,2020-02-01T00:00:00-05:00,2864,462,47.5,"{""<5"":11,""5-20"":104,""21-60"":152,""61-240"":104,"">240"":91}",44975.5,41.90143,-71.391387,722511.0,RI,44.0,44007.0,Providence County,440070112003.0
23777,sg:537642b4dcab47bb887ac527a9108549,Mz Financial,RI,2020-01-01T00:00:00-05:00,2020-02-01T00:00:00-05:00,2889,45,148.0,"{""<5"":1,""5-20"":3,""21-60"":7,""61-240"":17,"">240"":17}",6962.0,41.712866,-71.379446,524210.0,RI,44.0,44003.0,Kent County,440030215014.0
23878,sg:5e7568a47610482bac2b0d42355cef48,Aidance Skincare,RI,2020-01-01T00:00:00-05:00,2020-02-01T00:00:00-05:00,2895,480,86.0,"{""<5"":10,""5-20"":102,""21-60"":96,""61-240"":120,"">240"":152}",59728.0,42.010088,-71.49981700000001,446120.0,RI,44.0,44007.0,Providence County,440070182001.0
24707,sg:b43364cd2b5a43f584039f0133e08ca6,Dynamic Dance Academy,RI,2020-01-01T00:00:00-05:00,2020-02-01T00:00:00-05:00,2852,181,58.0,"{""<5"":2,""5-20"":35,""21-60"":59,""61-240"":76,"">240"":9}",16430.0,41.596154999999996,-71.45516500000001,713940.0,RI,44.0,44009.0,Washington County,440090501021.0
24711,sg:b4a7fd9f93aa43bf885935aa0ade82cc,Adogable,RI,2020-01-01T00:00:00-05:00,2020-02-01T00:00:00-05:00,2860,161,61.0,"{""<5"":2,""5-20"":41,""21-60"":37,""61-240"":35,"">240"":46}",18323.5,41.879256,-71.368998,453910.0,RI,44.0,44007.0,Providence County,440070171002.0
24748,sg:b9cdf3ca4615488599d30dcd1423a38d,VITI MERCEDES BENZ,RI,2020-01-01T00:00:00-05:00,2020-02-01T00:00:00-05:00,2878,377,70.0,"{""<5"":14,""5-20"":107,""21-60"":53,""61-240"":120,"">240"":83}",41499.0,41.642782000000004,-71.188168,441110.0,RI,44.0,44005.0,Newport County,440050416022.0
25292,sg:f6f1e37813da4bf2abf652033445e4fa,Subway,RI,2020-01-01T00:00:00-05:00,2020-02-01T00:00:00-05:00,2882,119,15.0,"{""<5"":7,""5-20"":61,""21-60"":26,""61-240"":4,"">240"":21}",7475.0,41.430149,-71.482547,722513.0,RI,44.0,44009.0,Washington County,440090515044.0
25746,sg:214291dd157e4383931bbde48867d750,Dave's Marketplace,RI,2020-01-01T00:00:00-05:00,2020-02-01T00:00:00-05:00,2852,914,14.5,"{""<5"":38,""5-20"":526,""21-60"":235,""61-240"":66,"">240"":49}",37880.5,41.607040000000005,-71.452602,445110.0,RI,44.0,44009.0,Washington County,440090501032.0
25855,sg:2c4e143133f24db3abaa39e67eb0e4b9,Back Of The Closet,RI,2020-01-01T00:00:00-05:00,2020-02-01T00:00:00-05:00,2911,2,11.5,"{""<5"":0,""5-20"":2,""21-60"":0,""61-240"":0,"">240"":0}",25.0,41.857904,-71.484004,448120.0,RI,44.0,44007.0,Providence County,440070121041.0
25872,sg:2e30b86bbb294f9e95347b60c7922b54,Pawtucket Patriot Bar & Grill,RI,2020-01-01T00:00:00-05:00,2020-02-01T00:00:00-05:00,2860,155,59.0,"{""<5"":3,""5-20"":40,""21-60"":35,""61-240"":67,"">240"":10}",14408.5,41.874153,-71.365066,722511.0,RI,44.0,44007.0,Providence County,440070171002.0
25919,sg:325949ab9cd74f4cb4619af57188bd35,South Kingstown Animal Shelter,RI,2020-01-01T00:00:00-05:00,2020-02-01T00:00:00-05:00,2879,12,10.5,"{""<5"":0,""5-20"":9,""21-60"":2,""61-240"":1,"">240"":0}",344.0,41.454756,-71.513891,812910.0,RI,44.0,44009.0,Washington County,440090512012.0
25929,sg:3381171fbcc74b889ef131e4c9f8544e,Martin & Son Used Auto Parts & Scrap,RI,2020-01-01T00:00:00-05:00,2020-02-01T00:00:00-05:00,2891,125,61.0,"{""<5"":2,""5-20"":31,""21-60"":28,""61-240"":47,"">240"":17}",12680.0,41.383476,-71.808837,441310.0,RI,44.0,44009.0,Washington County,440090509012.0
26148,sg:4839036ad408410db8ec4308218b3cab,Brady Rogers,RI,2020-01-01T00:00:00-05:00,2020-02-01T00:00:00-05:00,2888,3,159.0,"{""<5"":0,""5-20"":1,""21-60"":0,""61-240"":1,"">240"":1}",403.0,41.754721999999994,-71.424075,524210.0,RI,44.0,44003.0,Kent County,440030211001.0
26258,sg:538a5308cb964b4d9ead59ea91faf05f,Eblens,RI,2020-01-01T00:00:00-05:00,2020-02-01T00:00:00-05:00,2861,87,11.0,"{""<5"":5,""5-20"":58,""21-60"":12,""61-240"":8,"">240"":4}",3387.5,41.879218,-71.363425,448140.0,RI,44.0,44007.0,Providence County,440070168001.0
27377,sg:c7d85e5437fc4ad1b8e10e94b6a97864,Johnston LFG Turbine Plant,RI,2020-01-01T00:00:00-05:00,2020-02-01T00:00:00-05:00,2919,59,53.0,"{""<5"":1,""5-20"":20,""21-60"":12,""61-240"":19,"">240"":7}",5278.0,41.803352000000004,-71.523358,221111.0,RI,44.0,44007.0,Providence County,440070125003.0
28531,sg:37028074eefd4fa49f0fddd1cc5ba183,Maria's Seaside Cafe,RI,2020-01-01T00:00:00-05:00,2020-02-01T00:00:00-05:00,2891,1,795.0,"{""<5"":0,""5-20"":0,""21-60"":0,""61-240"":0,"">240"":1}",240.0,41.322039000000004,-71.811421,722511.0,RI,44.0,44009.0,Washington County,440090510004.0
28948,sg:63923baffbcb44cc917405f11ec0fa8b,Orbit Energy RI,RI,2020-01-01T00:00:00-05:00,2020-02-01T00:00:00-05:00,2919,1,11.0,"{""<5"":0,""5-20"":1,""21-60"":0,""61-240"":0,"">240"":0}",12.5,41.807195,-71.516575,221111.0,RI,44.0,44007.0,Providence County,440070122003.0
29432,sg:948ce3a2bddf47c58c0d3cdb0b559877,Natale's Deli,RI,2020-01-01T00:00:00-05:00,2020-02-01T00:00:00-05:00,2818,230,37.0,"{""<5"":4,""5-20"":57,""21-60"":93,""61-240"":48,"">240"":28}",18433.0,41.622631,-71.491382,722511.0,RI,44.0,44003.0,Kent County,440030209032.0
29477,sg:98bcaafe2c084cccb7b02b3c71d6295a,Rumford Pet Center,RI,2020-01-01T00:00:00-05:00,2020-02-01T00:00:00-05:00,2914,81,13.0,"{""<5"":0,""5-20"":54,""21-60"":22,""61-240"":5,"">240"":0}",2318.5,41.808405,-71.34909300000001,453910.0,RI,44.0,44007.0,Providence County,440070105011.0
29842,sg:bf51217673e14bddb621d79cc7ec4344,Tots Town Child Care Center,RI,2020-01-01T00:00:00-05:00,2020-02-01T00:00:00-05:00,2919,52,166.5,"{""<5"":0,""5-20"":9,""21-60"":13,""61-240"":8,"">240"":22}",7123.0,41.840311,-71.48419200000001,624410.0,RI,44.0,44007.0,Providence County,440070123002.0
30227,sg:ea0cad7b1a3e4504b66e646c80a35a30,Angelo J Bigelli DPM,RI,2020-01-01T00:00:00-05:00,2020-02-01T00:00:00-05:00,2914,47,34.0,"{""<5"":3,""5-20"":16,""21-60"":15,""61-240"":4,"">240"":9}",3577.0,41.860513,-71.463298,621111.0,RI,44.0,44007.0,Providence County,440070120005.0
30302,sg:f3cd1e80c4fc4e17bc0fce61ea07c39b,Warwick Country Club,RI,2020-01-01T00:00:00-05:00,2020-02-01T00:00:00-05:00,2889,165,46.0,"{""<5"":2,""5-20"":54,""21-60"":32,""61-240"":62,"">240"":15}",14907.0,41.673089000000004,-71.384282,713910.0,RI,44.0,44003.0,Kent County,440030216002.0
30950,sg:33d9b40930f84bafa5381f3cdd70af2a,National Pet Center of Cranston,RI,2020-01-01T00:00:00-05:00,2020-02-01T00:00:00-05:00,2910,144,26.0,"{""<5"":3,""5-20"":59,""21-60"":47,""61-240"":21,"">240"":14}",9169.0,41.779777,-71.442673,453910.0,RI,44.0,44007.0,Providence County,440070137021.0
30954,sg:340085030bf04fd9bd143ef776d8d75e,Quest Diagnostics,RI,2020-01-01T00:00:00-05:00,2020-02-01T00:00:00-05:00,2904,732,59.5,"{""<5"":20,""5-20"":132,""21-60"":218,""61-240"":220,"">240"":142}",77719.0,41.83692,-71.4106,621511.0,RI,44.0,44007.0,Providence County,440070031005.0
31068,sg:3eaedb8ce1df4090a2f8650e9a94761b,Pet Refuge Nkeapl,RI,2020-01-01T00:00:00-05:00,2020-02-01T00:00:00-05:00,2852,36,51.0,"{""<5"":2,""5-20"":9,""21-60"":8,""61-240"":9,"">240"":8}",3716.0,41.588006,-71.47496,453910.0,RI,44.0,44009.0,Washington County,440090503012.0
31190,sg:4a6bb200324e4f90ab60760e4742a0ab,GoWireless,RI,2020-01-01T00:00:00-05:00,2020-02-01T00:00:00-05:00,2886,2,123.0,"{""<5"":0,""5-20"":1,""21-60"":0,""61-240"":0,"">240"":1}",252.5,41.706676,-71.49183199999999,517312.0,RI,44.0,44003.0,Kent County,440030222021.0
31529,sg:6fa8ac19642e41bb9f7672b7645f8b84,Newport Family Foot Care,RI,2020-01-01T00:00:00-05:00,2020-02-01T00:00:00-05:00,2840,86,32.5,"{""<5"":3,""5-20"":27,""21-60"":33,""61-240"":15,"">240"":8}",5859.0,41.500995,-71.305593,621111.0,RI,44.0,44005.0,Newport County,440050406002.0
31992,sg:a08d91498e9f4d70bef7938f2c045665,Westerly Fire Department Station 2,RI,2020-01-01T00:00:00-05:00,2020-02-01T00:00:00-05:00,2891,28,67.0,"{""<5"":1,""5-20"":4,""21-60"":8,""61-240"":6,"">240"":9}",3439.5,41.349703000000005,-71.82602,922160.0,RI,44.0,44009.0,Washington County,440090508022.0
31998,sg:a12c98eabc2740bcbcf3ed4be48f6725,Watch Your Head Smoke Shop,RI,2020-01-01T00:00:00-05:00,2020-02-01T00:00:00-05:00,2909,199,42.0,"{""<5"":3,""5-20"":57,""21-60"":63,""61-240"":47,"">240"":29}",17305.0,41.81877,-71.446972,453991.0,RI,44.0,44007.0,Providence County,440070019003.0
32141,sg:aeccedf4eabf43a4a452b8a6e5bc894d,The Book Garden,RI,2020-01-01T00:00:00-05:00,2020-02-01T00:00:00-05:00,2852,79,20.0,"{""<5"":3,""5-20"":41,""21-60"":25,""61-240"":10,"">240"":0}",3037.5,41.571376,-71.45215300000001,451211.0,RI,44.0,44009.0,Washington County,440090503023.0
32383,sg:cab43902d8524e7eb120fc33de32efd3,Aai Foster Grant,RI,2020-01-01T00:00:00-05:00,2020-02-01T00:00:00-05:00,2917,323,254.0,"{""<5"":5,""5-20"":34,""21-60"":29,""61-240"":91,"">240"":164}",54667.5,41.931607,-71.495352,446130.0,RI,44.0,44007.0,Providence County,440070126025.0
32490,sg:d54a20b498e84e368d367f52a3484c29,Burger King,RI,2020-01-01T00:00:00-05:00,2020-02-01T00:00:00-05:00,2896,252,7.0,"{""<5"":28,""5-20"":171,""21-60"":29,""61-240"":21,"">240"":3}",7262.5,41.982261,-71.514045,722513.0,RI,44.0,44007.0,Providence County,440070128031.0
32616,sg:e372182b670d467eafa69d5c416138f9,Wonderkids Early Learning Center,RI,2020-01-01T00:00:00-05:00,2020-02-01T00:00:00-05:00,2886,116,67.5,"{""<5"":1,""5-20"":34,""21-60"":18,""61-240"":36,"">240"":27}",13054.5,41.728667,-71.440921,624410.0,RI,44.0,44003.0,Kent County,440030211004.0
32975,sg:07452329ae1b4a7dbefa66b16147097a,Tritan Systems LLC,RI,2020-01-01T00:00:00-05:00,2020-02-01T00:00:00-05:00,2910,71,143.0,"{""<5"":0,""5-20"":9,""21-60"":9,""61-240"":21,"">240"":32}",11317.5,41.780833,-71.45040999999999,443142.0,RI,44.0,44007.0,Providence County,440070140004.0
33184,sg:1a8a959a3fd248f28e5c7cd73577831b,Lees Chinese Restaurant & Lounge,RI,2020-01-01T00:00:00-05:00,2020-02-01T00:00:00-05:00,2915,345,52.0,"{""<5"":8,""5-20"":75,""21-60"":102,""61-240"":92,"">240"":68}",35254.5,41.768786999999996,-71.360879,722511.0,RI,44.0,44007.0,Providence County,440070106006.0
34054,sg:6f85858898d2486e85a6b68d4743347a,Ryder,RI,2020-01-01T00:00:00-05:00,2020-02-01T00:00:00-05:00,2888,324,28.5,"{""<5"":5,""5-20"":139,""21-60"":47,""61-240"":49,"">240"":84}",31188.0,41.756693,-71.43815,532120.0,RI,44.0,44003.0,Kent County,440030211002.0
34107,sg:7562271b05c4429aac4fe0e2ced9598f,The Barn,RI,2020-01-01T00:00:00-05:00,2020-02-01T00:00:00-05:00,2801,139,41.0,"{""<5"":1,""5-20"":16,""21-60"":84,""61-240"":31,"">240"":7}",9950.0,41.554536999999996,-71.12858100000001,722511.0,RI,44.0,44005.0,Newport County,440050414002.0
35075,sg:d367f53d7a2e434baf39d6962afaaa0c,Johnston Acupuncture Clinic,RI,2020-01-01T00:00:00-05:00,2020-02-01T00:00:00-05:00,2919,18,20.5,"{""<5"":1,""5-20"":8,""21-60"":7,""61-240"":2,"">240"":0}",687.0,41.823584999999994,-71.49585,621111.0,RI,44.0,44007.0,Providence County,440070124014.0
36539,sg:5e0185bb6e2549889ebcf61909515536,Ace Towing,RI,2020-01-01T00:00:00-05:00,2020-02-01T00:00:00-05:00,2809,5,36.0,"{""<5"":0,""5-20"":2,""21-60"":3,""61-240"":0,"">240"":0}",146.5,41.710251,-71.279388,488410.0,RI,44.0,44001.0,Bristol County,440010309021.0
36814,sg:776c17e72f9f46729b379b358b8f66f5,Stop & Go Gas Convenience,RI,2020-01-01T00:00:00-05:00,2020-02-01T00:00:00-05:00,2889,99,9.0,"{""<5"":2,""5-20"":63,""21-60"":14,""61-240"":14,"">240"":6}",4906.5,41.722963,-71.404768,447110.0,RI,44.0,44003.0,Kent County,440030214012.0
36905,sg:7fd51f550278481b8de063f85af6e195,North Smithfield Urgent Care,RI,2020-01-01T00:00:00-05:00,2020-02-01T00:00:00-05:00,2896,33,28.0,"{""<5"":0,""5-20"":11,""21-60"":9,""61-240"":0,"">240"":13}",3622.0,41.998142,-71.549778,621493.0,RI,44.0,44007.0,Providence County,440070128021.0
37275,sg:a2f724d946524bbfbc43e242f76e3d72,Devanney James F Dent,RI,2020-01-01T00:00:00-05:00,2020-02-01T00:00:00-05:00,2886,60,27.0,"{""<5"":3,""5-20"":23,""21-60"":17,""61-240"":7,"">240"":10}",4437.0,41.70812,-71.435383,621210.0,RI,44.0,44003.0,Kent County,440030219014.0
37302,sg:a537780c18794c738628301175d7ecb6,Del's Lemonade,RI,2020-01-01T00:00:00-05:00,2020-02-01T00:00:00-05:00,2842,44,24.0,"{""<5"":1,""5-20"":18,""21-60"":13,""61-240"":8,"">240"":4}",2918.0,41.52256,-71.29826700000001,722515.0,RI,44.0,44005.0,Newport County,440050403042.0
37392,sg:af1a612ecbb74507a3e8a8a5227d9a59,Barreiros Auto Sales,RI,2020-01-01T00:00:00-05:00,2020-02-01T00:00:00-05:00,2865,11,117.0,"{""<5"":1,""5-20"":1,""21-60"":3,""61-240"":5,"">240"":1}",1129.0,41.880464,-71.415963,,RI,44.0,44007.0,Providence County,440070117022.0
37692,sg:ce5301acac264e26812c26b2b5e807de,Wood River Animal Hospital,RI,2020-01-01T00:00:00-05:00,2020-02-01T00:00:00-05:00,2898,7,15.0,"{""<5"":0,""5-20"":4,""21-60"":1,""61-240"":1,"">240"":1}",481.0,41.511086999999996,-71.685772,541940.0,RI,44.0,44009.0,Washington County,440090506001.0
37697,sg:ce9fd361a9a844c09f56ba85bb47f57f,Cumberland Farms,RI,2020-01-01T00:00:00-05:00,2020-02-01T00:00:00-05:00,2809,600,6.0,"{""<5"":87,""5-20"":440,""21-60"":44,""61-240"":13,"">240"":16}",13296.0,41.679623,-71.259877,447110.0,RI,44.0,44001.0,Bristol County,440010309013.0
38219,sg:04325c7592af47d8986b2fe69726041a,Travel Whiz,RI,2020-01-01T00:00:00-05:00,2020-02-01T00:00:00-05:00,2895,133,105.0,"{""<5"":2,""5-20"":28,""21-60"":20,""61-240"":42,"">240"":41}",17326.0,42.005342,-71.51446700000001,561510.0,RI,44.0,44007.0,Providence County,440070180002.0
38759,sg:33bd9e1e24384527bbe0c75023c18d92,Soban Korean Eatery,RI,2020-01-01T00:00:00-05:00,2020-02-01T00:00:00-05:00,2906,229,21.0,"{""<5"":5,""5-20"":102,""21-60"":69,""61-240"":31,"">240"":22}",14027.5,41.82943,-71.40101700000001,722511.0,RI,44.0,44007.0,Providence County,440070036023.0
38788,sg:360594904606485b91e5ae8d44565655,Bristol Bed & Breakfast,RI,2020-01-01T00:00:00-05:00,2020-02-01T00:00:00-05:00,2809,34,18.0,"{""<5"":2,""5-20"":16,""21-60"":9,""61-240"":3,"">240"":4}",1981.0,41.670654,-71.27627199999999,721110.0,RI,44.0,44001.0,Bristol County,440010307004.0
38860,sg:3df56c789840460b8a3ab865c1ad39c8,Best Taste,RI,2020-01-01T00:00:00-05:00,2020-02-01T00:00:00-05:00,2904,116,81.0,"{""<5"":3,""5-20"":37,""21-60"":12,""61-240"":25,"">240"":39}",14078.5,41.869440000000004,-71.422912,722511.0,RI,44.0,44007.0,Providence County,440070118001.0
39391,sg:70162cbd1a864c27906d2ec904042ef5,Metro By Tmobile,RI,2020-01-01T00:00:00-05:00,2020-02-01T00:00:00-05:00,2910,99,24.0,"{""<5"":3,""5-20"":40,""21-60"":26,""61-240"":23,"">240"":7}",6702.0,41.783009,-71.439195,517312.0,RI,44.0,44007.0,Providence County,440070140002.0
40018,sg:ae50fe4f27fc4921bae519b3d783abac,Sprigs,RI,2020-01-01T00:00:00-05:00,2020-02-01T00:00:00-05:00,2852,17,14.0,"{""<5"":3,""5-20"":7,""21-60"":4,""61-240"":3,"">240"":0}",708.5,41.571049,-71.452636,453110.0,RI,44.0,44009.0,Washington County,440090503023.0
40171,sg:bb75183bf2454f96af746a9a48757409,Hope Valley Wyoming Fire District Camp Yawgoog,RI,2020-01-01T00:00:00-05:00,2020-02-01T00:00:00-05:00,2832,93,139.0,"{""<5"":0,""5-20"":19,""21-60"":12,""61-240"":22,"">240"":40}",13634.5,41.519088,-71.775826,922160.0,RI,44.0,44009.0,Washington County,440090507003.0
40616,sg:e98291c290314258981ea6b2b297c7a0,Mamby's Barber Shop,RI,2020-01-01T00:00:00-05:00,2020-02-01T00:00:00-05:00,2909,31,87.0,"{""<5"":0,""5-20"":9,""21-60"":4,""61-240"":13,"">240"":5}",3431.0,41.818697,-71.46023100000001,812112.0,RI,44.0,44007.0,Providence County,440070018005.0
41107,sg:18de5d07045d4f87b00bb88915ee1ff0,Grey Sail Brewing Co LLC,RI,2020-01-01T00:00:00-05:00,2020-02-01T00:00:00-05:00,2891,232,60.0,"{""<5"":2,""5-20"":41,""21-60"":74,""61-240"":79,"">240"":36}",24044.0,41.384921999999996,-71.832284,312120.0,RI,44.0,44009.0,Washington County,440090508015.0
41443,sg:35008a48ac554aff96e6b8aae0921d21,O'Reilly Auto Parts,RI,2020-01-01T00:00:00-05:00,2020-02-01T00:00:00-05:00,2916,144,11.0,"{""<5"":10,""5-20"":82,""21-60"":29,""61-240"":17,"">240"":6}",6223.0,41.851476,-71.353812,441310.0,RI,44.0,44007.0,Providence County,440070101021.0
41846,sg:591e134098d74d4397f876a1787d0cb4,BioScrip Infusion Services,RI,2020-01-01T00:00:00-05:00,2020-02-01T00:00:00-05:00,2917,8,13.5,"{""<5"":0,""5-20"":5,""21-60"":1,""61-240"":2,"">240"":0}",404.0,41.929159999999996,-71.49973100000001,621111.0,RI,44.0,44007.0,Providence County,440070126025.0
42020,sg:685160efdd9d4054a00c260421297a22,Mikes Auto Collision,RI,2020-01-01T00:00:00-05:00,2020-02-01T00:00:00-05:00,2905,23,10.0,"{""<5"":2,""5-20"":14,""21-60"":0,""61-240"":4,"">240"":3}",1502.0,41.771248,-71.40499799999999,811121.0,RI,44.0,44007.0,Providence County,440070134004.0
42125,sg:723e8a18ed394c80a663d03ef28e62f7,Domenico's Barber Shop,RI,2020-01-01T00:00:00-05:00,2020-02-01T00:00:00-05:00,2904,10,40.5,"{""<5"":0,""5-20"":5,""21-60"":0,""61-240"":5,"">240"":0}",815.0,41.851915000000005,-71.423396,812112.0,RI,44.0,44007.0,Providence County,440070029005.0
42275,sg:80a7cfe34aa44cdd976f556fff675f8a,Quality Auto Reconditioning,RI,2020-01-01T00:00:00-05:00,2020-02-01T00:00:00-05:00,2907,7,129.0,"{""<5"":0,""5-20"":0,""21-60"":1,""61-240"":4,"">240"":2}",1122.5,41.808764000000004,-71.43464399999999,811192.0,RI,44.0,44007.0,Providence County,440070014003.0
42925,sg:bf1e789aaf8a45e88f4c80e82d47f12d,Tong Chinese Restaurant Buffet,RI,2020-01-01T00:00:00-05:00,2020-02-01T00:00:00-05:00,2888,125,28.0,"{""<5"":1,""5-20"":38,""21-60"":49,""61-240"":27,"">240"":10}",8925.5,41.764976000000004,-71.403743,722511.0,RI,44.0,44003.0,Kent County,440030210022.0
43875,sg:169a730916ff4057a6daadfa092bb1fd,Sunoco,RI,2020-01-01T00:00:00-05:00,2020-02-01T00:00:00-05:00,2830,268,11.5,"{""<5"":29,""5-20"":131,""21-60"":54,""61-240"":41,"">240"":13}",13187.5,41.977711,-71.61455699999999,447110.0,RI,44.0,44007.0,Providence County,440070130021.0
43970,sg:1ced765d7af14df1b805c9515f97863d,Subway,RI,2020-01-01T00:00:00-05:00,2020-02-01T00:00:00-05:00,2860,248,36.5,"{""<5"":11,""5-20"":96,""21-60"":28,""61-240"":45,"">240"":68}",25454.0,41.871697,-71.413117,722513.0,RI,44.0,44007.0,Providence County,440070150001.0
44076,sg:255e50b9eb1a4013a3ec7bbfc9b2b4f6,Cozy Quarters Pet Inn,RI,2020-01-01T00:00:00-05:00,2020-02-01T00:00:00-05:00,2896,52,115.0,"{""<5"":1,""5-20"":8,""21-60"":10,""61-240"":13,"">240"":20}",7264.0,41.953886,-71.490997,453910.0,RI,44.0,44007.0,Providence County,440070128032.0
44389,sg:3f6845dabca740b2b2f7e0786c682283,Coastway Bank,RI,2020-01-01T00:00:00-05:00,2020-02-01T00:00:00-05:00,2921,5,10.0,"{""<5"":0,""5-20"":5,""21-60"":0,""61-240"":0,"">240"":0}",62.5,41.783482,-71.515013,522110.0,RI,44.0,44007.0,Providence County,440070146002.0
44914,sg:6f5338ae61bf452ebdac1f5b83e71b8c,NBX Bikes of East Providence,RI,2020-01-01T00:00:00-05:00,2020-02-01T00:00:00-05:00,2914,149,29.0,"{""<5"":4,""5-20"":56,""21-60"":36,""61-240"":27,"">240"":26}",12471.5,41.813227000000005,-71.366654,451110.0,RI,44.0,44007.0,Providence County,440070104001.0
45106,sg:83c10f58332e4e41855ccf1405954d72,Studio101,RI,2020-01-01T00:00:00-05:00,2020-02-01T00:00:00-05:00,2903,22,70.0,"{""<5"":0,""5-20"":4,""21-60"":5,""61-240"":10,"">240"":3}",2477.5,41.822537,-71.4094,812112.0,RI,44.0,44007.0,Providence County,440070008003.0
45437,sg:a231d01c3ff34a18a59d49bdf208b8ba,Dear Hearts Iii,RI,2020-01-01T00:00:00-05:00,2020-02-01T00:00:00-05:00,2889,38,20.0,"{""<5"":2,""5-20"":20,""21-60"":12,""61-240"":4,"">240"":0}",1343.0,41.703033000000005,-71.406222,722515.0,RI,44.0,44003.0,Kent County,440030218002.0
45808,sg:c6f1167fd8024bfe822a97d571559dd9,New York Style Pizza Boulevard,RI,2020-01-01T00:00:00-05:00,2020-02-01T00:00:00-05:00,2910,87,39.0,"{""<5"":3,""5-20"":24,""21-60"":27,""61-240"":20,"">240"":13}",7531.0,41.785768,-71.451173,722511.0,RI,44.0,44007.0,Providence County,440070140003.0
45841,sg:ca4df931cbf9446ba894b73a5960afc5,International jewelers inc,RI,2020-01-01T00:00:00-05:00,2020-02-01T00:00:00-05:00,2904,2,39.5,"{""<5"":0,""5-20"":1,""21-60"":0,""61-240"":1,"">240"":0}",163.0,41.867446,-71.438769,448310.0,RI,44.0,44007.0,Providence County,440070118005.0
45902,sg:d2a625c5579149459019d8b610fd6d47,Applebee's,RI,2020-01-01T00:00:00-05:00,2020-02-01T00:00:00-05:00,2816,668,43.0,"{""<5"":11,""5-20"":114,""21-60"":335,""61-240"":202,"">240"":6}",46861.0,41.662063,-71.546425,722511.0,RI,44.0,44003.0,Kent County,440030206033.0
46097,sg:e6e77247fee74565b1b106bf518b096d,Advance Auto Parts,RI,2020-01-01T00:00:00-05:00,2020-02-01T00:00:00-05:00,2861,30,9.0,"{""<5"":2,""5-20"":24,""21-60"":3,""61-240"":1,"">240"":0}",577.0,41.889109000000005,-71.367778,441310.0,RI,44.0,44007.0,Providence County,440070155003.0
46860,sg:2c166622de574b4391b83337d8ad51f7,South Kingstown Dog Park,RI,2020-01-01T00:00:00-05:00,2020-02-01T00:00:00-05:00,2879,742,43.0,"{""<5"":13,""5-20"":128,""21-60"":384,""61-240"":215,"">240"":2}",50022.0,41.45228,-71.481829,712190.0,RI,44.0,44009.0,Washington County,440090512024.0
46974,sg:35d4e4302f9b40878eb0f529eaf74438,Brookdale,RI,2020-01-01T00:00:00-05:00,2020-02-01T00:00:00-05:00,2889,83,119.0,"{""<5"":0,""5-20"":16,""21-60"":15,""61-240"":23,"">240"":29}",11229.0,41.703924,-71.4225,623110.0,RI,44.0,44003.0,Kent County,440030219022.0
47388,sg:5c0b60459b2f48b4b04fab3d52477db0,Sunshine Creamery,RI,2020-01-01T00:00:00-05:00,2020-02-01T00:00:00-05:00,2916,80,22.0,"{""<5"":5,""5-20"":34,""21-60"":6,""61-240"":24,"">240"":11}",6932.5,41.833037,-71.360782,722515.0,RI,44.0,44007.0,Providence County,440070102001.0
47771,sg:7f37cb2392ba42a3b3a76d2fba987c3a,The Aesthetic Dental Studio of RI,RI,2020-01-01T00:00:00-05:00,2020-02-01T00:00:00-05:00,2911,139,189.0,"{""<5"":3,""5-20"":31,""21-60"":17,""61-240"":23,"">240"":65}",20145.0,41.858534000000006,-71.478871,621210.0,RI,44.0,44007.0,Providence County,440070121041.0
48146,sg:a318a9faad9446ca8fd07ac8b648821f,Manton Liquors,RI,2020-01-01T00:00:00-05:00,2020-02-01T00:00:00-05:00,2909,122,23.5,"{""<5"":2,""5-20"":53,""21-60"":22,""61-240"":15,"">240"":30}",11016.0,41.823402,-71.45151899999999,445310.0,RI,44.0,44007.0,Providence County,440070019003.0
48406,sg:bcc19e9895844421ac9ee10fdc65e75d,Culinary Art Museum And Archives,RI,2020-01-01T00:00:00-05:00,2020-02-01T00:00:00-05:00,2903,2991,88.0,"{""<5"":21,""5-20"":365,""21-60"":612,""61-240"":1654,"">240"":339}",359688.0,41.819894,-71.412757,712110.0,RI,44.0,44007.0,Providence County,440070008003.0
48517,sg:c7c61292cc384347bc57433fe8e6662f,Grandma's Library Little Free Library Charter 34034,RI,2020-01-01T00:00:00-05:00,2020-02-01T00:00:00-05:00,2864,45,60.0,"{""<5"":0,""5-20"":9,""21-60"":14,""61-240"":11,"">240"":11}",4975.0,41.949141,-71.397584,451211.0,RI,44.0,44007.0,Providence County,440070114012.0
48711,sg:dadf15207b0547f2b9694bc1e6bdc8be,Final Gift Cremation Service,RI,2020-01-01T00:00:00-05:00,2020-02-01T00:00:00-05:00,2921,106,143.5,"{""<5"":2,""5-20"":26,""21-60"":15,""61-240"":30,"">240"":33}",13372.5,41.783953000000004,-71.52348,812910.0,RI,44.0,44007.0,Providence County,440070146002.0
49396,sg:1ccaed6548404b7db68f76c9ee3e856a,Bridge To Fitness,RI,2020-01-01T00:00:00-05:00,2020-02-01T00:00:00-05:00,2842,352,43.5,"{""<5"":6,""5-20"":71,""21-60"":161,""61-240"":107,"">240"":7}",25206.5,41.51397,-71.28209100000001,713940.0,RI,44.0,44005.0,Newport County,440050404002.0
49681,sg:373a29840eea4de79f635ff32cf13710,Gilded,RI,2020-01-01T00:00:00-05:00,2020-02-01T00:00:00-05:00,2840,62,58.5,"{""<5"":2,""5-20"":18,""21-60"":11,""61-240"":14,"">240"":17}",6862.5,41.488052,-71.30808499999999,721110.0,RI,44.0,44005.0,Newport County,440050407002.0
49790,sg:42045b5d64a045199902968221e84476,Bulldog Stadium,RI,2020-01-01T00:00:00-05:00,2020-02-01T00:00:00-05:00,2917,325,43.0,"{""<5"":2,""5-20"":88,""21-60"":94,""61-240"":129,"">240"":12}",27206.5,41.924813,-71.538618,711211.0,RI,44.0,44007.0,Providence County,440070126011.0
49975,sg:53acc4dd32b8423c91857632bb81ac1f,Lawrence P Stephenson DDS,RI,2020-01-01T00:00:00-05:00,2020-02-01T00:00:00-05:00,2904,243,56.0,"{""<5"":1,""5-20"":51,""21-60"":75,""61-240"":59,"">240"":57}",26237.0,41.861383000000004,-71.461727,621210.0,RI,44.0,44007.0,Providence County,440070120001.0
50064,sg:5ad1c6349b6c4b0ca18b5e2e3b52783d,The Y At Blackstone Valley Prep,RI,2020-01-01T00:00:00-05:00,2020-02-01T00:00:00-05:00,2864,26,34.5,"{""<5"":0,""5-20"":9,""21-60"":10,""61-240"":3,"">240"":4}",1929.0,41.906051,-71.392276,624410.0,RI,44.0,44007.0,Providence County,440070112002.0
50514,sg:89fb41afa40845f690a39b901924586c,Kohl's,RI,2020-01-01T00:00:00-05:00,2020-02-01T00:00:00-05:00,2852,714,21.0,"{""<5"":13,""5-20"":305,""21-60"":326,""61-240"":69,"">240"":1}",27672.5,41.607079,-71.451402,452210.0,RI,44.0,44009.0,Washington County,440090501032.0
50659,sg:9783ea572b814c55b6107bb1f2828ba4,Subway,RI,2020-01-01T00:00:00-05:00,2020-02-01T00:00:00-05:00,2893,49,13.0,"{""<5"":0,""5-20"":30,""21-60"":15,""61-240"":1,"">240"":3}",1853.0,41.71763,-71.524512,722513.0,RI,44.0,44003.0,Kent County,440030204002.0
50727,sg:9d2b171d30c54c5490afa475bfdd68e1,Bagel Express on Broadway,RI,2020-01-01T00:00:00-05:00,2020-02-01T00:00:00-05:00,2903,166,31.0,"{""<5"":3,""5-20"":47,""21-60"":83,""61-240"":28,"">240"":5}",9370.5,41.820406,-71.42610400000001,722515.0,RI,44.0,44007.0,Providence County,440070011003.0
50949,sg:b37dc228075045c9be8c176a2928ad49,Leaders in Ear Nose & Throat Health,RI,2020-01-01T00:00:00-05:00,2020-02-01T00:00:00-05:00,2886,73,407.0,"{""<5"":0,""5-20"":5,""21-60"":9,""61-240"":9,"">240"":50}",13781.5,41.693121000000005,-71.456071,621111.0,RI,44.0,44003.0,Kent County,440030220003.0
51076,sg:c06cf8adf80a411faac5b75aa083e72b,Capital Auto Sales,RI,2020-01-01T00:00:00-05:00,2020-02-01T00:00:00-05:00,2909,196,10.0,"{""<5"":23,""5-20"":123,""21-60"":28,""61-240"":11,"">240"":11}",7024.5,41.833473,-71.46633800000001,,RI,44.0,44007.0,Providence County,440070020002.0
51111,sg:c41d1f830b5b47e08b24d3d38be1365b,Dive On It Scuba,RI,2020-01-01T00:00:00-05:00,2020-02-01T00:00:00-05:00,2864,36,19.0,"{""<5"":0,""5-20"":20,""21-60"":6,""61-240"":5,"">240"":5}",2445.5,41.928902,-71.42126800000001,451110.0,RI,44.0,44007.0,Providence County,440070113012.0
51357,sg:de384467c94f43f1b3fc9cfb52a03274,Walmart,RI,2020-01-01T00:00:00-05:00,2020-02-01T00:00:00-05:00,2891,3446,22.0,"{""<5"":82,""5-20"":1503,""21-60"":1385,""61-240"":355,"">240"":121}",157552.5,41.354306,-71.76683,452319.0,RI,44.0,44009.0,Washington County,440090509022.0
51588,sg:f454163e98e547ada23de04fae3f61ae,Friskie Fries,RI,2020-01-01T00:00:00-05:00,2020-02-01T00:00:00-05:00,2903,297,33.0,"{""<5"":4,""5-20"":109,""21-60"":72,""61-240"":92,"">240"":20}",22934.5,41.823181,-71.41440300000001,722511.0,RI,44.0,44007.0,Providence County,440070008003.0
51594,sg:f5376ee449b540228d7870184785cfc0,Bagel Express Deli & Cafe in the Village,RI,2020-01-01T00:00:00-05:00,2020-02-01T00:00:00-05:00,2905,114,44.0,"{""<5"":0,""5-20"":19,""21-60"":55,""61-240"":38,"">240"":2}",8664.0,41.765409999999996,-71.390365,722515.0,RI,44.0,44007.0,Providence County,440070134003.0
51791,sg:081e93be3c0d4d218d48c30c5179bf96,Birch,RI,2020-01-01T00:00:00-05:00,2020-02-01T00:00:00-05:00,2903,32,23.5,"{""<5"":2,""5-20"":11,""21-60"":10,""61-240"":8,"">240"":1}",1991.5,41.82202,-71.416012,722511.0,RI,44.0,44007.0,Providence County,440070008003.0
52267,sg:3302bc478db04d50b909e48237dc5eb3,Autowizard Inc,RI,2020-01-01T00:00:00-05:00,2020-02-01T00:00:00-05:00,2828,48,33.5,"{""<5"":1,""5-20"":19,""21-60"":12,""61-240"":16,"">240"":0}",3134.0,41.866554,-71.53691500000001,811111.0,RI,44.0,44007.0,Providence County,440070127021.0
52309,sg:363ff8226297405d98e99793a21a07b7,Rhode Island Guns & Ammo,RI,2020-01-01T00:00:00-05:00,2020-02-01T00:00:00-05:00,2888,4,235.5,"{""<5"":1,""5-20"":1,""21-60"":0,""61-240"":0,"">240"":2}",495.0,41.747426000000004,-71.425232,451110.0,RI,44.0,44003.0,Kent County,440030211001.0
52417,sg:406262df86e54f7d9339e8844e0413fc,Complete Car Care,RI,2020-01-01T00:00:00-05:00,2020-02-01T00:00:00-05:00,2885,6,26.5,"{""<5"":0,""5-20"":3,""21-60"":1,""61-240"":1,"">240"":1}",468.5,41.743934,-71.272689,811192.0,RI,44.0,44001.0,Bristol County,440010306011.0
52498,sg:4652429334e34cb49c20a3fcd2b0f9d7,Hill and Harbor Cigar Lounge,RI,2020-01-01T00:00:00-05:00,2020-02-01T00:00:00-05:00,2818,66,93.0,"{""<5"":0,""5-20"":7,""21-60"":15,""61-240"":32,"">240"":12}",8391.0,41.656568,-71.45229599999999,453991.0,RI,44.0,44003.0,Kent County,440030209011.0
52617,sg:517e853ff4a8413588fe16250aa46d04,Gearhead DIY Super Center,RI,2020-01-01T00:00:00-05:00,2020-02-01T00:00:00-05:00,2889,3,117.0,"{""<5"":0,""5-20"":0,""21-60"":0,""61-240"":2,"">240"":1}",541.0,41.701429,-71.398544,811111.0,RI,44.0,44003.0,Kent County,440030218002.0
52694,sg:57effc60b2de47218d9d21f6baebc9a3,RI Pole Space,RI,2020-01-01T00:00:00-05:00,2020-02-01T00:00:00-05:00,2865,75,26.0,"{""<5"":1,""5-20"":33,""21-60"":21,""61-240"":17,"">240"":3}",4544.0,41.893578999999995,-71.408107,713940.0,RI,44.0,44007.0,Providence County,440070117021.0
52977,sg:72443970978641959c0869466992fb67,Taproot Brewing Co Newport Vineyards,RI,2020-01-01T00:00:00-05:00,2020-02-01T00:00:00-05:00,2842,12,33.0,"{""<5"":0,""5-20"":4,""21-60"":3,""61-240"":4,"">240"":1}",1013.5,41.529309000000005,-71.272643,312120.0,RI,44.0,44005.0,Newport County,440050404001.0
53334,sg:93002aeb06194b999ca2074f88bf81da,Cracker Barrel,RI,2020-01-01T00:00:00-05:00,2020-02-01T00:00:00-05:00,2816,810,48.0,"{""<5"":14,""5-20"":130,""21-60"":383,""61-240"":240,"">240"":43}",63611.5,41.661095,-71.546461,722511.0,RI,44.0,44003.0,Kent County,440030209031.0
53486,sg:a3df741f004046d69bfcf4e9c55a4024,Dunkin',RI,2020-01-01T00:00:00-05:00,2020-02-01T00:00:00-05:00,2891,127,13.0,"{""<5"":13,""5-20"":60,""21-60"":34,""61-240"":20,"">240"":0}",5169.5,41.367891,-71.81869,722515.0,RI,44.0,44009.0,Washington County,440090508021.0
53618,sg:b0082872e6a34da187724a25b16a41db,BoneBuilders of RI,RI,2020-01-01T00:00:00-05:00,2020-02-01T00:00:00-05:00,2828,473,127.0,"{""<5"":9,""5-20"":52,""21-60"":103,""61-240"":233,"">240"":76}",58150.5,41.880767999999996,-71.571965,713940.0,RI,44.0,44007.0,Providence County,440070127013.0
53770,sg:bda6da23cee040419adec7744b91804b,Cultro,RI,2020-01-01T00:00:00-05:00,2020-02-01T00:00:00-05:00,2885,64,93.5,"{""<5"":1,""5-20"":7,""21-60"":11,""61-240"":28,"">240"":17}",8829.5,41.725204,-71.281873,722511.0,RI,44.0,44001.0,Bristol County,440010305003.0
54260,sg:eb43af2d0ce645a98f9d7d32f63b33dd,West Marine,RI,2020-01-01T00:00:00-05:00,2020-02-01T00:00:00-05:00,2882,38,11.5,"{""<5"":0,""5-20"":27,""21-60"":7,""61-240"":4,"">240"":0}",1223.0,41.430414,-71.484883,441222.0,RI,44.0,44009.0,Washington County,440090515044.0
55222,sg:440b313a70c34a41ae764d412ef61bf9,Casey's Auto Sales,RI,2020-01-01T00:00:00-05:00,2020-02-01T00:00:00-05:00,2889,109,42.0,"{""<5"":3,""5-20"":29,""21-60"":29,""61-240"":35,"">240"":13}",9932.0,41.700881,-71.40038299999999,,RI,44.0,44003.0,Kent County,440030217004.0
55700,sg:70534537f15a427294d7afb82594fc7c,Islamic Center of Rhode Island,RI,2020-01-01T00:00:00-05:00,2020-02-01T00:00:00-05:00,2903,77,50.0,"{""<5"":0,""5-20"":21,""21-60"":26,""61-240"":27,"">240"":3}",6099.0,41.815568,-71.419143,813110.0,RI,44.0,44007.0,Providence County,440070007003.0
56115,sg:988ae70a0b7e4b04b2b8e8ac4008a183,Domino's Pizza,RI,2020-01-01T00:00:00-05:00,2020-02-01T00:00:00-05:00,2888,125,19.0,"{""<5"":9,""5-20"":57,""21-60"":27,""61-240"":27,"">240"":5}",7092.0,41.760809,-71.40513100000001,722513.0,RI,44.0,44003.0,Kent County,440030210011.0
56326,sg:aead779f853b49ff9d1650a8d566ac90,The Education Exchange,RI,2020-01-01T00:00:00-05:00,2020-02-01T00:00:00-05:00,2879,14,25.5,"{""<5"":2,""5-20"":4,""21-60"":2,""61-240"":5,"">240"":1}",1128.5,41.453044,-71.496098,611310.0,RI,44.0,44009.0,Washington County,440090512011.0
57468,sg:1a812176c4614fe3ad93a8a12cb0f6e1,South County Nursing and Subacute Center,RI,2020-01-01T00:00:00-05:00,2020-02-01T00:00:00-05:00,2852,40,460.5,"{""<5"":0,""5-20"":1,""21-60"":8,""61-240"":5,"">240"":26}",7329.0,41.558822,-71.487905,621340.0,RI,44.0,44009.0,Washington County,440090503013.0
57907,sg:3eac9d1b77d64dc4a37c3ccf07f0cdd2,Shell Oil,RI,2020-01-01T00:00:00-05:00,2020-02-01T00:00:00-05:00,2905,132,7.0,"{""<5"":21,""5-20"":73,""21-60"":18,""61-240"":10,"">240"":10}",5599.0,41.786184999999996,-71.39474200000001,447110.0,RI,44.0,44007.0,Providence County,440070001011.0
58213,sg:59a4b39d412e4be49036add5e1b5142a,Slate Hill Park,RI,2020-01-01T00:00:00-05:00,2020-02-01T00:00:00-05:00,2920,188,70.0,"{""<5"":4,""5-20"":48,""21-60"":36,""61-240"":60,"">240"":40}",20698.0,41.756726,-71.463042,712190.0,RI,44.0,44007.0,Providence County,440070144001.0
59331,sg:c747d50dcdad444bab583656c4b2395b,Smithfield High School,RI,2020-01-01T00:00:00-05:00,2020-02-01T00:00:00-05:00,2917,3567,324.0,"{""<5"":20,""5-20"":328,""21-60"":404,""61-240"":835,"">240"":1980}",621379.5,41.880657,-71.543948,611110.0,RI,44.0,44007.0,Providence County,440070127013.0
59930,sg:015c7e51eaf442ba903261833d91fd31,Little Caesars,RI,2020-01-01T00:00:00-05:00,2020-02-01T00:00:00-05:00,2910,146,21.0,"{""<5"":5,""5-20"":67,""21-60"":20,""61-240"":27,"">240"":27}",12203.5,41.779422,-71.444193,722513.0,RI,44.0,44007.0,Providence County,440070140005.0
60102,sg:0efea47f828f4a1dbcfa84209db582fe,McCarthy's Auto Repair & Service,RI,2020-01-01T00:00:00-05:00,2020-02-01T00:00:00-05:00,2809,5,8.0,"{""<5"":0,""5-20"":4,""21-60"":0,""61-240"":1,"">240"":0}",200.5,41.674189,-71.259507,811111.0,RI,44.0,44001.0,Bristol County,440010308001.0
60255,sg:1d8e1846f6b74732a0178824c4e58757,BrewGrindz,RI,2020-01-01T00:00:00-05:00,2020-02-01T00:00:00-05:00,2904,396,42.0,"{""<5"":14,""5-20"":108,""21-60"":108,""61-240"":73,"">240"":93}",39065.5,41.862372,-71.45841,722515.0,RI,44.0,44007.0,Providence County,440070119021.0
60574,sg:3bcde52faf3e489b9f539f32eb259d3f,Wendy's,RI,2020-01-01T00:00:00-05:00,2020-02-01T00:00:00-05:00,2852,465,9.0,"{""<5"":39,""5-20"":314,""21-60"":64,""61-240"":30,"">240"":18}",15449.5,41.631214,-71.468968,722513.0,RI,44.0,44009.0,Washington County,440090501035.0
61474,sg:8b09c87db1954986bb9487e53726d25c,The Chicken Coop on Smith Hill,RI,2020-01-01T00:00:00-05:00,2020-02-01T00:00:00-05:00,2908,123,70.0,"{""<5"":4,""5-20"":40,""21-60"":15,""61-240"":17,"">240"":47}",14956.0,41.834876,-71.42435400000001,722511.0,RI,44.0,44007.0,Providence County,440070026001.0
61660,sg:9bf4e0cccb274b639b8b84de51618f89,Dunkin',RI,2020-01-01T00:00:00-05:00,2020-02-01T00:00:00-05:00,2874,275,6.0,"{""<5"":30,""5-20"":198,""21-60"":33,""61-240"":12,"">240"":2}",6172.5,41.494968,-71.457321,722515.0,RI,44.0,44009.0,Washington County,440090513051.0
62053,sg:c19fd4d5fb7247409270b929580de59d,Smithfield Dental Associates,RI,2020-01-01T00:00:00-05:00,2020-02-01T00:00:00-05:00,2917,9,296.0,"{""<5"":0,""5-20"":0,""21-60"":0,""61-240"":3,"">240"":6}",1891.5,41.865029,-71.532985,621210.0,RI,44.0,44007.0,Providence County,440070127021.0
62315,sg:dc7283ec2b814c519fa8fceece8867ce,Providence Country Day School,RI,2020-01-01T00:00:00-05:00,2020-02-01T00:00:00-05:00,2914,1464,58.0,"{""<5"":19,""5-20"":343,""21-60"":391,""61-240"":528,"">240"":183}",143554.5,41.816731,-71.354381,611110.0,RI,44.0,44007.0,Providence County,440070103002.0
64207,sg:897c1b5009fe468382f737befcc7270e,Mobil,RI,2020-01-01T00:00:00-05:00,2020-02-01T00:00:00-05:00,2816,227,10.0,"{""<5"":16,""5-20"":125,""21-60"":43,""61-240"":32,"">240"":11}",10800.0,41.704975,-71.616807,447110.0,RI,44.0,44003.0,Kent County,440030207031.0
64522,sg:a70ba4ff591d4de5846891a70c49ffb7,Sky Lounge,RI,2020-01-01T00:00:00-05:00,2020-02-01T00:00:00-05:00,2917,16,187.5,"{""<5"":0,""5-20"":6,""21-60"":0,""61-240"":6,"">240"":4}",1938.0,41.877183,-71.470789,721110.0,RI,44.0,44007.0,Providence County,440070126026.0
64691,sg:b8574d9a235746d1b273aabac2b90a2b,SandFree,RI,2020-01-01T00:00:00-05:00,2020-02-01T00:00:00-05:00,2826,94,238.0,"{""<5"":0,""5-20"":5,""21-60"":14,""61-240"":28,"">240"":47}",16123.5,41.983204,-71.660178,561740.0,RI,44.0,44007.0,Providence County,440070130022.0
64888,sg:cafc2dfcbd364248a89f8a9bc857527a,The Home Depot,RI,2020-01-01T00:00:00-05:00,2020-02-01T00:00:00-05:00,2891,1168,19.0,"{""<5"":42,""5-20"":622,""21-60"":374,""61-240"":72,"">240"":58}",47783.0,41.362638000000004,-71.807355,444130.0,RI,44.0,44009.0,Washington County,440090509012.0
64946,sg:d0dcd4fdc5fa42f3be104ba17b7b5783,Warwick Industrial Fasteners,RI,2020-01-01T00:00:00-05:00,2020-02-01T00:00:00-05:00,2888,113,214.0,"{""<5"":4,""5-20"":34,""21-60"":7,""61-240"":21,"">240"":47}",15159.0,41.742163,-71.442044,452319.0,RI,44.0,44003.0,Kent County,440030211004.0
65029,sg:da24f5b64f134adfb24958045db418fb,Little Engine,RI,2020-01-01T00:00:00-05:00,2020-02-01T00:00:00-05:00,2909,144,147.5,"{""<5"":1,""5-20"":14,""21-60"":23,""61-240"":48,"">240"":58}",22253.0,41.826705,-71.433989,713940.0,RI,44.0,44007.0,Providence County,440070025002.0
65068,sg:dce40d9d15874ae7a19f9581f876b68a,Berkman Lawrence E DMD,RI,2020-01-01T00:00:00-05:00,2020-02-01T00:00:00-05:00,2833,5,15.0,"{""<5"":0,""5-20"":5,""21-60"":0,""61-240"":0,"">240"":0}",62.5,41.512867,-71.70864,621210.0,RI,44.0,44009.0,Washington County,440090507001.0
65195,sg:eae0a808d48b4f8dacdf1c7cea819b1d,Storage Pros,RI,2020-01-01T00:00:00-05:00,2020-02-01T00:00:00-05:00,2879,12,10.0,"{""<5"":0,""5-20"":9,""21-60"":2,""61-240"":1,"">240"":0}",344.0,41.443052,-71.483526,531130.0,RI,44.0,44009.0,Washington County,440090512024.0
65496,sg:05e6889283c14b15bf19b817bb72a188,Bonetown Burgers & BBQ,RI,2020-01-01T00:00:00-05:00,2020-02-01T00:00:00-05:00,2920,67,45.0,"{""<5"":3,""5-20"":14,""21-60"":25,""61-240"":19,"">240"":6}",5494.5,41.78241,-71.466747,722511.0,RI,44.0,44007.0,Providence County,440070147005.0
65943,sg:2d6711eaa3a64aac96569a1024d15d01,Kingston Congregational Church,RI,2020-01-01T00:00:00-05:00,2020-02-01T00:00:00-05:00,2881,164,85.5,"{""<5"":3,""5-20"":34,""21-60"":30,""61-240"":56,"">240"":41}",19915.5,41.480059999999995,-71.525512,813110.0,RI,44.0,44009.0,Washington County,440090513063.0
66088,sg:3a5b3a05ed584d5b9617d28956b87b6f,Bay Marina,RI,2020-01-01T00:00:00-05:00,2020-02-01T00:00:00-05:00,2889,42,23.0,"{""<5"":1,""5-20"":17,""21-60"":14,""61-240"":8,"">240"":2}",2466.0,41.698153000000005,-71.38810500000001,441222.0,RI,44.0,44003.0,Kent County,440030217001.0
66270,sg:48bbaa8444844dcb84ec6e090a96a87f,YMCA,RI,2020-01-01T00:00:00-05:00,2020-02-01T00:00:00-05:00,2816,8,42.5,"{""<5"":0,""5-20"":2,""21-60"":3,""61-240"":3,"">240"":0}",598.0,41.679024,-71.671625,624190.0,RI,44.0,44003.0,Kent County,440030207022.0
66322,sg:4bed263254494b708e71e821dac6bf6c,Jeff Allen's Latin and Ballroom Dance Studio,RI,2020-01-01T00:00:00-05:00,2020-02-01T00:00:00-05:00,2920,207,40.0,"{""<5"":7,""5-20"":40,""21-60"":92,""61-240"":31,"">240"":37}",17789.0,41.784886,-71.473382,713940.0,RI,44.0,44007.0,Providence County,440070148003.0
66452,sg:58cb52622ebd4cc79ad069f39fa4c0a5,Oop,RI,2020-01-01T00:00:00-05:00,2020-02-01T00:00:00-05:00,2906,68,41.0,"{""<5"":0,""5-20"":22,""21-60"":21,""61-240"":16,"">240"":9}",5693.5,41.827464,-71.39263100000001,452319.0,RI,44.0,44007.0,Providence County,440070036012.0
66491,sg:5c7a19dacad7496e92c0c0a81c15f9dc,Cranston Fire Department Station 2,RI,2020-01-01T00:00:00-05:00,2020-02-01T00:00:00-05:00,2910,421,81.0,"{""<5"":15,""5-20"":117,""21-60"":60,""61-240"":121,"">240"":108}",48060.5,41.779683,-71.43509399999999,922160.0,RI,44.0,44007.0,Providence County,440070140001.0
66659,sg:6cc36a6a86a64b28b3fc9a8f7bbbaf0a,Wally's Tap House,RI,2020-01-01T00:00:00-05:00,2020-02-01T00:00:00-05:00,2878,167,40.0,"{""<5"":6,""5-20"":53,""21-60"":51,""61-240"":55,"">240"":2}",11500.5,41.624887,-71.146982,722511.0,RI,44.0,44005.0,Newport County,440050417021.0
67071,sg:91eec752a4b8422687ba342f03f8362c,1 Alpha And Omega Cleaning Services,RI,2020-01-01T00:00:00-05:00,2020-02-01T00:00:00-05:00,2886,285,56.0,"{""<5"":4,""5-20"":76,""21-60"":73,""61-240"":57,"">240"":75}",30495.0,41.720009999999995,-71.47284300000001,561740.0,RI,44.0,44003.0,Kent County,440030223003.0
67244,sg:a3409a431fa34dcba83d5ef9431fc86a,Olympic Physical Therapy & Foot Orthotics,RI,2020-01-01T00:00:00-05:00,2020-02-01T00:00:00-05:00,2809,1,16.0,"{""<5"":0,""5-20"":1,""21-60"":0,""61-240"":0,"">240"":0}",12.5,41.670056,-71.27620999999999,446199.0,RI,44.0,44001.0,Bristol County,440010307004.0
67311,sg:a9c4aef88b2a46ca986489e2a0060d30,Ardente Supply Co Inc,RI,2020-01-01T00:00:00-05:00,2020-02-01T00:00:00-05:00,2908,118,21.0,"{""<5"":7,""5-20"":50,""21-60"":26,""61-240"":23,"">240"":12}",8037.0,41.827901000000004,-71.436596,444130.0,RI,44.0,44007.0,Providence County,440070022002.0
67369,sg:af4fa215b8ff47eca34f07c0cab30695,Robin Hollow Farm,RI,2020-01-01T00:00:00-05:00,2020-02-01T00:00:00-05:00,2874,3,49.0,"{""<5"":0,""5-20"":0,""21-60"":2,""61-240"":1,"">240"":0}",231.5,41.517711,-71.451385,453110.0,RI,44.0,44009.0,Washington County,440090504023.0
67665,sg:c910cb9ab39149438846530bc597f053,El Paso Restaurant,RI,2020-01-01T00:00:00-05:00,2020-02-01T00:00:00-05:00,2863,500,78.0,"{""<5"":10,""5-20"":109,""21-60"":104,""61-240"":134,"">240"":143}",60086.5,41.896822,-71.388819,722511.0,RI,44.0,44007.0,Providence County,440070109003.0
67826,sg:d8c5b89fa43f4a83997bca8a71a10a98,Nicholas A Ferri Middle,RI,2020-01-01T00:00:00-05:00,2020-02-01T00:00:00-05:00,2919,350,368.5,"{""<5"":0,""5-20"":9,""21-60"":4,""61-240"":92,"">240"":245}",72920.5,41.829582,-71.502307,611110.0,RI,44.0,44007.0,Providence County,440070124014.0
67947,sg:e5cdb024c1e44e0a982f910b86439ab7,J's Deli,RI,2020-01-01T00:00:00-05:00,2020-02-01T00:00:00-05:00,2864,4,81.0,"{""<5"":0,""5-20"":1,""21-60"":1,""61-240"":1,"">240"":1}",443.5,41.954081,-71.402109,722511.0,RI,44.0,44007.0,Providence County,440070114013.0
68244,sg:03a7b6cbd27f48cfb026feac88fe483d,West Warwick Fire Department Station 1 Headquarters,RI,2020-01-01T00:00:00-05:00,2020-02-01T00:00:00-05:00,2893,67,89.0,"{""<5"":2,""5-20"":12,""21-60"":8,""61-240"":35,"">240"":10}",8146.5,41.706540000000004,-71.522786,922160.0,RI,44.0,44003.0,Kent County,440030203003.0
68490,sg:179d1cb9329b4c6e83272a2e20643b91,Hair Designs,RI,2020-01-01T00:00:00-05:00,2020-02-01T00:00:00-05:00,2886,14,21.5,"{""<5"":0,""5-20"":7,""21-60"":3,""61-240"":4,"">240"":0}",811.0,41.722121,-71.441643,812112.0,RI,44.0,44003.0,Kent County,440030211004.0
68585,sg:215e6619b16b4e0bacc9b6ce3dbd23e2,L'atelier Hair Salon,RI,2020-01-01T00:00:00-05:00,2020-02-01T00:00:00-05:00,2885,2,219.5,"{""<5"":0,""5-20"":1,""21-60"":0,""61-240"":0,"">240"":1}",252.5,41.729704999999996,-71.278852,812112.0,RI,44.0,44001.0,Bristol County,440010305002.0
68886,sg:3bebd51d8b7d413ba576aacf42dddf2a,Petro Home Services,RI,2020-01-01T00:00:00-05:00,2020-02-01T00:00:00-05:00,2895,12,13.0,"{""<5"":0,""5-20"":9,""21-60"":2,""61-240"":1,"">240"":0}",344.0,42.009027,-71.529609,221210.0,RI,44.0,44007.0,Providence County,440070174001.0
69493,sg:70780cd2eac944f7818872f3375ac04e,Universe Bar & Cafe,RI,2020-01-01T00:00:00-05:00,2020-02-01T00:00:00-05:00,2904,140,29.0,"{""<5"":4,""5-20"":44,""21-60"":61,""61-240"":29,"">240"":2}",7875.0,41.869026,-71.423787,722511.0,RI,44.0,44007.0,Providence County,440070118001.0
69802,sg:8d02d428e05c4f4f88fec7f72459ae53,Advance America Cash Advance Center,RI,2020-01-01T00:00:00-05:00,2020-02-01T00:00:00-05:00,2919,11,9.0,"{""<5"":0,""5-20"":10,""21-60"":0,""61-240"":0,"">240"":1}",365.0,41.825585,-71.499976,522291.0,RI,44.0,44007.0,Providence County,440070124014.0
70265,sg:b71f5bd32cf742dcafdc516e83c62521,White Dog Distilling,RI,2020-01-01T00:00:00-05:00,2020-02-01T00:00:00-05:00,2860,1,1262.0,"{""<5"":0,""5-20"":0,""21-60"":0,""61-240"":0,"">240"":1}",240.0,41.872713,-71.407493,722515.0,RI,44.0,44007.0,Providence County,440070163001.0
70273,sg:b82b2eb234ff49c4b0348de95ceb90d5,Magniventris,RI,2020-01-01T00:00:00-05:00,2020-02-01T00:00:00-05:00,2905,268,84.0,"{""<5"":4,""5-20"":50,""21-60"":51,""61-240"":91,"">240"":72}",33676.0,41.787158000000005,-71.39695,448140.0,RI,44.0,44007.0,Providence County,440070001013.0
70480,sg:cb4c659565974e8e983503bc2219b6b8,Caribe Super Market,RI,2020-01-01T00:00:00-05:00,2020-02-01T00:00:00-05:00,2904,562,31.0,"{""<5"":22,""5-20"":217,""21-60"":99,""61-240"":114,"">240"":110}",50334.0,41.853419,-71.420053,445110.0,RI,44.0,44007.0,Providence County,440070029002.0
70778,sg:e7b2753e11fb40b096190ddb42fd9751,United Brothers Synagogue,RI,2020-01-01T00:00:00-05:00,2020-02-01T00:00:00-05:00,2809,5,72.0,"{""<5"":0,""5-20"":0,""21-60"":2,""61-240"":2,"">240"":1}",622.0,41.668913,-71.273425,813110.0,RI,44.0,44001.0,Bristol County,440010307004.0
71584,sg:2fa9eee8d3b142eebb51de6bdc5ade85,Royal Flush Havanese,RI,2020-01-01T00:00:00-05:00,2020-02-01T00:00:00-05:00,2813,48,302.5,"{""<5"":1,""5-20"":2,""21-60"":4,""61-240"":13,"">240"":28}",8866.0,41.399901,-71.622485,812910.0,RI,44.0,44009.0,Washington County,440090511021.0
71707,sg:3b935f4ee7814733b835fd20bdbb695a,Ocean State Pain Management,RI,2020-01-01T00:00:00-05:00,2020-02-01T00:00:00-05:00,2895,75,23.0,"{""<5"":1,""5-20"":33,""21-60"":19,""61-240"":16,"">240"":6}",5032.5,42.005062,-71.494681,621111.0,RI,44.0,44007.0,Providence County,440070185001.0
71970,sg:53a0f7414c43407c93002986dffb14ac,Subway,RI,2020-01-01T00:00:00-05:00,2020-02-01T00:00:00-05:00,2886,159,12.0,"{""<5"":9,""5-20"":97,""21-60"":35,""61-240"":15,"">240"":3}",5630.0,41.718654,-71.486285,722513.0,RI,44.0,44003.0,Kent County,440030223002.0
72601,sg:916311f17bd74bb2b99b023831e0fafa,Pawtucket,RI,2020-01-01T00:00:00-05:00,2020-02-01T00:00:00-05:00,2861,167,83.0,"{""<5"":7,""5-20"":48,""21-60"":22,""61-240"":31,"">240"":59}",20334.0,41.893716999999995,-71.37197900000001,441110.0,RI,44.0,44007.0,Providence County,440070153001.0
72838,sg:a93c5112f00f413488fd273623552b84,Asian Gourmet,RI,2020-01-01T00:00:00-05:00,2020-02-01T00:00:00-05:00,2878,165,15.0,"{""<5"":9,""5-20"":82,""21-60"":50,""61-240"":23,"">240"":1}",6774.0,41.626503,-71.147374,722511.0,RI,44.0,44005.0,Newport County,440050417011.0
73000,sg:b7b2d501892144bcbd0411a5e9ce3cfc,Midville Golf Club,RI,2020-01-01T00:00:00-05:00,2020-02-01T00:00:00-05:00,2893,166,63.5,"{""<5"":6,""5-20"":43,""21-60"":33,""61-240"":30,"">240"":54}",19364.0,41.722849,-71.50104300000001,713910.0,RI,44.0,44003.0,Kent County,440030205002.0
73071,sg:bfead523b4e1440daaeef5725484b023,La Nuova Pizzeria,RI,2020-01-01T00:00:00-05:00,2020-02-01T00:00:00-05:00,2919,96,25.5,"{""<5"":4,""5-20"":36,""21-60"":39,""61-240"":16,"">240"":1}",4687.5,41.819219,-71.49699100000001,722511.0,RI,44.0,44007.0,Providence County,440070124015.0
73102,sg:c32fc6d5080d4ea8a8604b4397215659,Social Security,RI,2020-01-01T00:00:00-05:00,2020-02-01T00:00:00-05:00,2895,13,655.0,"{""<5"":1,""5-20"":1,""21-60"":0,""61-240"":2,"">240"":9}",2476.0,42.014839,-71.46564599999999,921190.0,RI,44.0,44007.0,Providence County,440070184003.0
73550,sg:ee2668883d0a447a86dcaa45c338e8ac,St Andrews School,RI,2020-01-01T00:00:00-05:00,2020-02-01T00:00:00-05:00,2806,916,93.0,"{""<5"":8,""5-20"":187,""21-60"":155,""61-240"":275,"">240"":291}",119862.5,41.749981,-71.324158,611110.0,RI,44.0,44001.0,Bristol County,440010302001.0
73589,sg:f260d6f8aedd4e2b8f3b86503e46419a,Hackman Edmund T Jr Optmtrst,RI,2020-01-01T00:00:00-05:00,2020-02-01T00:00:00-05:00,2888,62,23.0,"{""<5"":0,""5-20"":24,""21-60"":21,""61-240"":15,"">240"":2}",3888.0,41.738838,-71.40786700000001,446130.0,RI,44.0,44003.0,Kent County,440030213004.0
73812,sg:075174e275c14ef185989cf31eb80190,St Philomena School,RI,2020-01-01T00:00:00-05:00,2020-02-01T00:00:00-05:00,2871,318,65.5,"{""<5"":9,""5-20"":94,""21-60"":50,""61-240"":52,"">240"":113}",38168.5,41.597746,-71.27627700000001,611110.0,RI,44.0,44005.0,Newport County,440050401035.0
74638,sg:5510757fcb3c4db48e26358ecaa62c58,Frankie Ranks Guitar Zone,RI,2020-01-01T00:00:00-05:00,2020-02-01T00:00:00-05:00,2806,66,39.5,"{""<5"":1,""5-20"":12,""21-60"":30,""61-240"":9,"">240"":14}",6082.0,41.738113,-71.31529,451140.0,RI,44.0,44001.0,Bristol County,440010302003.0
75987,sg:d12bcc837d0946afa0223028d3ae7a95,TRIAD Recording,RI,2020-01-01T00:00:00-05:00,2020-02-01T00:00:00-05:00,2885,109,62.0,"{""<5"":3,""5-20"":23,""21-60"":27,""61-240"":38,"">240"":18}",11427.5,41.730703000000005,-71.281869,451140.0,RI,44.0,44001.0,Bristol County,440010305001.0
76241,sg:e909750d7f164ec09d85ba9d634a5661,Confreda Greenhouses & Farms,RI,2020-01-01T00:00:00-05:00,2020-02-01T00:00:00-05:00,2831,106,22.0,"{""<5"":5,""5-20"":46,""21-60"":8,""61-240"":14,"">240"":33}",10938.5,41.765826000000004,-71.545291,445110.0,RI,44.0,44007.0,Providence County,440070146002.0
76352,sg:f561130a59f9446a8e0c11cf3b27830f,ReReads Bookstore,RI,2020-01-01T00:00:00-05:00,2020-02-01T00:00:00-05:00,2891,124,41.0,"{""<5"":0,""5-20"":28,""21-60"":55,""61-240"":26,"">240"":15}",10090.5,41.379279,-71.829706,451211.0,RI,44.0,44009.0,Washington County,440090508014.0
76414,sg:fb72de5b66204ab6857909021b590642,Frankly Pizza,RI,2020-01-01T00:00:00-05:00,2020-02-01T00:00:00-05:00,2908,88,20.0,"{""<5"":2,""5-20"":43,""21-60"":12,""61-240"":9,"">240"":22}",7663.0,41.84635,-71.42965600000001,722511.0,RI,44.0,44007.0,Providence County,440070028004.0
77578,sg:6c54fd1034e84e88973d081331f7eae8,Ballard's Inn,RI,2020-01-01T00:00:00-05:00,2020-02-01T00:00:00-05:00,2807,1,55.0,"{""<5"":0,""5-20"":0,""21-60"":1,""61-240"":0,"">240"":0}",40.5,41.172628,-71.555072,721110.0,RI,44.0,44009.0,Washington County,440090415001.0
77681,sg:75c6dc9a24e4419884d4ad9c1316f392,Donald Masseur Ameriprise Financial Services,RI,2020-01-01T00:00:00-05:00,2020-02-01T00:00:00-05:00,2886,2,635.0,"{""<5"":0,""5-20"":0,""21-60"":0,""61-240"":0,"">240"":2}",480.0,41.725478,-71.45451,523930.0,RI,44.0,44003.0,Kent County,440030221001.0
77733,sg:7b1e423006de4d5692fa006f5c433873,Rite Aid,RI,2020-01-01T00:00:00-05:00,2020-02-01T00:00:00-05:00,2898,150,10.0,"{""<5"":15,""5-20"":105,""21-60"":27,""61-240"":3,"">240"":0}",2895.0,41.510912,-71.687115,446110.0,RI,44.0,44009.0,Washington County,440090506002.0
78206,sg:a7e5502a24a848279716f45740805606,Tropical Smoothie Caf,RI,2020-01-01T00:00:00-05:00,2020-02-01T00:00:00-05:00,2906,243,60.0,"{""<5"":5,""5-20"":60,""21-60"":57,""61-240"":97,"">240"":24}",23429.5,41.828368,-71.38803399999999,722515.0,RI,44.0,44007.0,Providence County,440070035003.0
78340,sg:b5d83a4905fe4cd4b1023ac8943ee024,Allure Salon,RI,2020-01-01T00:00:00-05:00,2020-02-01T00:00:00-05:00,2886,33,22.0,"{""<5"":1,""5-20"":15,""21-60"":8,""61-240"":5,"">240"":4}",2226.5,41.717034999999996,-71.461911,812112.0,RI,44.0,44003.0,Kent County,440030221001.0
78676,sg:d5a9b8c863464e428de56401753a1c84,Dollar General,RI,2020-01-01T00:00:00-05:00,2020-02-01T00:00:00-05:00,2904,137,14.0,"{""<5"":11,""5-20"":75,""21-60"":37,""61-240"":6,"">240"":8}",5286.5,41.852356,-71.427502,452319.0,RI,44.0,44007.0,Providence County,440070027001.0
79517,sg:261049ed151a46e6ab97c64a74da58de,Squire's Salon,RI,2020-01-01T00:00:00-05:00,2020-02-01T00:00:00-05:00,2903,262,70.0,"{""<5"":11,""5-20"":66,""21-60"":42,""61-240"":64,"">240"":79}",31145.5,41.828695,-71.412171,812112.0,RI,44.0,44007.0,Providence County,440070008001.0
79575,sg:2b32ef4bfac1486bb2bb79622ad2744c,1000 Bald Hill Road,RI,2020-01-01T00:00:00-05:00,2020-02-01T00:00:00-05:00,2886,2733,21.0,"{""<5"":63,""5-20"":1180,""21-60"":1145,""61-240"":225,"">240"":120}",123942.5,41.712369,-71.487585,531120.0,RI,44.0,44003.0,Kent County,440030221003.0
79997,sg:521e2c9fee3545fa909d1edd0ff830e1,Joseph T Conaty Jr Ameriprise Financial Services,RI,2020-01-01T00:00:00-05:00,2020-02-01T00:00:00-05:00,2888,28,502.5,"{""<5"":0,""5-20"":1,""21-60"":3,""61-240"":0,"">240"":24}",5894.0,41.740149,-71.438248,523930.0,RI,44.0,44003.0,Kent County,440030211004.0
80205,sg:67a56db09371434b85c74d2baea04302,Karen Small LMT,RI,2020-01-01T00:00:00-05:00,2020-02-01T00:00:00-05:00,2891,61,187.0,"{""<5"":0,""5-20"":6,""21-60"":9,""61-240"":20,"">240"":26}",9689.5,41.358578,-71.754746,812199.0,RI,44.0,44009.0,Washington County,440090509022.0
80266,sg:6cf7315100d941ba8685443083266cc2,Basler Chiropractic,RI,2020-01-01T00:00:00-05:00,2020-02-01T00:00:00-05:00,2818,70,48.0,"{""<5"":2,""5-20"":12,""21-60"":29,""61-240"":20,"">240"":7}",6019.5,41.65501,-71.453533,621310.0,RI,44.0,44003.0,Kent County,440030209013.0
80993,sg:b4417250405544d7aef2d6a6385f7731,Community Alphabest,RI,2020-01-01T00:00:00-05:00,2020-02-01T00:00:00-05:00,2864,225,10.0,"{""<5"":13,""5-20"":142,""21-60"":42,""61-240"":6,"">240"":22}",9691.5,41.976853000000006,-71.39836700000001,624410.0,RI,44.0,44007.0,Providence County,440070114014.0
81147,sg:c2ca35d2c52e48e289cd1195d56624d5,Tiverton Tots,RI,2020-01-01T00:00:00-05:00,2020-02-01T00:00:00-05:00,2878,137,53.0,"{""<5"":1,""5-20"":44,""21-60"":29,""61-240"":35,"">240"":28}",13714.5,41.672032,-71.184589,448310.0,RI,44.0,44005.0,Newport County,440050416011.0
81218,sg:c9f80a9528644331b2b8a873c1319166,SpaVana,RI,2020-01-01T00:00:00-05:00,2020-02-01T00:00:00-05:00,2842,5,39.0,"{""<5"":0,""5-20"":0,""21-60"":4,""61-240"":1,"">240"":0}",312.5,41.513583000000004,-71.301392,812199.0,RI,44.0,44005.0,Newport County,440050403021.0
81295,sg:d3216dbd0bd0405e9a79fa4d158f1b9b,Mr Z's Pipasa By The Lake,RI,2020-01-01T00:00:00-05:00,2020-02-01T00:00:00-05:00,2814,339,72.0,"{""<5"":2,""5-20"":46,""21-60"":97,""61-240"":151,"">240"":43}",37554.0,41.919823,-71.776687,722511.0,RI,44.0,44007.0,Providence County,440070131012.0
81391,sg:db6334024ccc485689b94b88314e455c,Alma Juice Bar Market,RI,2020-01-01T00:00:00-05:00,2020-02-01T00:00:00-05:00,2852,46,313.0,"{""<5"":0,""5-20"":4,""21-60"":2,""61-240"":8,"">240"":32}",9015.0,41.571599,-71.452303,722515.0,RI,44.0,44009.0,Washington County,440090503023.0
81525,sg:e8dd707081154db19b70285e30a82d37,California Taco Shop,RI,2020-01-01T00:00:00-05:00,2020-02-01T00:00:00-05:00,2888,157,22.0,"{""<5"":4,""5-20"":72,""21-60"":63,""61-240"":14,"">240"":4}",6528.5,41.748605,-71.42213199999999,722511.0,RI,44.0,44003.0,Kent County,440030212002.0
81791,sg:0319a9c259c14ec0921122461a887428,Antilli's Market II,RI,2020-01-01T00:00:00-05:00,2020-02-01T00:00:00-05:00,2863,320,88.5,"{""<5"":6,""5-20"":83,""21-60"":47,""61-240"":86,"">240"":98}",39419.0,41.890869,-71.392547,445110.0,RI,44.0,44007.0,Providence County,440070110002.0
82091,sg:1ccb2f79b3de4a92b68985904bd253bd,Five Guys,RI,2020-01-01T00:00:00-05:00,2020-02-01T00:00:00-05:00,2886,64,21.0,"{""<5"":3,""5-20"":29,""21-60"":15,""61-240"":11,"">240"":6}",4073.0,41.688411,-71.497912,722513.0,RI,44.0,44003.0,Kent County,440030222022.0
82691,sg:4fb496a9ae864afaa61ea4f565c8e578,Dawn's Spa of Beauty,RI,2020-01-01T00:00:00-05:00,2020-02-01T00:00:00-05:00,2865,3,37.0,"{""<5"":0,""5-20"":1,""21-60"":1,""61-240"":0,"">240"":1}",293.0,41.921101,-71.435013,812112.0,,,,,
83050,sg:70fce6626b104644af5fa50ceac70045,Lucky's Bar & Grille,RI,2020-01-01T00:00:00-05:00,2020-02-01T00:00:00-05:00,2914,306,64.0,"{""<5"":7,""5-20"":50,""21-60"":86,""61-240"":136,"">240"":27}",31073.5,41.807889,-71.340625,722511.0,RI,44.0,44007.0,Providence County,440070103003.0
83226,sg:83eaa680b4db4b4fb46475dbff5663d7,Middletown Senior Center,RI,2020-01-01T00:00:00-05:00,2020-02-01T00:00:00-05:00,2842,3,52.0,"{""<5"":0,""5-20"":0,""21-60"":2,""61-240"":0,"">240"":1}",321.0,41.509023,-71.273427,623312.0,RI,44.0,44005.0,Newport County,440050404001.0
83431,sg:9948639f42b4413e84c845bd205adb37,Elite Auto Repair,RI,2020-01-01T00:00:00-05:00,2020-02-01T00:00:00-05:00,2888,34,449.0,"{""<5"":0,""5-20"":0,""21-60"":1,""61-240"":8,"">240"":25}",7244.5,41.737991,-71.43414,811111.0,RI,44.0,44003.0,Kent County,440030211004.0
83445,sg:9abea00e21b64220859529464124f49a,Gasbarro's Liquor,RI,2020-01-01T00:00:00-05:00,2020-02-01T00:00:00-05:00,2903,18,9.5,"{""<5"":1,""5-20"":11,""21-60"":4,""61-240"":2,"">240"":0}",603.0,41.824172,-71.429574,445310.0,RI,44.0,44007.0,Providence County,440070009001.0
83695,sg:b103f45037ad482cbda4258529e7ed23,Envy Gymnastics,RI,2020-01-01T00:00:00-05:00,2020-02-01T00:00:00-05:00,2878,154,48.0,"{""<5"":2,""5-20"":40,""21-60"":57,""61-240"":41,"">240"":14}",12344.0,41.650139,-71.202102,713940.0,RI,44.0,44005.0,Newport County,440050416022.0
83830,sg:be86247f4f5740f39aeb8c939bbd07b4,Old Stone Mill Antiques & Treasures,RI,2020-01-01T00:00:00-05:00,2020-02-01T00:00:00-05:00,2814,47,38.0,"{""<5"":0,""5-20"":14,""21-60"":13,""61-240"":14,"">240"":6}",4248.5,41.913884,-71.66980799999999,453310.0,RI,44.0,44007.0,Providence County,440070131022.0
84075,sg:d763f23804ca42d387e05a97e9042f5b,Sideways Down Antiques,RI,2020-01-01T00:00:00-05:00,2020-02-01T00:00:00-05:00,2814,23,16.0,"{""<5"":1,""5-20"":14,""21-60"":6,""61-240"":1,"">240"":1}",811.0,41.911346,-71.668426,448310.0,RI,44.0,44007.0,Providence County,440070131022.0
85194,sg:385b1b419ec345b0bc39f1eddde02301,Amazing Intimate Essentials,RI,2020-01-01T00:00:00-05:00,2020-02-01T00:00:00-05:00,2919,102,24.5,"{""<5"":0,""5-20"":43,""21-60"":33,""61-240"":8,"">240"":18}",7398.0,41.824984,-71.50572,453998.0,RI,44.0,44007.0,Providence County,440070124015.0
85867,sg:7388e391cb414e5ab3ed5da3f6ffba0c,Twigg's Auto Sales and Rentals,RI,2020-01-01T00:00:00-05:00,2020-02-01T00:00:00-05:00,2885,5,16.0,"{""<5"":0,""5-20"":5,""21-60"":0,""61-240"":0,"">240"":0}",62.5,41.729468,-71.2757,441120.0,RI,44.0,44001.0,Bristol County,440010305002.0
85908,sg:77f1dd780d5f45f795bb9c3611733e0d,Dave's Marketplace,RI,2020-01-01T00:00:00-05:00,2020-02-01T00:00:00-05:00,2864,1211,14.0,"{""<5"":48,""5-20"":767,""21-60"":353,""61-240"":25,"">240"":18}",32086.5,41.945170000000005,-71.402754,445110.0,RI,44.0,44007.0,Providence County,440070113021.0
86214,sg:95bfbcd3c0eb47d49a6131b882e662d7,Sunshine Pediatrics,RI,2020-01-01T00:00:00-05:00,2020-02-01T00:00:00-05:00,2904,26,75.0,"{""<5"":1,""5-20"":6,""21-60"":3,""61-240"":12,"">240"":4}",2965.0,41.841663,-71.40858,621111.0,RI,44.0,44007.0,Providence County,440070031005.0
86241,sg:981eadc5d77a4b0da626a847d806f52c,East Bay Dental Associates,RI,2020-01-01T00:00:00-05:00,2020-02-01T00:00:00-05:00,2885,127,50.0,"{""<5"":4,""5-20"":37,""21-60"":27,""61-240"":25,"">240"":34}",13488.5,41.713932,-71.28015400000001,621210.0,RI,44.0,44001.0,Bristol County,440010306023.0
87950,sg:3bc1867b1552409eb74805330bc50e71,Rotary Park,RI,2020-01-01T00:00:00-05:00,2020-02-01T00:00:00-05:00,2891,76,44.5,"{""<5"":1,""5-20"":20,""21-60"":27,""61-240"":26,"">240"":2}",5739.0,41.345616,-71.815198,712190.0,RI,44.0,44009.0,Washington County,440090508022.0
88090,sg:47675b94676941788f0f8504ac41bde0,The Break,RI,2020-01-01T00:00:00-05:00,2020-02-01T00:00:00-05:00,2882,147,103.0,"{""<5"":0,""5-20"":13,""21-60"":34,""61-240"":60,"">240"":40}",20169.5,41.374379,-71.48491700000001,721110.0,RI,44.0,44009.0,Washington County,440090515042.0
88358,sg:601d83b1b8a44d24823e87b3ed6062ae,New England Fashions,RI,2020-01-01T00:00:00-05:00,2020-02-01T00:00:00-05:00,2920,167,68.0,"{""<5"":2,""5-20"":18,""21-60"":51,""61-240"":93,"">240"":3}",17012.0,41.753401000000004,-71.44711099999999,448120.0,RI,44.0,44007.0,Providence County,440070139003.0
88384,sg:62ad66bf7e2248a4aacfc2f54879afca,Riverview Healthcare Community,RI,2020-01-01T00:00:00-05:00,2020-02-01T00:00:00-05:00,2816,571,123.0,"{""<5"":6,""5-20"":77,""21-60"":104,""61-240"":223,"">240"":161}",77391.0,41.727489,-71.53965600000001,623312.0,RI,44.0,44003.0,Kent County,440030206011.0
88435,sg:67eff25a0163489dac3466befa77a874,The Home Depot,RI,2020-01-01T00:00:00-05:00,2020-02-01T00:00:00-05:00,2917,1335,18.0,"{""<5"":45,""5-20"":720,""21-60"":420,""61-240"":100,"">240"":50}",53172.5,41.874990999999994,-71.52081,444130.0,RI,44.0,44007.0,Providence County,440070126012.0
88829,sg:8e247645761f463183284bd6c32c11ec,The Juice Box,RI,2020-01-01T00:00:00-05:00,2020-02-01T00:00:00-05:00,2896,384,8.0,"{""<5"":39,""5-20"":292,""21-60"":27,""61-240"":10,"">240"":16}",10186.0,42.005373,-71.584542,444120.0,RI,44.0,44007.0,Providence County,440070128011.0
89342,sg:bea2ceea43d649c496dae937708d1dcd,Nacho Mamis Taco Shop,RI,2020-01-01T00:00:00-05:00,2020-02-01T00:00:00-05:00,2893,212,37.0,"{""<5"":7,""5-20"":73,""21-60"":48,""61-240"":44,"">240"":40}",19096.0,41.700917,-71.528494,722511.0,RI,44.0,44003.0,Kent County,440030203004.0
89502,sg:cfc1bda9e6204dc89c581679b823c88a,Lao Thai Cafe,RI,2020-01-01T00:00:00-05:00,2020-02-01T00:00:00-05:00,2895,10,5.0,"{""<5"":3,""5-20"":6,""21-60"":0,""61-240"":0,"">240"":1}",322.5,42.018253,-71.49805500000001,722511.0,MA,25.0,25021.0,Norfolk County,250214431025.0
89515,sg:d103c91fadd84a88bcd69c75bbe33603,Tilly's Cheesesteaks,RI,2020-01-01T00:00:00-05:00,2020-02-01T00:00:00-05:00,2892,226,29.0,"{""<5"":3,""5-20"":61,""21-60"":127,""61-240"":25,"">240"":10}",12076.0,41.485975,-71.563664,722511.0,RI,44.0,44009.0,Washington County,440090513061.0
89784,sg:ec34a7154ef843dba57d0f35abf5ab48,Cayala Bakery,RI,2020-01-01T00:00:00-05:00,2020-02-01T00:00:00-05:00,2920,172,10.0,"{""<5"":15,""5-20"":90,""21-60"":35,""61-240"":21,"">240"":11}",8380.5,41.803359,-71.457987,311811.0,RI,44.0,44007.0,Providence County,440070147001.0
89851,sg:f44df8df0bff452280e05fe28cb10c0a,Cowesett Pizza,RI,2020-01-01T00:00:00-05:00,2020-02-01T00:00:00-05:00,2893,24,31.5,"{""<5"":0,""5-20"":8,""21-60"":11,""61-240"":5,"">240"":0}",1298.0,41.685251,-71.504202,722511.0,RI,44.0,44003.0,Kent County,440030201021.0
90111,sg:0b2ebe3f71ab4422a06dd23810783eb7,Vantage Point Tutors,RI,2020-01-01T00:00:00-05:00,2020-02-01T00:00:00-05:00,2906,4,718.5,"{""<5"":0,""5-20"":0,""21-60"":0,""61-240"":1,"">240"":3}",870.5,41.827940999999996,-71.385385,611691.0,RI,44.0,44007.0,Providence County,440070035004.0
90277,sg:19d5d84e5b5245738e85c283b9d26cf1,Baja's,RI,2020-01-01T00:00:00-05:00,2020-02-01T00:00:00-05:00,2916,291,15.0,"{""<5"":13,""5-20"":150,""21-60"":69,""61-240"":37,"">240"":22}",15550.5,41.848138,-71.354098,722511.0,RI,44.0,44007.0,Providence County,440070101021.0
90423,sg:24dc7e3953c340ab8e64f957120a20e4,Ace Hardware,RI,2020-01-01T00:00:00-05:00,2020-02-01T00:00:00-05:00,2888,252,11.0,"{""<5"":19,""5-20"":161,""21-60"":47,""61-240"":13,"">240"":12}",8800.0,41.765924,-71.404308,444130.0,RI,44.0,44003.0,Kent County,440030210022.0
90659,sg:391d3170c5cd434e9f7624317c5cce3a,Artistic Pet Salon,RI,2020-01-01T00:00:00-05:00,2020-02-01T00:00:00-05:00,2920,40,26.5,"{""<5"":3,""5-20"":16,""21-60"":9,""61-240"":8,"">240"":4}",2736.0,41.782234,-71.46399100000001,453910.0,RI,44.0,44007.0,Providence County,440070145023.0
91136,sg:67ce6f3dbdb54aeea7f1a1e18c42f9ae,Politelli Family Dental,RI,2020-01-01T00:00:00-05:00,2020-02-01T00:00:00-05:00,2888,22,51.0,"{""<5"":0,""5-20"":2,""21-60"":10,""61-240"":8,"">240"":2}",2114.0,41.739343,-71.408441,621210.0,RI,44.0,44003.0,Kent County,440030212003.0
91349,sg:7ea004e736a74033a73143760a52fe80,Central Car Wash,RI,2020-01-01T00:00:00-05:00,2020-02-01T00:00:00-05:00,2861,69,35.0,"{""<5"":0,""5-20"":29,""21-60"":10,""61-240"":14,"">240"":16}",6714.5,41.886156,-71.360171,811192.0,RI,44.0,44007.0,Providence County,440070159001.0
91790,sg:a83352294aa3496aa8f9badce27eca89,Life Care Centers of America,RI,2020-01-01T00:00:00-05:00,2020-02-01T00:00:00-05:00,2914,481,79.0,"{""<5"":8,""5-20"":99,""21-60"":86,""61-240"":152,"">240"":136}",60256.5,41.806995,-71.344142,623110.0,RI,44.0,44007.0,Providence County,440070105011.0
91840,sg:acfa39a64f5343bbabc25fd3ca156c2b,Critter Hut Aquarium and Pets,RI,2020-01-01T00:00:00-05:00,2020-02-01T00:00:00-05:00,2852,87,8.0,"{""<5"":12,""5-20"":74,""21-60"":0,""61-240"":0,"">240"":1}",1195.0,41.616999,-71.45933199999999,453910.0,RI,44.0,44009.0,Washington County,440090501034.0
91943,sg:b755d5d06ac440afad098cc5f8244531,Shell Oil,RI,2020-01-01T00:00:00-05:00,2020-02-01T00:00:00-05:00,2904,280,6.0,"{""<5"":27,""5-20"":227,""21-60"":21,""61-240"":3,"">240"":2}",4687.0,41.852026,-71.424604,447110.0,RI,44.0,44007.0,Providence County,440070029004.0
92189,sg:d1db5f3dc18248709ed2f448bc436ff1,Westerly DMV,RI,2020-01-01T00:00:00-05:00,2020-02-01T00:00:00-05:00,2891,42,22.0,"{""<5"":1,""5-20"":19,""21-60"":10,""61-240"":8,"">240"":4}",2809.0,41.376678000000005,-71.82969399999999,926120.0,RI,44.0,44009.0,Washington County,440090508014.0
92555,sg:f60d256b4b624552974dcc9ecd07ced7,Mangia Trattoria & Pizzeria,RI,2020-01-01T00:00:00-05:00,2020-02-01T00:00:00-05:00,2806,150,33.0,"{""<5"":10,""5-20"":53,""21-60"":30,""61-240"":43,"">240"":14}",11734.0,41.740938,-71.309724,722511.0,RI,44.0,44001.0,Bristol County,440010302003.0
92677,sg:013698dcadb74ee792e5f480ab060e13,ANLI Academy,RI,2020-01-01T00:00:00-05:00,2020-02-01T00:00:00-05:00,2914,21,60.0,"{""<5"":1,""5-20"":3,""21-60"":7,""61-240"":10,"">240"":0}",1828.5,41.816618,-71.358081,611310.0,RI,44.0,44007.0,Providence County,440070103003.0
92809,sg:0dc5c14060d34b629c59a3a6f3a2f47e,Triggs Memorial Golf Course,RI,2020-01-01T00:00:00-05:00,2020-02-01T00:00:00-05:00,2909,767,80.0,"{""<5"":19,""5-20"":182,""21-60"":134,""61-240"":232,"">240"":200}",90665.5,41.836644,-71.458718,713910.0,RI,44.0,44007.0,Providence County,440070024005.0
92877,sg:13a9a2736f154688a140e84856416006,Ivy Lodge Bed and Breakfast,RI,2020-01-01T00:00:00-05:00,2020-02-01T00:00:00-05:00,2840,111,37.0,"{""<5"":1,""5-20"":32,""21-60"":33,""61-240"":24,"">240"":21}",10391.0,41.476844,-71.306035,721110.0,RI,44.0,44005.0,Newport County,440050408003.0
93042,sg:22364343a2624c74864186f44a332908,Washington Trust,RI,2020-01-01T00:00:00-05:00,2020-02-01T00:00:00-05:00,2886,92,8.5,"{""<5"":6,""5-20"":56,""21-60"":9,""61-240"":3,"">240"":18}",5851.0,41.697505,-71.468096,522110.0,RI,44.0,44003.0,Kent County,440030222011.0
93297,sg:3822b9be5dc94e1da8f46ea83b13d664,R B S,RI,2020-01-01T00:00:00-05:00,2020-02-01T00:00:00-05:00,2842,85,172.0,"{""<5"":3,""5-20"":15,""21-60"":7,""61-240"":29,"">240"":31}",12283.0,41.501872,-71.287583,541213.0,RI,44.0,44005.0,Newport County,440050404002.0
93467,sg:455d5133e463418d81e973ce0f41956f,Fearless Fish Market,RI,2020-01-01T00:00:00-05:00,2020-02-01T00:00:00-05:00,2903,7,5.0,"{""<5"":0,""5-20"":7,""21-60"":0,""61-240"":0,"">240"":0}",87.5,41.818838,-71.423889,445220.0,RI,44.0,44007.0,Providence County,440070011002.0
93682,sg:5bca9d707ba7452eab9acd6762eed9d0,Dog House,RI,2020-01-01T00:00:00-05:00,2020-02-01T00:00:00-05:00,2879,49,176.0,"{""<5"":1,""5-20"":14,""21-60"":4,""61-240"":9,"">240"":21}",6734.0,41.440374,-71.493921,453910.0,RI,44.0,44009.0,Washington County,440090512021.0
93773,sg:6442a838cf07477b9106f299e7811688,Living Hope Assembly of God,RI,2020-01-01T00:00:00-05:00,2020-02-01T00:00:00-05:00,2860,291,101.0,"{""<5"":2,""5-20"":64,""21-60"":49,""61-240"":119,"">240"":57}",34379.0,41.877449,-71.380619,813110.0,RI,44.0,44007.0,Providence County,440070160001.0
95155,sg:e8bcf9165cb54dd79dc5e8bbde29536c,Belanger Michael Dr,RI,2020-01-01T00:00:00-05:00,2020-02-01T00:00:00-05:00,2919,9,122.0,"{""<5"":0,""5-20"":1,""21-60"":1,""61-240"":3,"">240"":4}",1464.5,41.827502,-71.50142199999999,621111.0,RI,44.0,44007.0,Providence County,440070124014.0
95622,sg:137bd901887a43d4a057016c1457fb8b,The Reynolds Barn,RI,2020-01-01T00:00:00-05:00,2020-02-01T00:00:00-05:00,2852,73,59.0,"{""<5"":2,""5-20"":18,""21-60"":17,""61-240"":13,"">240"":23}",8395.0,41.542846000000004,-71.46782900000001,445230.0,RI,44.0,44009.0,Washington County,440090504023.0
95676,sg:193bdf702b5f4bc298698c376b03d394,Precious Angel's Child Center,RI,2020-01-01T00:00:00-05:00,2020-02-01T00:00:00-05:00,2888,131,210.0,"{""<5"":3,""5-20"":25,""21-60"":2,""61-240"":46,"">240"":55}",20524.0,41.75561,-71.43390500000001,624410.0,RI,44.0,44003.0,Kent County,440030211002.0
95837,sg:2a020985fdb943c3985a4da437d1d06b,Burger King,RI,2020-01-01T00:00:00-05:00,2020-02-01T00:00:00-05:00,2842,276,9.0,"{""<5"":22,""5-20"":185,""21-60"":45,""61-240"":8,"">240"":16}",9234.0,41.518562,-71.29945500000001,722513.0,RI,44.0,44005.0,Newport County,440050403042.0
96370,sg:57f3b01372fd445cb411daac299e0516,Westerly Urgent Care,RI,2020-01-01T00:00:00-05:00,2020-02-01T00:00:00-05:00,2891,106,44.0,"{""<5"":2,""5-20"":24,""21-60"":42,""61-240"":22,"">240"":16}",9157.0,41.362840999999996,-71.81464,621111.0,RI,44.0,44009.0,Washington County,440090508022.0
96513,sg:642208032daf487dbd2766594c735de7,East Providence Housing Authority,RI,2020-01-01T00:00:00-05:00,2020-02-01T00:00:00-05:00,2914,304,129.0,"{""<5"":5,""5-20"":56,""21-60"":49,""61-240"":80,"">240"":114}",42097.0,41.823202,-71.35983399999999,523930.0,RI,44.0,44007.0,Providence County,440070103001.0
96718,sg:75971cd0f75a44f5a7e71bafe09a049c,EXIT Realty Professionals,RI,2020-01-01T00:00:00-05:00,2020-02-01T00:00:00-05:00,2919,2,26.0,"{""<5"":0,""5-20"":1,""21-60"":1,""61-240"":0,"">240"":0}",53.0,41.809272,-71.49479000000001,531210.0,RI,44.0,44007.0,Providence County,440070122001.0
96820,sg:7e2165b54fa64fd6acd923d1b1586d6c,Rhyda Tire Sales,RI,2020-01-01T00:00:00-05:00,2020-02-01T00:00:00-05:00,2893,441,87.0,"{""<5"":4,""5-20"":86,""21-60"":100,""61-240"":126,"">240"":125}",54098.0,41.713781,-71.51137800000001,441310.0,RI,44.0,44003.0,Kent County,440030202001.0
96874,sg:82e5af66ef8344158e466e594dc165a9,Groomingdales,RI,2020-01-01T00:00:00-05:00,2020-02-01T00:00:00-05:00,2920,90,31.0,"{""<5"":5,""5-20"":25,""21-60"":36,""61-240"":20,"">240"":4}",5753.0,41.773951000000004,-71.45707800000001,453910.0,RI,44.0,44007.0,Providence County,440070143001.0
96948,sg:89a273c5037d45e8a9e282140780a23c,New London Square,RI,2020-01-01T00:00:00-05:00,2020-02-01T00:00:00-05:00,2893,772,23.0,"{""<5"":36,""5-20"":323,""21-60"":225,""61-240"":116,"">240"":72}",47978.0,41.683175,-71.526161,531120.0,RI,44.0,44003.0,Kent County,440030201022.0
96986,sg:8cf7a1ee77de4bdebb398e54e20f4938,Mccarthy Insurance,RI,2020-01-01T00:00:00-05:00,2020-02-01T00:00:00-05:00,2809,1,5.0,"{""<5"":0,""5-20"":1,""21-60"":0,""61-240"":0,"">240"":0}",12.5,41.67052,-71.27501,524210.0,RI,44.0,44001.0,Bristol County,440010307004.0
97033,sg:9090ac4f7cf64b4cbce1050a0ed30842,Ramon's Pizza,RI,2020-01-01T00:00:00-05:00,2020-02-01T00:00:00-05:00,2860,418,99.0,"{""<5"":2,""5-20"":107,""21-60"":69,""61-240"":101,"">240"":139}",52697.5,41.869453,-71.38883,722511.0,RI,44.0,44007.0,Providence County,440070164001.0
97110,sg:993b231e17e94fc782e1c7dd4a892859,The Original Italian Bakery,RI,2020-01-01T00:00:00-05:00,2020-02-01T00:00:00-05:00,2919,375,27.0,"{""<5"":19,""5-20"":142,""21-60"":117,""61-240"":76,"">240"":21}",23039.0,41.79643,-71.482988,722511.0,RI,44.0,44007.0,Providence County,440070125001.0
97413,sg:b784af78c5f1499ea48de7e189962fec,BFF Grooming Inc,RI,2020-01-01T00:00:00-05:00,2020-02-01T00:00:00-05:00,2818,520,33.0,"{""<5"":13,""5-20"":190,""21-60"":133,""61-240"":103,"">240"":81}",42735.5,41.660413,-71.449729,453910.0,RI,44.0,44003.0,Kent County,440030209011.0
97709,sg:d3327a97af8743a082cd36d64dcfc9be,Gallos Tires Shop,RI,2020-01-01T00:00:00-05:00,2020-02-01T00:00:00-05:00,2920,194,102.0,"{""<5"":3,""5-20"":25,""21-60"":51,""61-240"":50,"">240"":65}",25510.5,41.79079,-71.455658,441310.0,RI,44.0,44007.0,Providence County,440070147003.0
98030,sg:ef4d5376115c46098ef9953516eee1aa,Storage Pros,RI,2020-01-01T00:00:00-05:00,2020-02-01T00:00:00-05:00,2882,3,9.0,"{""<5"":0,""5-20"":3,""21-60"":0,""61-240"":0,"">240"":0}",37.5,41.42716,-71.478836,531130.0,RI,44.0,44009.0,Washington County,440090515033.0
98122,sg:f8521458da2d45f9a7a4670b1da3a995,Copacabana Colombian Restaurant,RI,2020-01-01T00:00:00-05:00,2020-02-01T00:00:00-05:00,2904,158,82.0,"{""<5"":6,""5-20"":43,""21-60"":23,""61-240"":33,"">240"":53}",19170.5,41.861565,-71.422832,722511.0,RI,44.0,44007.0,Providence County,440070118003.0
99117,sg:53f1d8f030f64009975d2b18aaf7c369,Urology Associates,RI,2020-01-01T00:00:00-05:00,2020-02-01T00:00:00-05:00,2840,50,55.5,"{""<5"":1,""5-20"":15,""21-60"":10,""61-240"":8,"">240"":16}",5639.0,41.496112,-71.304742,621111.0,RI,44.0,44005.0,Newport County,440050406002.0
99225,sg:5e0390207f4d4a2980af9a6640b7a24c,Childrens Learning Express,RI,2020-01-01T00:00:00-05:00,2020-02-01T00:00:00-05:00,2852,76,8.0,"{""<5"":3,""5-20"":59,""21-60"":11,""61-240"":2,"">240"":1}",1731.5,41.593378,-71.457076,624410.0,RI,44.0,44009.0,Washington County,440090501022.0
99511,sg:790af7e72c7747c985deee23bf03302c,Jeff Dantas indoor Golf Baseball Training,RI,2020-01-01T00:00:00-05:00,2020-02-01T00:00:00-05:00,2885,342,57.0,"{""<5"":3,""5-20"":67,""21-60"":113,""61-240"":127,"">240"":32}",32215.0,41.727028000000004,-71.269379,713940.0,RI,44.0,44001.0,Bristol County,440010306021.0
99608,sg:81aed499a1c14a2b82c6c4e90391e6a6,Busy Bee Florist,RI,2020-01-01T00:00:00-05:00,2020-02-01T00:00:00-05:00,2818,68,19.0,"{""<5"":5,""5-20"":34,""21-60"":21,""61-240"":4,"">240"":4}",2850.0,41.638018,-71.468216,453110.0,RI,44.0,44003.0,Kent County,440030224002.0
100207,sg:c0c269dbd6434160a929d29195ed8384,Empower the Change Nutrition,RI,2020-01-01T00:00:00-05:00,2020-02-01T00:00:00-05:00,2886,3,9.0,"{""<5"":0,""5-20"":2,""21-60"":0,""61-240"":0,"">240"":1}",265.0,41.73129,-71.43520600000001,722515.0,RI,44.0,44003.0,Kent County,440039800001.0
100483,sg:dd4206b892a94cd6807509c363760785,Gessman and Company,RI,2020-01-01T00:00:00-05:00,2020-02-01T00:00:00-05:00,2886,4,50.5,"{""<5"":0,""5-20"":0,""21-60"":4,""61-240"":0,"">240"":0}",162.0,41.690127000000004,-71.455853,541213.0,RI,44.0,44003.0,Kent County,440030220003.0
100528,sg:e282b20d7e7540fc8015aca6aa98b0b1,J & L Autobody & Automotive,RI,2020-01-01T00:00:00-05:00,2020-02-01T00:00:00-05:00,2893,3,47.0,"{""<5"":0,""5-20"":1,""21-60"":2,""61-240"":0,"">240"":0}",93.5,41.696656,-71.520308,811111.0,RI,44.0,44003.0,Kent County,440030202002.0
100706,sg:f40677c7df0f42cb8cb5e648510e0ea2,Medical Diagnostics,RI,2020-01-01T00:00:00-05:00,2020-02-01T00:00:00-05:00,2886,382,42.0,"{""<5"":8,""5-20"":81,""21-60"":157,""61-240"":63,"">240"":73}",34392.5,41.698443,-71.478466,621111.0,RI,44.0,44003.0,Kent County,440030222021.0
101125,sg:17f3cd1941cb462e95500df32a8a3a28,Tony Bizz Productionz,RI,2020-01-01T00:00:00-05:00,2020-02-01T00:00:00-05:00,2909,155,153.0,"{""<5"":3,""5-20"":16,""21-60"":20,""61-240"":57,"">240"":59}",23756.0,41.815661999999996,-71.44230999999999,451140.0,RI,44.0,44007.0,Providence County,440070016002.0
101154,sg:1a9efa98ecf24e0494ad9f15c1427b6f,Crestview Dental Associates,RI,2020-01-01T00:00:00-05:00,2020-02-01T00:00:00-05:00,2891,138,169.5,"{""<5"":1,""5-20"":11,""21-60"":46,""61-240"":29,"">240"":51}",18607.5,41.363867,-71.82,621210.0,RI,44.0,44009.0,Washington County,440090508021.0
101358,sg:2d5342525e254296b8f0c96f7c0fb89d,Matilda RI,RI,2020-01-01T00:00:00-05:00,2020-02-01T00:00:00-05:00,2919,281,63.0,"{""<5"":7,""5-20"":59,""21-60"":69,""61-240"":93,"">240"":53}",30266.0,41.839473999999996,-71.484222,722511.0,RI,44.0,44007.0,Providence County,440070123002.0
101983,sg:68997417ce924e72ad5821c672336c20,Unit Tool,RI,2020-01-01T00:00:00-05:00,2020-02-01T00:00:00-05:00,2888,146,117.5,"{""<5"":2,""5-20"":25,""21-60"":34,""61-240"":47,"">240"":38}",17888.0,41.765043,-71.397487,448310.0,RI,44.0,44003.0,Kent County,440030210022.0
102010,sg:6b0b5cff7dd74aa9a7a62b85aa008c87,Autoworks,RI,2020-01-01T00:00:00-05:00,2020-02-01T00:00:00-05:00,2891,3,16.0,"{""<5"":0,""5-20"":2,""21-60"":1,""61-240"":0,"">240"":0}",65.5,41.373206,-71.81373,811111.0,RI,44.0,44009.0,Washington County,440090509012.0
102478,sg:97f564cb1d4947b1aa09b673f529fb70,A New You,RI,2020-01-01T00:00:00-05:00,2020-02-01T00:00:00-05:00,2816,6,36.5,"{""<5"":0,""5-20"":0,""21-60"":5,""61-240"":1,"">240"":0}",353.0,41.684515999999995,-71.561224,812112.0,RI,44.0,44003.0,Kent County,440030206022.0
102747,sg:b3bc827d77ee4b82900b9549c19130b9,Arctic Vape & Smoke Shop,RI,2020-01-01T00:00:00-05:00,2020-02-01T00:00:00-05:00,2893,2,11.0,"{""<5"":0,""5-20"":2,""21-60"":0,""61-240"":0,"">240"":0}",25.0,41.703981,-71.524851,444120.0,RI,44.0,44003.0,Kent County,440030203004.0
104544,sg:614b6f15ca2f43098ca9e91f8336b528,Kearsarge SKSC2 LLC,RI,2020-01-01T00:00:00-05:00,2020-02-01T00:00:00-05:00,2892,122,20.5,"{""<5"":7,""5-20"":54,""21-60"":19,""61-240"":20,"">240"":22}",9752.0,41.491079,-71.536506,221112.0,RI,44.0,44009.0,Washington County,440090514001.0
104993,sg:8c4dea1c983d4896b9c82cf1fde80418,Taco Bell,RI,2020-01-01T00:00:00-05:00,2020-02-01T00:00:00-05:00,2861,166,32.0,"{""<5"":4,""5-20"":67,""21-60"":25,""61-240"":14,"">240"":56}",17407.0,41.860232,-71.352757,722513.0,,,,,
105504,sg:c0098e8a563c464dacf3717ebc62a9b1,Jiffy Lube,RI,2020-01-01T00:00:00-05:00,2020-02-01T00:00:00-05:00,2904,1,66.0,"{""<5"":0,""5-20"":0,""21-60"":0,""61-240"":1,"">240"":0}",150.5,41.867985,-71.436476,811191.0,RI,44.0,44007.0,Providence County,440070118005.0
105519,sg:c16a69bdab344e64857121dbc2d14dab,C & L Agency Inc,RI,2020-01-01T00:00:00-05:00,2020-02-01T00:00:00-05:00,2907,14,65.0,"{""<5"":0,""5-20"":3,""21-60"":4,""61-240"":4,"">240"":3}",1521.5,41.790226000000004,-71.428702,524210.0,RI,44.0,44007.0,Providence County,440070015002.0
105537,sg:c2f5f1958a0a43d395ae293cbeb39465,Once Upon A Time Academy Llc,RI,2020-01-01T00:00:00-05:00,2020-02-01T00:00:00-05:00,2911,87,35.0,"{""<5"":3,""5-20"":26,""21-60"":22,""61-240"":25,"">240"":11}",7626.0,41.859173999999996,-71.47565,624410.0,RI,44.0,44007.0,Providence County,440070121041.0
105886,sg:e4ae585fd17f4b4c9dc1668377d8d290,Koi Japanese Cuisine,RI,2020-01-01T00:00:00-05:00,2020-02-01T00:00:00-05:00,2891,165,114.0,"{""<5"":0,""5-20"":12,""21-60"":38,""61-240"":72,"">240"":43}",22845.0,41.379239,-71.82972600000001,722511.0,RI,44.0,44009.0,Washington County,440090508014.0
106052,sg:f56b990f4c0e4ab6a201e8de7e1077db,Seven Stars Bakery,RI,2020-01-01T00:00:00-05:00,2020-02-01T00:00:00-05:00,2906,255,21.0,"{""<5"":10,""5-20"":109,""21-60"":83,""61-240"":49,"">240"":4}",13083.5,41.849638,-71.395093,722515.0,RI,44.0,44007.0,Providence County,440070033002.0
106184,sg:0112e6a78ea44ac89d9cda2974201b20,CBD Center Of R I,RI,2020-01-01T00:00:00-05:00,2020-02-01T00:00:00-05:00,2919,150,29.0,"{""<5"":4,""5-20"":55,""21-60"":58,""61-240"":28,"">240"":5}",8460.5,41.823501,-71.49125500000001,722515.0,RI,44.0,44007.0,Providence County,440070124014.0
106406,sg:1546c7c776974e4baef38e98b058947b,Koch Eye Associates,RI,2020-01-01T00:00:00-05:00,2020-02-01T00:00:00-05:00,2879,65,30.0,"{""<5"":1,""5-20"":25,""21-60"":25,""61-240"":13,"">240"":1}",3524.0,41.449083,-71.47375100000001,621111.0,RI,44.0,44009.0,Washington County,440090512024.0
106417,sg:1636db0e8ef540a0a2488a35b41c4259,David's Greenwood Barber Shop,RI,2020-01-01T00:00:00-05:00,2020-02-01T00:00:00-05:00,2886,13,62.0,"{""<5"":0,""5-20"":3,""21-60"":3,""61-240"":5,"">240"":2}",1391.5,41.706456,-71.452597,812112.0,RI,44.0,44003.0,Kent County,440030221004.0
107595,sg:81e9f4f44cd04cff88faaffc350c0c0e,Sip N Dip,RI,2020-01-01T00:00:00-05:00,2020-02-01T00:00:00-05:00,2885,244,7.0,"{""<5"":22,""5-20"":145,""21-60"":24,""61-240"":23,"">240"":30}",13501.0,41.739529,-71.273658,722515.0,RI,44.0,44001.0,Bristol County,440010306011.0
108569,sg:e78f778c06a04f5bae84b830d18698b5,Mount Pleasant Academy,RI,2020-01-01T00:00:00-05:00,2020-02-01T00:00:00-05:00,2908,243,36.0,"{""<5"":15,""5-20"":78,""21-60"":57,""61-240"":36,"">240"":57}",22419.0,41.831884,-71.450353,611110.0,RI,44.0,44007.0,Providence County,440070021021.0
108582,sg:e979aa775a344decbccdf3f598ee149f,BankFive,RI,2020-01-01T00:00:00-05:00,2020-02-01T00:00:00-05:00,2809,12,9.0,"{""<5"":0,""5-20"":11,""21-60"":0,""61-240"":1,"">240"":0}",288.0,41.694857,-71.263292,522110.0,RI,44.0,44001.0,Bristol County,440010309012.0
109285,sg:288a8d6e4fac4c8ab91ec837e23ed32c,Sprint,RI,2020-01-01T00:00:00-05:00,2020-02-01T00:00:00-05:00,2920,93,102.0,"{""<5"":1,""5-20"":14,""21-60"":20,""61-240"":30,"">240"":28}",12222.5,41.752077,-71.451991,517312.0,RI,44.0,44007.0,Providence County,440070142002.0
109414,sg:33b49f1d861f4a52b219981e8577edf2,Blue Plate Diner,RI,2020-01-01T00:00:00-05:00,2020-02-01T00:00:00-05:00,2842,251,42.0,"{""<5"":3,""5-20"":38,""21-60"":151,""61-240"":46,"">240"":13}",16641.0,41.520773999999996,-71.29889200000001,722511.0,RI,44.0,44005.0,Newport County,440050403042.0
109575,sg:42fb78165217486587f29e0c7793ec3e,Freeway Car Wash on Dexter St,RI,2020-01-01T00:00:00-05:00,2020-02-01T00:00:00-05:00,2860,5,92.0,"{""<5"":0,""5-20"":0,""21-60"":0,""61-240"":4,"">240"":1}",842.0,41.882065000000004,-71.392201,811192.0,RI,44.0,44007.0,Providence County,440070151001.0
109929,sg:62bd551c63a34bacb5523a0471911116,Black Point Fishing Area,RI,2020-01-01T00:00:00-05:00,2020-02-01T00:00:00-05:00,2882,78,201.0,"{""<5"":1,""5-20"":15,""21-60"":8,""61-240"":18,"">240"":36}",11863.0,41.399939,-71.464688,441222.0,RI,44.0,44009.0,Washington County,440090515033.0
110128,sg:74c604e3da58475fb0bdcaf4e99c04bf,Snake Den State Park,RI,2020-01-01T00:00:00-05:00,2020-02-01T00:00:00-05:00,2919,59,60.0,"{""<5"":0,""5-20"":18,""21-60"":13,""61-240"":7,"">240"":21}",6845.0,41.830321000000005,-71.537277,712190.0,RI,44.0,44007.0,Providence County,440070122004.0
111259,sg:e3ee2b8eb5764401b015f544d72cf5cd,The Tackle Box,RI,2020-01-01T00:00:00-05:00,2020-02-01T00:00:00-05:00,2889,239,45.0,"{""<5"":9,""5-20"":72,""21-60"":55,""61-240"":54,"">240"":49}",23037.0,41.728357,-71.392442,451110.0,RI,44.0,44003.0,Kent County,440030214022.0
112055,sg:32d0750391464d74ba61af7e32557ec7,Primary Laser Skincare,RI,2020-01-01T00:00:00-05:00,2020-02-01T00:00:00-05:00,2914,3,29.0,"{""<5"":0,""5-20"":0,""21-60"":3,""61-240"":0,"">240"":0}",121.5,41.81075,-71.35595699999999,812199.0,RI,44.0,44007.0,Providence County,440070105011.0
112340,sg:4e2e3d88d12d4d87a43a538c59c460b2,Chum's Spirits,RI,2020-01-01T00:00:00-05:00,2020-02-01T00:00:00-05:00,2830,35,12.0,"{""<5"":2,""5-20"":20,""21-60"":6,""61-240"":4,"">240"":3}",1820.0,41.967374,-71.69067,445310.0,RI,44.0,44007.0,Providence County,440070129001.0
112575,sg:646b6929b9c84b818670c9d00ad5cb09,Iannucci Karen Rnp,RI,2020-01-01T00:00:00-05:00,2020-02-01T00:00:00-05:00,2860,10,21.5,"{""<5"":0,""5-20"":4,""21-60"":3,""61-240"":0,"">240"":3}",891.5,41.867222999999996,-71.377624,621111.0,RI,44.0,44007.0,Providence County,440070167002.0
113532,sg:c378f53c73004e308266e3b082c165c9,Providence Public Library,RI,2020-01-01T00:00:00-05:00,2020-02-01T00:00:00-05:00,2903,68,107.0,"{""<5"":1,""5-20"":12,""21-60"":16,""61-240"":26,"">240"":13}",7833.5,41.821701000000004,-71.41712,519120.0,RI,44.0,44007.0,Providence County,440070008001.0
113550,sg:c5417d7e48f24edd8f529969395f06a4,Stop &amp Shop,RI,2020-01-01T00:00:00-05:00,2020-02-01T00:00:00-05:00,2886,463,14.0,"{""<5"":17,""5-20"":301,""21-60"":121,""61-240"":20,"">240"":4}",12675.5,41.718942,-71.46607,445110.0,,,,,
113635,sg:cf2bd8cc14fa4343ab20925c81574d27,Dunkin',RI,2020-01-01T00:00:00-05:00,2020-02-01T00:00:00-05:00,2903,308,59.5,"{""<5"":10,""5-20"":85,""21-60"":60,""61-240"":86,"">240"":67}",32540.5,41.823661,-71.41421,722515.0,RI,44.0,44007.0,Providence County,440070008001.0
114100,sg:fd89f3de6df643c195b9ab83d8565be7,Critter Hut Aquarium & Pets,RI,2020-01-01T00:00:00-05:00,2020-02-01T00:00:00-05:00,2879,61,17.0,"{""<5"":0,""5-20"":35,""21-60"":17,""61-240"":7,"">240"":2}",2659.5,41.444133,-71.482527,453910.0,RI,44.0,44009.0,Washington County,440090512024.0
115354,sg:6dc587d035934841b74c97609c6698c1,China Dynasty Restaurant,RI,2020-01-01T00:00:00-05:00,2020-02-01T00:00:00-05:00,2920,469,49.0,"{""<5"":7,""5-20"":97,""21-60"":157,""61-240"":109,"">240"":99}",47753.0,41.786693,-71.472996,722511.0,RI,44.0,44007.0,Providence County,440070148003.0
