,safegraph_place_id,location_name,region,date_range_start,date_range_end,postal_code,raw_visit_counts,median_dwell,bucketed_dwell_times,est_total_dwell,latitude,longitude,naics_code,state,stateFIPS,countyFIPS,countyName,CBGFIPS
7,sg:0084bc6a8cca4274b5a47510fc55f38c,Columbus Park,CT,2020-02-01T00:00:00-05:00,2020-03-01T00:00:00-05:00,10573,636,40.0,"{""<5"":13,""5-20"":185,""21-60"":191,""61-240"":134,"">240"":113}",57367.5,40.995158,-73.66148000000001,712190.0,NY,36.0,36119.0,Westchester County,361190078001.0
15,sg:01588e3a05b14cfebe51241cf8e7c8df,The Blue House Nice Old Things,CT,2020-02-01T00:00:00-05:00,2020-03-01T00:00:00-05:00,6019,4,6.0,"{""<5"":1,""5-20"":2,""21-60"":0,""61-240"":1,"">240"":0}",178.0,41.824403000000004,-72.892844,453310.0,CT,9.0,9003.0,Hartford County,90034641013.0
148,sg:0d84f394be62496f90d1106247c8367d,Wells Hollow Creamery,CT,2020-02-01T00:00:00-05:00,2020-03-01T00:00:00-05:00,6484,15,9.0,"{""<5"":2,""5-20"":10,""21-60"":3,""61-240"":0,"">240"":0}",251.5,41.278356,-73.119315,722515.0,CT,9.0,9001.0,Fairfield County,90011102023.0
184,sg:1199f96a28864467874fe157e686b508,Melnick Mark H DMD,CT,2020-02-01T00:00:00-05:00,2020-03-01T00:00:00-05:00,6119,1,596.0,"{""<5"":0,""5-20"":0,""21-60"":0,""61-240"":0,"">240"":1}",240.0,41.765055,-72.73155,621210.0,CT,9.0,9003.0,Hartford County,90034971003.0
195,sg:129901d9e8c64fecb803ea740805b87c,Johnny's Auto Parts,CT,2020-02-01T00:00:00-05:00,2020-03-01T00:00:00-05:00,6787,23,91.0,"{""<5"":0,""5-20"":4,""21-60"":5,""61-240"":7,"">240"":7}",2986.0,41.702692,-73.076941,441310.0,CT,9.0,9005.0,Litchfield County,90053492003.0
203,sg:1360b10919c049ed81dfb072f75092b0,Edible Arrangements,CT,2020-02-01T00:00:00-05:00,2020-03-01T00:00:00-05:00,6443,153,22.0,"{""<5"":6,""5-20"":57,""21-60"":58,""61-240"":24,"">240"":8}",8608.5,41.275043,-72.550604,453220.0,CT,9.0,9009.0,New Haven County,90091941001.0
220,sg:151e7513ae8442aeaa4561b5ef8a9ccd,Velocity Dance Works,CT,2020-02-01T00:00:00-05:00,2020-03-01T00:00:00-05:00,6716,183,55.0,"{""<5"":1,""5-20"":47,""21-60"":47,""61-240"":74,"">240"":14}",16990.5,41.617865,-72.976574,713940.0,CT,9.0,9009.0,New Haven County,90093613003.0
371,sg:21befce5e4dd40f8a08efcda67f7f952,Trumbull Animal Hospital,CT,2020-02-01T00:00:00-05:00,2020-03-01T00:00:00-05:00,6611,3,14.0,"{""<5"":0,""5-20"":2,""21-60"":0,""61-240"":0,"">240"":1}",265.0,41.278211999999996,-73.22865,541940.0,CT,9.0,9001.0,Fairfield County,90010902004.0
569,sg:3495d36414e94446bb5fb7cfbb15786b,Sherwin-Williams,CT,2020-02-01T00:00:00-05:00,2020-03-01T00:00:00-05:00,6514,1,26.0,"{""<5"":0,""5-20"":0,""21-60"":1,""61-240"":0,"">240"":0}",40.5,41.370768,-72.919965,444120.0,CT,9.0,9009.0,New Haven County,90091658012.0
577,sg:35550304e6204449994ee33e88a7d9ee,Bobby Sprocket,CT,2020-02-01T00:00:00-05:00,2020-03-01T00:00:00-05:00,6467,15,10.0,"{""<5"":2,""5-20"":9,""21-60"":1,""61-240"":3,"">240"":0}",609.5,41.564679999999996,-72.897357,451110.0,CT,9.0,9003.0,Hartford County,90034304002.0
579,sg:356c7eff7db943a6a616e14ec51b7fe8,St Therese's Church,CT,2020-02-01T00:00:00-05:00,2020-03-01T00:00:00-05:00,6405,147,37.0,"{""<5"":3,""5-20"":47,""21-60"":59,""61-240"":38,"">240"":0}",8703.5,41.291814,-72.761732,813110.0,CT,9.0,9009.0,New Haven County,90091846001.0
601,sg:374e619bed03463c9cd9ce08370cb24c,Ella T Grasso Southeastern Technical High School,CT,2020-02-01T00:00:00-05:00,2020-03-01T00:00:00-05:00,6340,209,30.0,"{""<5"":0,""5-20"":84,""21-60"":70,""61-240"":52,"">240"":3}",12431.0,41.341619,-72.016587,611110.0,CT,9.0,9011.0,New London County,90117028002.0
667,sg:3cda65f4fca84dbe94cd2d8f320ed36a,Valvoline,CT,2020-02-01T00:00:00-05:00,2020-03-01T00:00:00-05:00,6515,7,33.0,"{""<5"":0,""5-20"":2,""21-60"":4,""61-240"":1,"">240"":0}",337.5,41.335251,-72.977914,811198.0,CT,9.0,9009.0,New Haven County,90091412004.0
799,sg:4933961f5cd54203b80795e8e2910ab1,Olderman & Hallihan Agency,CT,2020-02-01T00:00:00-05:00,2020-03-01T00:00:00-05:00,6401,35,40.0,"{""<5"":0,""5-20"":11,""21-60"":17,""61-240"":7,"">240"":0}",1879.5,41.340343,-73.078181,524210.0,CT,9.0,9009.0,New Haven County,90091252002.0
1000,sg:598b8b1770d349d7a1e000d085b01817,Midnight Auto,CT,2020-02-01T00:00:00-05:00,2020-03-01T00:00:00-05:00,6615,65,60.0,"{""<5"":2,""5-20"":17,""21-60"":14,""61-240"":13,"">240"":19}",7301.0,41.187674,-73.15462600000001,811121.0,CT,9.0,9001.0,Fairfield County,90010802003.0
1179,sg:69aabd99cc014cac87bac11b4fddac25,Foundation Rx,CT,2020-02-01T00:00:00-05:00,2020-03-01T00:00:00-05:00,6450,78,21.5,"{""<5"":0,""5-20"":36,""21-60"":27,""61-240"":13,"">240"":2}",3980.0,41.510394,-72.80650899999999,446191.0,CT,9.0,9009.0,New Haven County,90091711003.0
1268,sg:716f16262e6d4abb9336e884d7c96bba,Rowayton Seafood Fish Market,CT,2020-02-01T00:00:00-05:00,2020-03-01T00:00:00-05:00,6853,213,66.0,"{""<5"":1,""5-20"":35,""21-60"":59,""61-240"":74,"">240"":44}",24526.5,41.064007000000004,-73.444333,445220.0,CT,9.0,9001.0,Fairfield County,90010446001.0
1309,sg:76cdb082d0734c369df21f17c13f7135,Subway,CT,2020-02-01T00:00:00-05:00,2020-03-01T00:00:00-05:00,6385,131,14.0,"{""<5"":4,""5-20"":69,""21-60"":33,""61-240"":17,"">240"":8}",6687.5,41.341291999999996,-72.123453,722513.0,CT,9.0,9011.0,New London County,90116934003.0
1419,sg:826e998648b04dc59862a0883ce42ef2,Memorial Field,CT,2020-02-01T00:00:00-05:00,2020-03-01T00:00:00-05:00,6512,185,44.0,"{""<5"":8,""5-20"":52,""21-60"":43,""61-240"":52,"">240"":30}",17437.5,41.269040999999994,-72.877776,713940.0,CT,9.0,9009.0,New Haven County,90091802003.0
1468,sg:8668511ef468412291b2bdd5478a734c,Truby 99,CT,2020-02-01T00:00:00-05:00,2020-03-01T00:00:00-05:00,6790,478,44.0,"{""<5"":8,""5-20"":111,""21-60"":180,""61-240"":164,"">240"":15}",36979.5,41.799872,-73.120676,721110.0,CT,9.0,9005.0,Litchfield County,90053103002.0
1516,sg:8ae11180a8dc41bcb2612eda089d50b4,Food Togo With Shercan Deliver,CT,2020-02-01T00:00:00-05:00,2020-03-01T00:00:00-05:00,6705,26,23.5,"{""<5"":0,""5-20"":12,""21-60"":8,""61-240"":2,"">240"":4}",1735.0,41.547103,-72.985675,445110.0,CT,9.0,9009.0,New Haven County,90093527021.0
1561,sg:8fe3d8a5f8994d69abd277a752c758a6,Zumba Fit Pame,CT,2020-02-01T00:00:00-05:00,2020-03-01T00:00:00-05:00,6902,121,50.0,"{""<5"":1,""5-20"":34,""21-60"":30,""61-240"":36,"">240"":20}",11860.5,41.048019000000004,-73.557849,713940.0,CT,9.0,9001.0,Fairfield County,90010214003.0
1562,sg:9017255c0fd04eee9f96dc1742b85651,Pretty Nails Salon,CT,2020-02-01T00:00:00-05:00,2020-03-01T00:00:00-05:00,6095,54,50.0,"{""<5"":0,""5-20"":15,""21-60"":17,""61-240"":22,"">240"":0}",4187.0,41.819961,-72.657465,812113.0,CT,9.0,9003.0,Hartford County,90034737005.0
1674,sg:9c072310d6924b83a64c2c666d8bd0b1,Huntington Walk In Medical Center,CT,2020-02-01T00:00:00-05:00,2020-03-01T00:00:00-05:00,6484,17,36.0,"{""<5"":0,""5-20"":3,""21-60"":10,""61-240"":3,"">240"":1}",1134.0,41.263851,-73.135627,621111.0,CT,9.0,9001.0,Fairfield County,90011103022.0
1816,sg:aa97b7355f5b4e3b8b0acb7835a81d7c,Raf Electronic Hardware,CT,2020-02-01T00:00:00-05:00,2020-03-01T00:00:00-05:00,6483,219,196.0,"{""<5"":1,""5-20"":42,""21-60"":26,""61-240"":47,"">240"":103}",33374.0,41.387693,-73.053285,444130.0,CT,9.0,9009.0,New Haven County,90091301012.0
1870,sg:b03763c2f5dd46669e43d5f5b3007acb,CrossFit,CT,2020-02-01T00:00:00-05:00,2020-03-01T00:00:00-05:00,6513,49,36.0,"{""<5"":0,""5-20"":14,""21-60"":27,""61-240"":5,"">240"":3}",2741.0,41.31548,-72.905124,713940.0,CT,9.0,9009.0,New Haven County,90091421001.0
1889,sg:b1afa15702e5475bb80343ed0af86d7a,Element 315,CT,2020-02-01T00:00:00-05:00,2020-03-01T00:00:00-05:00,6103,1019,75.0,"{""<5"":35,""5-20"":292,""21-60"":150,""61-240"":191,"">240"":351}",122798.0,41.769179,-72.675653,722511.0,CT,9.0,9003.0,Hartford County,90035021002.0
1958,sg:b7b5094371f044cfb3c9794a5d7c1891,Elite Marble and Granite,CT,2020-02-01T00:00:00-05:00,2020-03-01T00:00:00-05:00,6615,77,91.0,"{""<5"":0,""5-20"":16,""21-60"":12,""61-240"":35,"">240"":14}",9313.5,41.18758,-73.13864699999999,442299.0,CT,9.0,9001.0,Fairfield County,90010802001.0
2033,sg:bf17085f536343c0ab9c33938e0bcaff,Sfizio Italian Kitchen,CT,2020-02-01T00:00:00-05:00,2020-03-01T00:00:00-05:00,6109,208,9.0,"{""<5"":23,""5-20"":119,""21-60"":30,""61-240"":22,"">240"":14}",9431.0,41.722654999999996,-72.672686,722511.0,CT,9.0,9003.0,Hartford County,90034923005.0
2483,sg:ee86c9885c1d4532bd008341b4de2051,B&T Trading,CT,2020-02-01T00:00:00-05:00,2020-03-01T00:00:00-05:00,6040,64,12.0,"{""<5"":4,""5-20"":37,""21-60"":8,""61-240"":10,"">240"":5}",3501.5,41.773011,-72.540252,453310.0,CT,9.0,9003.0,Hartford County,90035146003.0
2657,sg:00e31a1a7e5f4d438313628ebbe7b32c,Bloom Todd E Ms DDS,CT,2020-02-01T00:00:00-05:00,2020-03-01T00:00:00-05:00,6824,1,66.0,"{""<5"":0,""5-20"":0,""21-60"":0,""61-240"":1,"">240"":0}",150.5,41.142272999999996,-73.254947,621210.0,CT,9.0,9001.0,Fairfield County,90010615003.0
2732,sg:071b738d07a04763b34a1861fbf2e7a3,Mobil,CT,2020-02-01T00:00:00-05:00,2020-03-01T00:00:00-05:00,6374,155,9.0,"{""<5"":10,""5-20"":88,""21-60"":19,""61-240"":34,"">240"":4}",7971.5,41.685175,-71.914038,447110.0,CT,9.0,9015.0,Windham County,90159073001.0
2824,sg:0f34c9c3669a4cef86e4124a9f216a6a,Candlewood Aesthetics and Laser Center,CT,2020-02-01T00:00:00-05:00,2020-03-01T00:00:00-05:00,6810,5,19.0,"{""<5"":1,""5-20"":2,""21-60"":1,""61-240"":1,"">240"":0}",218.5,41.413548999999996,-73.406917,812199.0,CT,9.0,9001.0,Fairfield County,90012104001.0
3058,sg:2388cd4a0adb4acb996bdc72e4e25db7,The Flying Fur,CT,2020-02-01T00:00:00-05:00,2020-03-01T00:00:00-05:00,6096,323,16.0,"{""<5"":24,""5-20"":157,""21-60"":69,""61-240"":35,"">240"":38}",19204.5,41.929854,-72.669302,453910.0,CT,9.0,9003.0,Hartford County,90034762001.0
3073,sg:247b345f65dd49af9b38429c613d0d48,Lake Garda Elementary School,CT,2020-02-01T00:00:00-05:00,2020-03-01T00:00:00-05:00,6013,173,36.0,"{""<5"":9,""5-20"":60,""21-60"":42,""61-240"":32,"">240"":30}",14489.5,41.740854999999996,-72.908912,611110.0,CT,9.0,9003.0,Hartford County,90034101013.0
3196,sg:30422873a28e4e5aa562ae459c95177f,Franko's Pizza & Restaurant,CT,2020-02-01T00:00:00-05:00,2020-03-01T00:00:00-05:00,6332,114,28.0,"{""<5"":2,""5-20"":51,""21-60"":15,""61-240"":42,"">240"":4}",8531.0,41.718087,-71.902505,722511.0,CT,9.0,9015.0,Windham County,90159071002.0
3530,sg:50a2e666e38848eebaee3d1c9f85f2a3,DaVita,CT,2020-02-01T00:00:00-05:00,2020-03-01T00:00:00-05:00,6082,59,27.0,"{""<5"":1,""5-20"":25,""21-60"":11,""61-240"":9,"">240"":13}",5235.0,41.991494,-72.57011899999999,621492.0,CT,9.0,9003.0,Hartford County,90034808002.0
3733,sg:64a4c0c33a5243bdb80c942fe632b710,7-Eleven,CT,2020-02-01T00:00:00-05:00,2020-03-01T00:00:00-05:00,6460,114,6.0,"{""<5"":17,""5-20"":87,""21-60"":7,""61-240"":3,"">240"":0}",1865.0,41.229044,-73.066435,445120.0,CT,9.0,9009.0,New Haven County,90091501001.0
3748,sg:66785e81741a41b891c1062a21b699f2,Canton Dental Center,CT,2020-02-01T00:00:00-05:00,2020-03-01T00:00:00-05:00,6019,2,11.0,"{""<5"":0,""5-20"":2,""21-60"":0,""61-240"":0,"">240"":0}",25.0,41.824404,-72.906812,621210.0,CT,9.0,9003.0,Hartford County,90034641022.0
3794,sg:6b00424d309943c8aba0ee2ec5cbb549,Advance Auto Parts,CT,2020-02-01T00:00:00-05:00,2020-03-01T00:00:00-05:00,6256,755,6.0,"{""<5"":56,""5-20"":649,""21-60"":33,""61-240"":8,"">240"":9}",12953.0,41.737683000000004,-72.179955,441310.0,CT,9.0,9015.0,Windham County,90158005001.0
3820,sg:6cf9db6bdc1843eeb9e760a47ba087ef,Essential Retreat Day Spa,CT,2020-02-01T00:00:00-05:00,2020-03-01T00:00:00-05:00,6851,9,92.0,"{""<5"":0,""5-20"":2,""21-60"":1,""61-240"":5,"">240"":1}",1058.0,41.141952,-73.383135,812199.0,CT,9.0,9001.0,Fairfield County,90010426001.0
4078,sg:83e73b7eb58648b89f99fd870405fdc7,Bond Street Park,CT,2020-02-01T00:00:00-05:00,2020-03-01T00:00:00-05:00,6114,348,38.5,"{""<5"":6,""5-20"":127,""21-60"":68,""61-240"":66,"">240"":81}",33729.5,41.744492,-72.677582,712190.0,CT,9.0,9003.0,Hartford County,90035001001.0
4209,sg:90c3e95a906f40a9a4b5ac14ba186fc4,Dennis L Pipher DMD,CT,2020-02-01T00:00:00-05:00,2020-03-01T00:00:00-05:00,6851,90,115.0,"{""<5"":1,""5-20"":11,""21-60"":19,""61-240"":26,"">240"":33}",12742.5,41.11408,-73.408048,621210.0,CT,9.0,9001.0,Fairfield County,90010436001.0
4313,sg:9b013c9ec9cf41d0967da9d78f23f06c,Wells Fargo,CT,2020-02-01T00:00:00-05:00,2020-03-01T00:00:00-05:00,6905,3,8.0,"{""<5"":0,""5-20"":3,""21-60"":0,""61-240"":0,"">240"":0}",37.5,41.110676,-73.545501,522110.0,CT,9.0,9001.0,Fairfield County,90010207003.0
4319,sg:9b5d7b9c120847d681246681a2e361d9,Dunkin',CT,2020-02-01T00:00:00-05:00,2020-03-01T00:00:00-05:00,6825,122,9.0,"{""<5"":5,""5-20"":92,""21-60"":6,""61-240"":15,"">240"":4}",4623.0,41.219007,-73.256513,722515.0,CT,9.0,9001.0,Fairfield County,90010602001.0
4416,sg:a56e6eb24ef7423d9e30465d7f2715e5,Amazing Clubs,CT,2020-02-01T00:00:00-05:00,2020-03-01T00:00:00-05:00,6901,756,126.0,"{""<5"":13,""5-20"":162,""21-60"":104,""61-240"":214,"">240"":263}",101596.5,41.051211,-73.539146,453220.0,CT,9.0,9001.0,Fairfield County,90010201002.0
4555,sg:b1d0d5917a4d483382a52a34fee40bc6,Tedd L Weisman,CT,2020-02-01T00:00:00-05:00,2020-03-01T00:00:00-05:00,6460,7,531.0,"{""<5"":0,""5-20"":0,""21-60"":0,""61-240"":1,"">240"":6}",1590.5,41.21812,-73.063575,621111.0,CT,9.0,9009.0,New Haven County,90091501002.0
4623,sg:b89e900223524b6f80e036e08317cfe3,Bartlett Tree Experts,CT,2020-02-01T00:00:00-05:00,2020-03-01T00:00:00-05:00,6070,13,23.0,"{""<5"":0,""5-20"":6,""21-60"":5,""61-240"":2,"">240"":0}",578.5,41.899797,-72.78569,561730.0,CT,9.0,9003.0,Hartford County,90034662012.0
4624,sg:b8a1535e3b5f426ca1c8c58dd86c3184,Creative Clips Pet Salon,CT,2020-02-01T00:00:00-05:00,2020-03-01T00:00:00-05:00,6078,86,49.0,"{""<5"":2,""5-20"":27,""21-60"":18,""61-240"":27,"">240"":12}",8015.0,41.983493,-72.65450600000001,453910.0,CT,9.0,9003.0,Hartford County,90034771011.0
4696,sg:bf9b2ca746d34404b299761ef5b04c0b,Vivaldi's Pizza,CT,2020-02-01T00:00:00-05:00,2020-03-01T00:00:00-05:00,6111,2,8.0,"{""<5"":0,""5-20"":2,""21-60"":0,""61-240"":0,"">240"":0}",25.0,41.710011,-72.737036,722511.0,CT,9.0,9003.0,Hartford County,90034946002.0
4971,sg:dc84479044b8455c98d8fb5bc9e23065,The Back Nine Tavern,CT,2020-02-01T00:00:00-05:00,2020-03-01T00:00:00-05:00,6053,200,65.5,"{""<5"":3,""5-20"":26,""21-60"":65,""61-240"":90,"">240"":16}",20350.0,41.705569,-72.766798,722511.0,CT,9.0,9003.0,Hartford County,90034174002.0
5123,sg:eb3a5be9b85a41faa1c4cdbbcac822d0,Chrisel's Affordable Care,CT,2020-02-01T00:00:00-05:00,2020-03-01T00:00:00-05:00,6078,6,5.5,"{""<5"":1,""5-20"":4,""21-60"":0,""61-240"":0,"">240"":1}",292.5,41.982051,-72.652027,621610.0,CT,9.0,9003.0,Hartford County,90034771011.0
5187,sg:f1fbd0c41ec3455cbd310fb3cbdaa216,Stony Lane,CT,2020-02-01T00:00:00-05:00,2020-03-01T00:00:00-05:00,6468,10,65.0,"{""<5"":0,""5-20"":2,""21-60"":3,""61-240"":2,"">240"":3}",1167.5,41.379034000000004,-73.198705,812910.0,CT,9.0,9001.0,Fairfield County,90011003001.0
5190,sg:f21e306e2e354674b04a0c2ef1176004,1 Twenty Two,CT,2020-02-01T00:00:00-05:00,2020-03-01T00:00:00-05:00,6776,157,49.0,"{""<5"":0,""5-20"":32,""21-60"":56,""61-240"":55,"">240"":14}",14305.5,41.614142,-73.399493,722511.0,CT,9.0,9005.0,Litchfield County,90052535002.0
5300,sg:fc1bf27dc6ed4bec9a491f36ba235863,Royal Alliance Associates,CT,2020-02-01T00:00:00-05:00,2020-03-01T00:00:00-05:00,6437,4,58.5,"{""<5"":0,""5-20"":1,""21-60"":1,""61-240"":2,"">240"":0}",354.0,41.309,-72.721688,523930.0,CT,9.0,9009.0,New Haven County,90091903021.0
5302,sg:fc211650515d40a2831f1df5c9ea2b43,Fyc International,CT,2020-02-01T00:00:00-05:00,2020-03-01T00:00:00-05:00,6512,152,310.5,"{""<5"":2,""5-20"":12,""21-60"":22,""61-240"":32,"">240"":84}",26022.0,41.253601,-72.880036,448120.0,CT,9.0,9009.0,New Haven County,90091801005.0
5320,sg:fe32b922b92f4a74af53b74db01ffe19,Litchfield County Pediatrics LLC,CT,2020-02-01T00:00:00-05:00,2020-03-01T00:00:00-05:00,6790,1,40.0,"{""<5"":0,""5-20"":0,""21-60"":1,""61-240"":0,"">240"":0}",40.5,41.784744,-73.144133,621111.0,CT,9.0,9005.0,Litchfield County,90053108012.0
5386,sg:04982dd321f140028d1ae9f827ec6be8,Dairy Plus,CT,2020-02-01T00:00:00-05:00,2020-03-01T00:00:00-05:00,6062,44,14.0,"{""<5"":3,""5-20"":22,""21-60"":2,""61-240"":7,"">240"":10}",3817.0,41.67961,-72.878212,445110.0,CT,9.0,9003.0,Hartford County,90034204002.0
5600,sg:1803dabc98644d0caa8b6b1f0f635bb3,Hphs Law And Government Academy,CT,2020-02-01T00:00:00-05:00,2020-03-01T00:00:00-05:00,6105,210,109.5,"{""<5"":2,""5-20"":41,""21-60"":39,""61-240"":84,"">240"":44}",25299.0,41.765021000000004,-72.701277,611110.0,CT,9.0,9003.0,Hartford County,90035042002.0
5682,sg:207a84c15a5b467cadddcd915404f179,B'nai Torah Nursery School,CT,2020-02-01T00:00:00-05:00,2020-03-01T00:00:00-05:00,6611,172,67.0,"{""<5"":2,""5-20"":34,""21-60"":43,""61-240"":75,"">240"":18}",17779.0,41.251084999999996,-73.21967099999999,624410.0,CT,9.0,9001.0,Fairfield County,90010902002.0
5797,sg:2cda65d5921b4975bc7fdc317a97307d,Panera Bread,CT,2020-02-01T00:00:00-05:00,2020-03-01T00:00:00-05:00,6489,912,18.0,"{""<5"":47,""5-20"":447,""21-60"":290,""61-240"":100,"">240"":28}",39220.0,41.627177,-72.87277900000001,722515.0,CT,9.0,9003.0,Hartford County,90034302012.0
5812,sg:2df180731b2c48b28d01d6d7bbe85af9,Sally Beauty Supply,CT,2020-02-01T00:00:00-05:00,2020-03-01T00:00:00-05:00,6460,4,10.0,"{""<5"":0,""5-20"":4,""21-60"":0,""61-240"":0,"">240"":0}",50.0,41.241991999999996,-73.035122,446120.0,CT,9.0,9009.0,New Haven County,90091508003.0
5899,sg:36f09ab0fbc04bc787401b86bd986d79,Hartford HealthCare Medical Group,CT,2020-02-01T00:00:00-05:00,2020-03-01T00:00:00-05:00,6001,94,116.5,"{""<5"":2,""5-20"":12,""21-60"":29,""61-240"":17,"">240"":34}",12048.0,41.814499,-72.86075699999999,621111.0,CT,9.0,9003.0,Hartford County,90034622011.0
6135,sg:4d6a5ebd4ad24c70b67e2319e6146912,United States Postal Service (USPS),CT,2020-02-01T00:00:00-05:00,2020-03-01T00:00:00-05:00,6498,22,8.0,"{""<5"":2,""5-20"":15,""21-60"":3,""61-240"":0,"">240"":2}",794.0,41.282979,-72.441077,491110.0,CT,9.0,9007.0,Middlesex County,90076801004.0
6206,sg:540035db6e5f4c9f9f22b6c5652ba0d8,MyEyeDr.,CT,2020-02-01T00:00:00-05:00,2020-03-01T00:00:00-05:00,6401,63,95.0,"{""<5"":1,""5-20"":21,""21-60"":9,""61-240"":8,"">240"":24}",7593.5,41.34104,-73.091286,621320.0,CT,9.0,9009.0,New Haven County,90091253001.0
6221,sg:55b0a13390a34cb1ae7ff5a0b2313e78,Optimus Health Care,CT,2020-02-01T00:00:00-05:00,2020-03-01T00:00:00-05:00,6608,44,58.5,"{""<5"":0,""5-20"":7,""21-60"":17,""61-240"":8,"">240"":12}",4860.0,41.188067,-73.180481,621210.0,CT,9.0,9001.0,Fairfield County,90010738003.0
6258,sg:57c907522ffd412286a4f2fdaee30666,Building Blocks Learning Center,CT,2020-02-01T00:00:00-05:00,2020-03-01T00:00:00-05:00,6492,44,7.0,"{""<5"":0,""5-20"":37,""21-60"":4,""61-240"":2,"">240"":1}",1165.5,41.484743,-72.785239,624410.0,CT,9.0,9009.0,New Haven County,90091758001.0
6260,sg:583a7850609346a48fc20c5541a7b32b,Green & Tonic,CT,2020-02-01T00:00:00-05:00,2020-03-01T00:00:00-05:00,6840,93,74.0,"{""<5"":4,""5-20"":20,""21-60"":18,""61-240"":25,"">240"":26}",10991.5,41.146786,-73.491835,722515.0,CT,9.0,9001.0,Fairfield County,90010351002.0
6380,sg:63a95f4641f84900a62eb65a55d1fcea,Coppola's Service,CT,2020-02-01T00:00:00-05:00,2020-03-01T00:00:00-05:00,6902,1,18.0,"{""<5"":0,""5-20"":1,""21-60"":0,""61-240"":0,"">240"":0}",12.5,41.048714000000004,-73.527284,811111.0,CT,9.0,9001.0,Fairfield County,90010221002.0
6511,sg:70e255ec53034707af257db8774ae15d,Chase,CT,2020-02-01T00:00:00-05:00,2020-03-01T00:00:00-05:00,6905,14,38.5,"{""<5"":1,""5-20"":5,""21-60"":2,""61-240"":2,"">240"":4}",1407.0,41.106659,-73.547519,522110.0,CT,9.0,9001.0,Fairfield County,90010207003.0
6628,sg:7b6e246cdc864be68e0694912f354f28,Courtyard by Marriott,CT,2020-02-01T00:00:00-05:00,2020-03-01T00:00:00-05:00,6042,317,207.0,"{""<5"":5,""5-20"":48,""21-60"":51,""61-240"":59,"">240"":154}",48517.5,41.810255,-72.534454,721110.0,CT,9.0,9003.0,Hartford County,90035141021.0
6684,sg:809cad5f283b4f238612a0accffc2da3,Subway,CT,2020-02-01T00:00:00-05:00,2020-03-01T00:00:00-05:00,6067,59,27.0,"{""<5"":0,""5-20"":26,""21-60"":9,""61-240"":5,"">240"":19}",6002.0,41.667489,-72.64183299999999,722513.0,CT,9.0,9003.0,Hartford County,90034901003.0
6795,sg:8caa450030654f1594903b89533af085,Westport Auction,CT,2020-02-01T00:00:00-05:00,2020-03-01T00:00:00-05:00,6880,30,75.0,"{""<5"":1,""5-20"":9,""21-60"":5,""61-240"":6,"">240"":9}",3380.5,41.119543,-73.36989799999999,441120.0,CT,9.0,9001.0,Fairfield County,90010504002.0
6815,sg:8f2dba49ac0342a9b3f710e76b9d5a50,CST50 Westport,CT,2020-02-01T00:00:00-05:00,2020-03-01T00:00:00-05:00,6880,11,23.0,"{""<5"":0,""5-20"":5,""21-60"":4,""61-240"":2,"">240"":0}",525.5,41.140797,-73.35576999999999,713940.0,CT,9.0,9001.0,Fairfield County,90010505004.0
6886,sg:9538571cd5c94b57a1b7b81b50cc71e9,The Collector's Coin Shoppe,CT,2020-02-01T00:00:00-05:00,2020-03-01T00:00:00-05:00,6357,13,21.0,"{""<5"":1,""5-20"":5,""21-60"":4,""61-240"":3,"">240"":0}",678.5,41.322356,-72.19783699999999,448310.0,CT,9.0,9011.0,New London County,90118707042.0
6934,sg:9a62a90d8ad1438ca8da3672cbff3250,Hope Gallery Tattoo,CT,2020-02-01T00:00:00-05:00,2020-03-01T00:00:00-05:00,6512,88,63.0,"{""<5"":2,""5-20"":23,""21-60"":18,""61-240"":30,"">240"":15}",9136.5,41.291275,-72.893217,812199.0,CT,9.0,9009.0,New Haven County,90091427001.0
6943,sg:9b4021cf5ee14bbc9a828b7326abc67b,Safari Stan's Pet Center,CT,2020-02-01T00:00:00-05:00,2020-03-01T00:00:00-05:00,6515,39,26.0,"{""<5"":0,""5-20"":14,""21-60"":18,""61-240"":7,"">240"":0}",1957.5,41.337602000000004,-72.982505,453910.0,CT,9.0,9009.0,New Haven County,90091412004.0
6955,sg:9c50fc71188840c587130fb72ab9c15f,Carroll Park,CT,2020-02-01T00:00:00-05:00,2020-03-01T00:00:00-05:00,6450,63,15.0,"{""<5"":0,""5-20"":33,""21-60"":7,""61-240"":14,"">240"":9}",4963.0,41.546442,-72.765462,712190.0,CT,9.0,9009.0,New Haven County,90091717001.0
6994,sg:9fb45a678c29415ba2d080a6b3aeb215,Global Driving School,CT,2020-02-01T00:00:00-05:00,2020-03-01T00:00:00-05:00,6095,141,22.0,"{""<5"":6,""5-20"":60,""21-60"":35,""61-240"":34,"">240"":6}",8739.5,41.852247,-72.644426,453310.0,CT,9.0,9003.0,Hartford County,90034734001.0
7007,sg:a090146351c14312b1efccc069d20777,Colonial Garrison Insurance,CT,2020-02-01T00:00:00-05:00,2020-03-01T00:00:00-05:00,6410,16,349.5,"{""<5"":0,""5-20"":4,""21-60"":0,""61-240"":2,"">240"":10}",2751.0,41.556837,-72.91034599999999,524210.0,CT,9.0,9009.0,New Haven County,90093432001.0
7086,sg:a7b1cc8d97fb41478984e8e7860b05d8,Edward Jones,CT,2020-02-01T00:00:00-05:00,2020-03-01T00:00:00-05:00,6470,33,301.0,"{""<5"":1,""5-20"":2,""21-60"":1,""61-240"":3,"">240"":26}",6759.5,41.414336999999996,-73.304237,523999.0,CT,9.0,9001.0,Fairfield County,90012302001.0
7189,sg:b42d833cd6bf464e91f7a268442c6ae9,Deadlocked Escape Rooms,CT,2020-02-01T00:00:00-05:00,2020-03-01T00:00:00-05:00,6907,7,10.0,"{""<5"":0,""5-20"":5,""21-60"":2,""61-240"":0,"">240"":0}",143.5,41.093088,-73.51813299999999,423830.0,CT,9.0,9001.0,Fairfield County,90010209002.0
7281,sg:bd2648eec05a4c19b12f086f04c1bf47,Robert S Riemer Rare Coins,CT,2020-02-01T00:00:00-05:00,2020-03-01T00:00:00-05:00,6825,17,13.0,"{""<5"":1,""5-20"":12,""21-60"":4,""61-240"":0,"">240"":0}",314.5,41.179829999999995,-73.24793299999999,451120.0,CT,9.0,9001.0,Fairfield County,90010610003.0
7320,sg:c17883e7d7304a06b8588cd2e1f76081,Mobil,CT,2020-02-01T00:00:00-05:00,2020-03-01T00:00:00-05:00,6416,300,8.0,"{""<5"":27,""5-20"":208,""21-60"":35,""61-240"":21,"">240"":9}",9405.5,41.604668,-72.70682,447110.0,CT,9.0,9007.0,Middlesex County,90075701001.0
7388,sg:c77b18ac083c467797427b9fc95dad29,Easterseals Children's Academy East Campus,CT,2020-02-01T00:00:00-05:00,2020-03-01T00:00:00-05:00,6705,76,32.5,"{""<5"":6,""5-20"":23,""21-60"":13,""61-240"":16,"">240"":18}",7557.0,41.5511,-72.96646700000001,624410.0,CT,9.0,9009.0,New Haven County,90093527012.0
7439,sg:cc1f031daa6b4343acce117ba92f5138,Cositas Ricas,CT,2020-02-01T00:00:00-05:00,2020-03-01T00:00:00-05:00,6492,99,13.0,"{""<5"":5,""5-20"":60,""21-60"":12,""61-240"":16,"">240"":6}",5096.5,41.456429,-72.822795,722511.0,CT,9.0,9009.0,New Haven County,90091751001.0
7524,sg:d466ebc2ce404d56ae33086235499eae,XL Center,CT,2020-02-01T00:00:00-05:00,2020-03-01T00:00:00-05:00,6103,1617,86.0,"{""<5"":8,""5-20"":136,""21-60"":452,""61-240"":962,"">240"":59}",178967.0,41.768228,-72.676737,711211.0,CT,9.0,9003.0,Hartford County,90035021001.0
7659,sg:e2e3fdb9924547ffbfa7afc7f75103c8,CJ Auto Mall,CT,2020-02-01T00:00:00-05:00,2020-03-01T00:00:00-05:00,6010,61,50.0,"{""<5"":3,""5-20"":17,""21-60"":13,""61-240"":8,"">240"":20}",6750.5,41.673225,-72.889016,441120.0,CT,9.0,9003.0,Hartford County,90034054012.0
7777,sg:efc6e88f7cd14adf8a8b6cfa7d24a2db,Mansfield Pediatric Dentistry,CT,2020-02-01T00:00:00-05:00,2020-03-01T00:00:00-05:00,6250,54,168.5,"{""<5"":3,""5-20"":6,""21-60"":12,""61-240"":13,"">240"":20}",7325.0,41.734253,-72.203857,621210.0,CT,9.0,9013.0,Tolland County,90138815004.0
7913,sg:fdb8f1605d0942c584dfffd463e7729b,Corebella Health,CT,2020-02-01T00:00:00-05:00,2020-03-01T00:00:00-05:00,6708,57,50.0,"{""<5"":1,""5-20"":13,""21-60"":15,""61-240"":19,"">240"":9}",5792.0,41.546299,-73.05573000000001,621111.0,CT,9.0,9009.0,New Haven County,90093516011.0
8008,sg:05def7f264df4fbcb4c5c31fbe406cc7,A&A Office Systems,CT,2020-02-01T00:00:00-05:00,2020-03-01T00:00:00-05:00,6457,183,206.0,"{""<5"":1,""5-20"":21,""21-60"":23,""61-240"":67,"">240"":71}",28320.0,41.594338,-72.721834,453210.0,CT,9.0,9007.0,Middlesex County,90075414011.0
8013,sg:072a2ebe47ac4ad088b649a6f9b31b24,Litchfield Tax Service,CT,2020-02-01T00:00:00-05:00,2020-03-01T00:00:00-05:00,6790,2,27.0,"{""<5"":0,""5-20"":1,""21-60"":1,""61-240"":0,"">240"":0}",53.0,41.807036,-73.122375,541213.0,CT,9.0,9005.0,Litchfield County,90053102001.0
8082,sg:0de29197504a48e49d44a7763b8e88db,US District Court,CT,2020-02-01T00:00:00-05:00,2020-03-01T00:00:00-05:00,6103,455,134.0,"{""<5"":6,""5-20"":85,""21-60"":56,""61-240"":163,"">240"":145}",62677.0,41.761241999999996,-72.673834,448130.0,CT,9.0,9003.0,Hartford County,90035005001.0
8168,sg:1637a686af0d4c2699cc14eb61673a53,Turbo Kits,CT,2020-02-01T00:00:00-05:00,2020-03-01T00:00:00-05:00,6096,4,28.0,"{""<5"":0,""5-20"":1,""21-60"":2,""61-240"":0,"">240"":1}",333.5,41.910581,-72.663472,441310.0,CT,9.0,9003.0,Hartford County,90034763001.0
8181,sg:17555d5ed80445deb01722792a0090b6,Wood Ave Auto Sales Mechanic & Detail,CT,2020-02-01T00:00:00-05:00,2020-03-01T00:00:00-05:00,6605,19,63.0,"{""<5"":0,""5-20"":4,""21-60"":5,""61-240"":6,"">240"":4}",2115.5,41.165509,-73.217839,811111.0,CT,9.0,9001.0,Fairfield County,90010703001.0
8298,sg:20225dd8defa4d8bb7100ae651fcf220,Middlesex Hospital Family Medicine Middletown,CT,2020-02-01T00:00:00-05:00,2020-03-01T00:00:00-05:00,6457,115,45.0,"{""<5"":3,""5-20"":37,""21-60"":23,""61-240"":31,"">240"":21}",11107.0,41.553487,-72.648963,621111.0,CT,9.0,9007.0,Middlesex County,90075417002.0
8360,sg:25ddd15d991c4eaab215f289adeaee4c,PMG Insurance & Financial Services,CT,2020-02-01T00:00:00-05:00,2020-03-01T00:00:00-05:00,6037,14,26.5,"{""<5"":0,""5-20"":5,""21-60"":6,""61-240"":3,"">240"":0}",757.0,41.631749,-72.73750600000001,524210.0,CT,9.0,9003.0,Hartford County,90034001003.0
8430,sg:2c0a9ba0afdc4df6b140216d70cb324e,The Li'l Plant Shop,CT,2020-02-01T00:00:00-05:00,2020-03-01T00:00:00-05:00,6062,328,56.0,"{""<5"":8,""5-20"":71,""21-60"":90,""61-240"":92,"">240"":67}",34478.5,41.67102,-72.866804,453110.0,CT,9.0,9003.0,Hartford County,90034205004.0
8469,sg:2f2bba714bd2449f85484712d19e4733,Riverfront Park,CT,2020-02-01T00:00:00-05:00,2020-03-01T00:00:00-05:00,6033,136,16.0,"{""<5"":2,""5-20"":80,""21-60"":39,""61-240"":13,"">240"":2}",5021.0,41.713248,-72.610826,712190.0,CT,9.0,9003.0,Hartford County,90035203021.0
8578,sg:37d01e54603043d8b1a0592816808272,Milite Bakery,CT,2020-02-01T00:00:00-05:00,2020-03-01T00:00:00-05:00,6705,15,14.0,"{""<5"":2,""5-20"":9,""21-60"":0,""61-240"":3,"">240"":1}",809.0,41.535407,-72.99786800000001,311811.0,CT,9.0,9009.0,New Haven County,90093528001.0
8638,sg:3e1bb67d147a478981ef9ece8e13378b,Meineke Car Care Centers,CT,2020-02-01T00:00:00-05:00,2020-03-01T00:00:00-05:00,6810,10,23.0,"{""<5"":0,""5-20"":5,""21-60"":4,""61-240"":1,"">240"":0}",375.0,41.386765999999994,-73.444088,811111.0,CT,9.0,9001.0,Fairfield County,90012101003.0
8654,sg:405fcda1d16c4460a269fa9293d503d7,Sleeper Richard M MD Facs,CT,2020-02-01T00:00:00-05:00,2020-03-01T00:00:00-05:00,6101,3,40.0,"{""<5"":0,""5-20"":0,""21-60"":2,""61-240"":1,"">240"":0}",231.5,41.828288,-72.999323,446120.0,CT,9.0,9005.0,Litchfield County,90053061002.0
8744,sg:4b7a765bbd7d43438c2d06373c76f7a6,Carla Juvencio Re max Precision,CT,2020-02-01T00:00:00-05:00,2020-03-01T00:00:00-05:00,6111,3,27.0,"{""<5"":0,""5-20"":1,""21-60"":1,""61-240"":1,"">240"":0}",203.5,41.691465,-72.70649300000001,531210.0,CT,9.0,9003.0,Hartford County,90034944002.0
8756,sg:4c2ef77f5b4a4eab8aa25c69e06ea598,Middletown Toyota,CT,2020-02-01T00:00:00-05:00,2020-03-01T00:00:00-05:00,6457,337,76.0,"{""<5"":6,""5-20"":69,""21-60"":65,""61-240"":97,"">240"":100}",42108.5,41.576443,-72.670975,441110.0,CT,9.0,9007.0,Middlesex County,90075412001.0
8807,sg:51c98e32f93344debd85d5e9ef931f6a,Sneekers Cafe,CT,2020-02-01T00:00:00-05:00,2020-03-01T00:00:00-05:00,6340,14,93.5,"{""<5"":0,""5-20"":7,""21-60"":0,""61-240"":5,"">240"":2}",1320.0,41.342744,-72.059978,722511.0,CT,9.0,9011.0,New London County,90117027003.0
9094,sg:6b69b9c7dfda420e989435964b40d9af,Oak Hills Tennis Club,CT,2020-02-01T00:00:00-05:00,2020-03-01T00:00:00-05:00,6850,1,10.0,"{""<5"":0,""5-20"":1,""21-60"":0,""61-240"":0,"">240"":0}",12.5,41.117144,-73.444777,712190.0,CT,9.0,9001.0,Fairfield County,90010432002.0
9108,sg:6c89795bb63c48be8ec09782e6625669,Black Diamond Body Piercing,CT,2020-02-01T00:00:00-05:00,2020-03-01T00:00:00-05:00,6119,143,21.0,"{""<5"":5,""5-20"":63,""21-60"":42,""61-240"":30,"">240"":3}",7736.0,41.757533,-72.72142099999999,448310.0,CT,9.0,9003.0,Hartford County,90034967001.0
9179,sg:73ce89f4485f4784982bd691aeb43640,Radiology Group PC,CT,2020-02-01T00:00:00-05:00,2020-03-01T00:00:00-05:00,6511,172,57.0,"{""<5"":3,""5-20"":35,""21-60"":51,""61-240"":53,"">240"":30}",17687.0,41.310669,-72.945284,621111.0,CT,9.0,9009.0,New Haven County,90091408004.0
9241,sg:7afde30c98d6440abcd7522f4113e971,Cato Corner Farm,CT,2020-02-01T00:00:00-05:00,2020-03-01T00:00:00-05:00,6415,15,10.0,"{""<5"":0,""5-20"":13,""21-60"":1,""61-240"":0,"">240"":1}",443.0,41.571034999999995,-72.390151,445230.0,CT,9.0,9011.0,New London County,90117141031.0
9653,sg:a1e3a336d4d84efda8afc40573295b59,Comstock Covered Bridge,CT,2020-02-01T00:00:00-05:00,2020-03-01T00:00:00-05:00,6415,13,20.0,"{""<5"":0,""5-20"":7,""21-60"":4,""61-240"":2,"">240"":0}",550.5,41.552968,-72.447992,921190.0,CT,9.0,9011.0,New London County,
9701,sg:a7395a9d1934469d9f2723bc7350f766,Poolman Pools & Spas,CT,2020-02-01T00:00:00-05:00,2020-03-01T00:00:00-05:00,6443,3,21.0,"{""<5"":0,""5-20"":1,""21-60"":1,""61-240"":0,"">240"":1}",293.0,41.281006,-72.631244,451110.0,CT,9.0,9009.0,New Haven County,90091941004.0
9837,sg:b544a59148a540a7b321ea0bf7e1c19b,Sunoco,CT,2020-02-01T00:00:00-05:00,2020-03-01T00:00:00-05:00,6478,167,5.0,"{""<5"":29,""5-20"":122,""21-60"":13,""61-240"":1,"">240"":2}",2754.5,41.428033,-73.110423,447110.0,CT,9.0,9009.0,New Haven County,90093461011.0
9992,sg:c3af266def24423ebb97b12abb9bb9eb,Juvenile Diabetes Research Foundation,CT,2020-02-01T00:00:00-05:00,2020-03-01T00:00:00-05:00,6032,80,75.5,"{""<5"":3,""5-20"":21,""21-60"":12,""61-240"":21,"">240"":23}",9436.5,41.708943,-72.79977,621610.0,CT,9.0,9003.0,Hartford County,90034601002.0
10007,sg:c515faad23be455eac697d5a4894db7b,Electric Boat Corporation,CT,2020-02-01T00:00:00-05:00,2020-03-01T00:00:00-05:00,6340,2497,212.0,"{""<5"":41,""5-20"":438,""21-60"":279,""61-240"":568,"">240"":1171}",383401.0,41.344611,-72.079082,441222.0,CT,9.0,9011.0,New London County,90117025002.0
10215,sg:d9bcc0ec46f94ad3aa94c5a24a46eba0,Center For Advanced Reproductive Services,CT,2020-02-01T00:00:00-05:00,2020-03-01T00:00:00-05:00,6106,392,47.0,"{""<5"":15,""5-20"":131,""21-60"":64,""61-240"":104,"">240"":78}",38639.0,41.760471,-72.670012,621111.0,CT,9.0,9003.0,Hartford County,90035005001.0
10351,sg:e8cefb0f12024fcfa701f7ca5bbfba98,Chiangmai Thai,CT,2020-02-01T00:00:00-05:00,2020-03-01T00:00:00-05:00,6484,108,33.5,"{""<5"":3,""5-20"":46,""21-60"":20,""61-240"":30,"">240"":9}",8067.5,41.288771999999994,-73.078738,722511.0,CT,9.0,9001.0,Fairfield County,90011102021.0
10424,sg:f116a4c8ddc94c33add47cfb86fa7895,Northeast Building Supply,CT,2020-02-01T00:00:00-05:00,2020-03-01T00:00:00-05:00,6754,11,22.0,"{""<5"":0,""5-20"":4,""21-60"":3,""61-240"":4,"">240"":0}",773.5,41.817339000000004,-73.371764,444130.0,CT,9.0,9005.0,Litchfield County,90052632002.0
10427,sg:f151959691b94a7cafd735402937a0ce,Logan's Auto Center LLC,CT,2020-02-01T00:00:00-05:00,2020-03-01T00:00:00-05:00,6360,93,39.0,"{""<5"":0,""5-20"":33,""21-60"":23,""61-240"":19,"">240"":18}",8523.5,41.527896000000005,-72.064364,441120.0,CT,9.0,9011.0,New London County,90116964001.0
10431,sg:f1b63d8dc10b4cc0bea71f91ad6edbc9,ExamOne,CT,2020-02-01T00:00:00-05:00,2020-03-01T00:00:00-05:00,6067,14,35.0,"{""<5"":0,""5-20"":5,""21-60"":6,""61-240"":0,"">240"":3}",1025.5,41.671535999999996,-72.643381,621512.0,CT,9.0,9003.0,Hartford County,90034901003.0
10691,sg:0b3d2d19508a4f958b798309d2bde79e,The Hoppy Hippo,CT,2020-02-01T00:00:00-05:00,2020-03-01T00:00:00-05:00,6339,4,95.0,"{""<5"":0,""5-20"":2,""21-60"":0,""61-240"":1,"">240"":1}",415.5,41.407333,-71.982543,722511.0,CT,9.0,9011.0,New London County,90117011004.0
10733,sg:0f68e3a242774ef49beb44fa9ff9d8c2,MacKenzies Bar & Grill,CT,2020-02-01T00:00:00-05:00,2020-03-01T00:00:00-05:00,6905,90,21.0,"{""<5"":4,""5-20"":40,""21-60"":20,""61-240"":23,"">240"":3}",5501.5,41.104602,-73.548861,722511.0,CT,9.0,9001.0,Fairfield County,90010206001.0
10937,sg:2119c3cd1db44bb5819e61c570d2ab29,Beulah Heights First Pentecostal Church,CT,2020-02-01T00:00:00-05:00,2020-03-01T00:00:00-05:00,6511,110,78.5,"{""<5"":3,""5-20"":21,""21-60"":22,""61-240"":49,"">240"":15}",12135.5,41.32274,-72.935541,813110.0,CT,9.0,9009.0,New Haven County,90091416003.0
11190,sg:3966002894ee459e92b189e6f72b2d06,Fairfield Optical,CT,2020-02-01T00:00:00-05:00,2020-03-01T00:00:00-05:00,6825,69,43.0,"{""<5"":1,""5-20"":14,""21-60"":34,""61-240"":17,"">240"":3}",4833.0,41.182986,-73.25601,446130.0,CT,9.0,9001.0,Fairfield County,90010610003.0
11281,sg:41cac1c603ab4c548da7a1f4ad292043,Hartford HealthCare Cancer Institute,CT,2020-02-01T00:00:00-05:00,2020-03-01T00:00:00-05:00,6053,128,116.0,"{""<5"":0,""5-20"":13,""21-60"":31,""61-240"":46,"">240"":38}",17461.0,41.675093,-72.822536,611310.0,CT,9.0,9003.0,Hartford County,90034165005.0
11307,sg:437e94973c7a46578ca36ea0fed87f8a,Crossroads At Middlebury East The,CT,2020-02-01T00:00:00-05:00,2020-03-01T00:00:00-05:00,6762,1245,52.0,"{""<5"":19,""5-20"":200,""21-60"":500,""61-240"":503,"">240"":23}",104019.0,41.534625,-73.085318,531120.0,CT,9.0,9009.0,New Haven County,90093441003.0
11374,sg:496bc870852c4eb9b49c15d0e075bdd2,Henri's Pizza & Restaurant,CT,2020-02-01T00:00:00-05:00,2020-03-01T00:00:00-05:00,6010,78,15.5,"{""<5"":4,""5-20"":40,""21-60"":4,""61-240"":20,"">240"":10}",6082.0,41.668251,-72.922483,722511.0,CT,9.0,9003.0,Hartford County,90034054021.0
11742,sg:6b7bf21635f34dff887f1012eb58cce7,Readings by Christine,CT,2020-02-01T00:00:00-05:00,2020-03-01T00:00:00-05:00,6111,29,196.0,"{""<5"":0,""5-20"":9,""21-60"":2,""61-240"":6,"">240"":12}",3976.5,41.684877,-72.740767,621111.0,CT,9.0,9003.0,Hartford County,90034943001.0
11927,sg:7f37ef434fa84a65a69edc7be25245ff,Sno White Car Wash,CT,2020-02-01T00:00:00-05:00,2020-03-01T00:00:00-05:00,6010,10,14.5,"{""<5"":0,""5-20"":6,""21-60"":1,""61-240"":3,"">240"":0}",567.0,41.682459,-72.941353,811192.0,CT,9.0,9003.0,Hartford County,90034051001.0
11967,sg:82786a6e986d458f8a5fdd6f1459190f,Shiloh Baptist Church,CT,2020-02-01T00:00:00-05:00,2020-03-01T00:00:00-05:00,6320,144,84.0,"{""<5"":2,""5-20"":31,""21-60"":24,""61-240"":57,"">240"":30}",17143.0,41.355118,-72.102962,813110.0,CT,9.0,9011.0,New London County,90116905002.0
11980,sg:83b39af0a34f471f902f60fbb6d78f52,Congregation B'nai Torah,CT,2020-02-01T00:00:00-05:00,2020-03-01T00:00:00-05:00,6611,16,67.5,"{""<5"":1,""5-20"":1,""21-60"":6,""61-240"":8,"">240"":0}",1462.0,41.25087,-73.219685,813110.0,CT,9.0,9001.0,Fairfield County,90010902002.0
12082,sg:8d4da50a16a84693b7b2b38bf33cbe32,Subway,CT,2020-02-01T00:00:00-05:00,2020-03-01T00:00:00-05:00,6451,45,6.0,"{""<5"":7,""5-20"":28,""21-60"":3,""61-240"":5,"">240"":2}",1721.5,41.548857,-72.814098,722513.0,CT,9.0,9009.0,New Haven County,90091703002.0
12096,sg:8e5f53a2421541c8893b76a7ea14a934,Goodspeed Opera House,CT,2020-02-01T00:00:00-05:00,2020-03-01T00:00:00-05:00,6423,70,75.0,"{""<5"":1,""5-20"":15,""21-60"":17,""61-240"":28,"">240"":9}",7252.5,41.451796,-72.46243100000001,512131.0,CT,9.0,9007.0,Middlesex County,90075951013.0
12126,sg:90c518b1e1c747199a011750da94bcf7,Airgas,CT,2020-02-01T00:00:00-05:00,2020-03-01T00:00:00-05:00,6082,36,21.0,"{""<5"":1,""5-20"":16,""21-60"":12,""61-240"":6,"">240"":1}",1831.5,41.991364000000004,-72.60005100000001,424690.0,CT,9.0,9003.0,Hartford County,90034806002.0
12216,sg:99a699154a9a4af98a18c08f29f67790,Talbots,CT,2020-02-01T00:00:00-05:00,2020-03-01T00:00:00-05:00,6426,34,98.0,"{""<5"":0,""5-20"":4,""21-60"":7,""61-240"":10,"">240"":13}",4958.5,41.353718,-72.39109499999999,448120.0,CT,9.0,9007.0,Middlesex County,90076301003.0
12291,sg:a2beda201121425b932dbe974434cbac,Monica's African Hair Braiding,CT,2020-02-01T00:00:00-05:00,2020-03-01T00:00:00-05:00,6511,155,21.0,"{""<5"":5,""5-20"":72,""21-60"":28,""61-240"":33,"">240"":17}",11093.0,41.312976,-72.950518,812112.0,CT,9.0,9009.0,New Haven County,90091409003.0
12322,sg:a637990ac1ff48cd923f957af8aac7a7,Asylum St Pizza,CT,2020-02-01T00:00:00-05:00,2020-03-01T00:00:00-05:00,6360,51,30.0,"{""<5"":4,""5-20"":19,""21-60"":8,""61-240"":12,"">240"":8}",4297.5,41.532859,-72.092698,722511.0,CT,9.0,9011.0,New London County,90116966001.0
12482,sg:b63c032a978d4affab3c2fc84c6161b3,State Farm,CT,2020-02-01T00:00:00-05:00,2020-03-01T00:00:00-05:00,6811,12,12.0,"{""<5"":1,""5-20"":6,""21-60"":1,""61-240"":4,"">240"":0}",720.0,41.414776,-73.45925799999999,524210.0,CT,9.0,9001.0,Fairfield County,90012112002.0
12489,sg:b7323a0eda294582b5e022f672fcd8b0,Sipstirs,CT,2020-02-01T00:00:00-05:00,2020-03-01T00:00:00-05:00,6820,13,11.0,"{""<5"":1,""5-20"":10,""21-60"":1,""61-240"":1,"">240"":0}",318.5,41.075210999999996,-73.47255,445310.0,CT,9.0,9001.0,Fairfield County,90010304001.0
12496,sg:b7736ee7d8fa4909a1a96f67326df600,Christopher Maciejak Ameriprise Financial Services,CT,2020-02-01T00:00:00-05:00,2020-03-01T00:00:00-05:00,6473,3,12.0,"{""<5"":0,""5-20"":2,""21-60"":0,""61-240"":1,"">240"":0}",175.5,41.377669,-72.883063,523930.0,CT,9.0,9009.0,New Haven County,90091671002.0
12547,sg:bd026310f7374bd3926cdeb9bff0067d,Mobil,CT,2020-02-01T00:00:00-05:00,2020-03-01T00:00:00-05:00,6824,253,11.0,"{""<5"":9,""5-20"":193,""21-60"":37,""61-240"":9,"">240"":5}",6488.0,41.146743,-73.256298,447110.0,CT,9.0,9001.0,Fairfield County,90010607002.0
12658,sg:c74d5e49f5964b3ba5b0dae0f639e589,Drum Lessons by Jimmy Lane in Westport CT,CT,2020-02-01T00:00:00-05:00,2020-03-01T00:00:00-05:00,6880,44,65.0,"{""<5"":0,""5-20"":11,""21-60"":11,""61-240"":10,"">240"":12}",4968.0,41.157396999999996,-73.361938,451140.0,CT,9.0,9001.0,Fairfield County,90010502003.0
12666,sg:c8644eb3973a492a84359d997d3e33b0,Old Mystic Volunteer Fire Department Station 1,CT,2020-02-01T00:00:00-05:00,2020-03-01T00:00:00-05:00,6355,40,110.0,"{""<5"":2,""5-20"":5,""21-60"":9,""61-240"":8,"">240"":16}",5476.0,41.393454,-71.959887,922160.0,CT,9.0,9011.0,New London County,90117054002.0
12733,sg:cf6413faef1f49e992aa061accf43bb3,Our Lady of Victory,CT,2020-02-01T00:00:00-05:00,2020-03-01T00:00:00-05:00,6516,21,52.0,"{""<5"":0,""5-20"":4,""21-60"":7,""61-240"":10,"">240"":0}",1838.5,41.25358,-72.974074,813110.0,CT,9.0,9009.0,New Haven County,90091547001.0
12899,sg:e188311f38ce48318c9a4fcfc54bdd58,Tutto Family Hair Care,CT,2020-02-01T00:00:00-05:00,2020-03-01T00:00:00-05:00,6382,19,64.0,"{""<5"":0,""5-20"":5,""21-60"":4,""61-240"":8,"">240"":2}",1908.5,41.456552,-72.10635,812112.0,CT,9.0,9011.0,New London County,90118705012.0
12981,sg:e93b032621e140489d931e5a64a962fa,Madison Optical,CT,2020-02-01T00:00:00-05:00,2020-03-01T00:00:00-05:00,6443,169,54.0,"{""<5"":2,""5-20"":49,""21-60"":37,""61-240"":40,"">240"":41}",17976.0,41.281789,-72.5998,446130.0,CT,9.0,9009.0,New Haven County,90091941003.0
13030,sg:ed189e8cce9044029ed07d484dc1933c,Hair Changes Salon,CT,2020-02-01T00:00:00-05:00,2020-03-01T00:00:00-05:00,6033,47,42.0,"{""<5"":0,""5-20"":8,""21-60"":27,""61-240"":12,"">240"":0}",2999.5,41.719538,-72.616855,812112.0,CT,9.0,9003.0,Hartford County,90035203022.0
13046,sg:eec799b1beed44b7856a957c9b5f6f67,Sawyer's Bar & Grill,CT,2020-02-01T00:00:00-05:00,2020-03-01T00:00:00-05:00,6790,139,41.0,"{""<5"":2,""5-20"":37,""21-60"":51,""61-240"":42,"">240"":7}",10534.0,41.800452,-73.117784,722511.0,CT,9.0,9005.0,Litchfield County,90053103001.0
13072,sg:f0dc17f857cc4b1baba09f4502c3b21a,Antico Ravioli,CT,2020-02-01T00:00:00-05:00,2020-03-01T00:00:00-05:00,6450,44,111.0,"{""<5"":0,""5-20"":7,""21-60"":9,""61-240"":11,"">240"":17}",6187.5,41.524929,-72.761255,722511.0,CT,9.0,9009.0,New Haven County,90091712001.0
13079,sg:f15599bb45714c5299a0104ed5088c12,Maple Cafe,CT,2020-02-01T00:00:00-05:00,2020-03-01T00:00:00-05:00,6118,148,29.5,"{""<5"":3,""5-20"":53,""21-60"":40,""61-240"":32,"">240"":20}",11906.0,41.734297,-72.62581800000001,722511.0,CT,9.0,9003.0,Hartford County,90035108002.0
13094,sg:f347e4e3ff774cbca736c1baf6fb16b8,Dunkin',CT,2020-02-01T00:00:00-05:00,2020-03-01T00:00:00-05:00,6051,352,14.5,"{""<5"":18,""5-20"":178,""21-60"":41,""61-240"":35,"">240"":80}",28398.0,41.660909000000004,-72.779044,722515.0,CT,9.0,9003.0,Hartford County,90034171001.0
13101,sg:f40732da5ddf426db6e7b6ed668ac2bb,Crosby High School,CT,2020-02-01T00:00:00-05:00,2020-03-01T00:00:00-05:00,6705,2232,143.0,"{""<5"":19,""5-20"":304,""21-60"":337,""61-240"":760,"">240"":812}",326756.0,41.545863,-72.972863,611110.0,CT,9.0,9009.0,New Haven County,90093527012.0
13189,sg:fcc9fe7eaf614e919c6ede5b3cc6479f,Crossroads Community Church,CT,2020-02-01T00:00:00-05:00,2020-03-01T00:00:00-05:00,6066,7,169.0,"{""<5"":0,""5-20"":1,""21-60"":0,""61-240"":5,"">240"":1}",1005.0,41.833909999999996,-72.48890300000001,813110.0,CT,9.0,9013.0,Tolland County,90135303023.0
13192,sg:fd4bafa12e89467eb6bcd2d199876d0e,Duval Edward DMD,CT,2020-02-01T00:00:00-05:00,2020-03-01T00:00:00-05:00,6239,16,49.0,"{""<5"":0,""5-20"":5,""21-60"":3,""61-240"":5,"">240"":3}",1656.5,41.801058000000005,-71.879104,621210.0,CT,9.0,9015.0,Windham County,90159045005.0
13303,sg:08e7ebbb6162437ca7109b8c0e2fcc20,CrossFit,CT,2020-02-01T00:00:00-05:00,2020-03-01T00:00:00-05:00,6825,49,20.0,"{""<5"":5,""5-20"":20,""21-60"":11,""61-240"":10,"">240"":3}",2933.0,41.166609,-73.22946,713940.0,CT,9.0,9001.0,Fairfield County,90010614001.0
13332,sg:0ac7150bd76841d3a388036c05614ce4,Southington Fire Department Engine Company 3,CT,2020-02-01T00:00:00-05:00,2020-03-01T00:00:00-05:00,6479,56,40.5,"{""<5"":0,""5-20"":20,""21-60"":13,""61-240"":20,"">240"":3}",4506.5,41.569539,-72.89737,922160.0,CT,9.0,9003.0,Hartford County,90034304002.0
13362,sg:0e4d49ec359541b69828670451817213,Sherwin-Williams,CT,2020-02-01T00:00:00-05:00,2020-03-01T00:00:00-05:00,6705,53,6.0,"{""<5"":8,""5-20"":41,""21-60"":3,""61-240"":1,"">240"":0}",804.5,41.568395,-73.007274,444120.0,CT,9.0,9009.0,New Haven County,90093511002.0
13524,sg:1f789b2d7c2b4514b1124928b6c857bd,Classic Motorcycle Co,CT,2020-02-01T00:00:00-05:00,2020-03-01T00:00:00-05:00,6786,24,22.0,"{""<5"":3,""5-20"":9,""21-60"":5,""61-240"":6,"">240"":1}",1465.5,41.677271999999995,-73.013249,441228.0,CT,9.0,9005.0,Litchfield County,90054254002.0
13588,sg:24696e60d65e4b67bb34810d9700c9d3,People's Choice,CT,2020-02-01T00:00:00-05:00,2020-03-01T00:00:00-05:00,6066,23,28.0,"{""<5"":1,""5-20"":9,""21-60"":7,""61-240"":4,"">240"":2}",1480.5,41.847479,-72.484639,722511.0,CT,9.0,9013.0,Tolland County,90135303023.0
13612,sg:2802546afa0a45d8a6e180026878f866,Hospital of Saint Raphael,CT,2020-02-01T00:00:00-05:00,2020-03-01T00:00:00-05:00,6511,297,16.0,"{""<5"":21,""5-20"":143,""21-60"":42,""61-240"":62,"">240"":29}",19832.0,41.309642,-72.941544,621610.0,CT,9.0,9009.0,New Haven County,90091408001.0
13722,sg:33e2132fc5f14a968a8f9edf5b57ad4b,Jay Lindsay Music,CT,2020-02-01T00:00:00-05:00,2020-03-01T00:00:00-05:00,6511,279,36.0,"{""<5"":5,""5-20"":110,""21-60"":46,""61-240"":64,"">240"":54}",25842.5,41.323295,-72.90877900000001,451140.0,CT,9.0,9009.0,New Haven County,90091419005.0
13751,sg:36dc252592a147c99eaf6f22dfedd689,Great Path Academy Middle College High School At Mcc,CT,2020-02-01T00:00:00-05:00,2020-03-01T00:00:00-05:00,6040,621,139.0,"{""<5"":8,""5-20"":126,""21-60"":70,""61-240"":182,"">240"":235}",88221.0,41.761396000000005,-72.560578,611110.0,CT,9.0,9003.0,Hartford County,90035151021.0
13799,sg:3afd06f9cbad4eb6bb57c17830e05581,Cafe 360,CT,2020-02-01T00:00:00-05:00,2020-03-01T00:00:00-05:00,6525,56,8.0,"{""<5"":4,""5-20"":39,""21-60"":0,""61-240"":0,"">240"":13}",3617.5,41.35158,-72.991786,722511.0,CT,9.0,9009.0,New Haven County,90091602001.0
13857,sg:3fb06269029c4ea49a798c7b99eaeab2,Old Lyme Fire Department Station 30,CT,2020-02-01T00:00:00-05:00,2020-03-01T00:00:00-05:00,6371,8,61.0,"{""<5"":0,""5-20"":0,""21-60"":4,""61-240"":2,"">240"":2}",943.0,41.345859000000004,-72.296345,922160.0,CT,9.0,9011.0,New London County,90116601021.0
13858,sg:3fec3ac900e545fa9d14f8456848d4f0,Jimmies Ice Cream Shoppe,CT,2020-02-01T00:00:00-05:00,2020-03-01T00:00:00-05:00,6365,13,8.0,"{""<5"":2,""5-20"":6,""21-60"":2,""61-240"":3,"">240"":0}",612.5,41.489488,-71.99953199999999,722515.0,CT,9.0,9011.0,New London County,90117001002.0
13999,sg:4c8dc754b09042708e419f7ee2ec588f,Rainbow Nails,CT,2020-02-01T00:00:00-05:00,2020-03-01T00:00:00-05:00,6066,24,32.0,"{""<5"":1,""5-20"":6,""21-60"":8,""61-240"":8,"">240"":1}",1845.5,41.856621000000004,-72.484883,812113.0,CT,9.0,9013.0,Tolland County,90135303011.0
14008,sg:4d4940ebe2f34364937e83a2f7cc07e7,Super Spring & Brake,CT,2020-02-01T00:00:00-05:00,2020-03-01T00:00:00-05:00,6120,124,33.5,"{""<5"":2,""5-20"":39,""21-60"":36,""61-240"":29,"">240"":18}",10635.0,41.788508,-72.670041,441310.0,CT,9.0,9003.0,Hartford County,90035244002.0
14017,sg:4e23dd09768e448b96a05c851989481f,Sporting Arms & Ammunition Manufacturers Institute,CT,2020-02-01T00:00:00-05:00,2020-03-01T00:00:00-05:00,6470,32,100.5,"{""<5"":2,""5-20"":13,""21-60"":0,""61-240"":6,"">240"":11}",3710.5,41.402346,-73.295803,445230.0,CT,9.0,9001.0,Fairfield County,90012305022.0
14242,sg:62e4063bd59e4bd7995bdb86000907e4,Econo Lodge,CT,2020-02-01T00:00:00-05:00,2020-03-01T00:00:00-05:00,6096,103,83.0,"{""<5"":1,""5-20"":27,""21-60"":16,""61-240"":23,"">240"":36}",13089.5,41.926945,-72.667302,721110.0,CT,9.0,9003.0,Hartford County,90034763003.0
14378,sg:6f5b89f048644733af66b1839d23465f,Greyhound,CT,2020-02-01T00:00:00-05:00,2020-03-01T00:00:00-05:00,6320,17,9.0,"{""<5"":2,""5-20"":15,""21-60"":0,""61-240"":0,"">240"":0}",192.5,41.354805,-72.093001,485210.0,CT,9.0,9011.0,New London County,90116905002.0
14417,sg:72288ace4c934dc6bc04a0168b38d40e,Budget Car Wash,CT,2020-02-01T00:00:00-05:00,2020-03-01T00:00:00-05:00,6516,37,10.0,"{""<5"":1,""5-20"":22,""21-60"":3,""61-240"":5,"">240"":6}",2591.5,41.284812,-72.977622,811192.0,CT,9.0,9009.0,New Haven County,90091542001.0
14434,sg:74334402a4fd457080950375a4014a64,Irving Oil,CT,2020-02-01T00:00:00-05:00,2020-03-01T00:00:00-05:00,6051,241,51.0,"{""<5"":10,""5-20"":82,""21-60"":33,""61-240"":48,"">240"":68}",25930.5,41.671893,-72.75839599999999,447110.0,CT,9.0,9003.0,Hartford County,90034163003.0
14458,sg:762159361a01458b88bc490db961149f,Foxon Park Beverages,CT,2020-02-01T00:00:00-05:00,2020-03-01T00:00:00-05:00,6513,70,40.0,"{""<5"":2,""5-20"":23,""21-60"":18,""61-240"":25,"">240"":2}",5264.0,41.323802,-72.861779,445230.0,CT,9.0,9009.0,New Haven County,90091805001.0
14533,sg:7ceef759f28245999dc09b14fd9ef769,David L French DDS,CT,2020-02-01T00:00:00-05:00,2020-03-01T00:00:00-05:00,6791,6,11.0,"{""<5"":0,""5-20"":4,""21-60"":0,""61-240"":1,"">240"":1}",440.5,41.767497999999996,-73.086088,621210.0,CT,9.0,9005.0,Litchfield County,90052983002.0
14839,sg:9a2443ae3de64d9ba646127df4437ca4,Cela's Masonry,CT,2020-02-01T00:00:00-05:00,2020-03-01T00:00:00-05:00,6712,25,123.0,"{""<5"":0,""5-20"":3,""21-60"":5,""61-240"":9,"">240"":8}",3514.5,41.507976,-72.987616,444130.0,CT,9.0,9009.0,New Haven County,90093472001.0
14843,sg:9a54e0f2704b4954bb32cffb8d4d232a,Imperial Wok Chinese Restaurant,CT,2020-02-01T00:00:00-05:00,2020-03-01T00:00:00-05:00,6053,5,1238.0,"{""<5"":0,""5-20"":1,""21-60"":0,""61-240"":0,"">240"":4}",972.5,41.672441,-72.795353,722511.0,CT,9.0,9003.0,Hartford County,90034159002.0
14922,sg:a1d8f0afbae54d8698a47d791e6de435,Financial Resources,CT,2020-02-01T00:00:00-05:00,2020-03-01T00:00:00-05:00,6033,8,6.0,"{""<5"":2,""5-20"":5,""21-60"":0,""61-240"":0,"">240"":1}",307.5,41.712590000000006,-72.60535899999999,523930.0,CT,9.0,9003.0,Hartford County,90035203021.0
14982,sg:a80e9ca03a064f27bb6a5c0c4ae73e37,Morning Glory Early Learning Center,CT,2020-02-01T00:00:00-05:00,2020-03-01T00:00:00-05:00,6515,7,16.0,"{""<5"":0,""5-20"":5,""21-60"":0,""61-240"":2,"">240"":0}",363.5,41.315073,-72.959994,624410.0,,,,,
15030,sg:ad5e231b9f514f9fa95a7ebb779e6424,Peace of Mind,CT,2020-02-01T00:00:00-05:00,2020-03-01T00:00:00-05:00,6468,93,72.0,"{""<5"":0,""5-20"":15,""21-60"":22,""61-240"":23,"">240"":33}",12460.0,41.29991,-73.22545699999999,621330.0,CT,9.0,9001.0,Fairfield County,90011001003.0
15055,sg:affcbe0017bf43e7b8050095c754a4aa,William Pitt Child Development Center,CT,2020-02-01T00:00:00-05:00,2020-03-01T00:00:00-05:00,6902,357,23.0,"{""<5"":21,""5-20"":151,""21-60"":61,""61-240"":65,"">240"":59}",28353.0,41.063338,-73.52731800000001,624410.0,CT,9.0,9001.0,Fairfield County,90010218012.0
15074,sg:b1aff09691b6476a8d5a9be298adc8a1,Your Neighborhood Variety,CT,2020-02-01T00:00:00-05:00,2020-03-01T00:00:00-05:00,6380,105,23.0,"{""<5"":2,""5-20"":47,""21-60"":18,""61-240"":21,"">240"":17}",8562.0,41.569187,-72.054165,447110.0,CT,9.0,9011.0,New London County,90116961001.0
15329,sg:cacf3a213a8c498bbdd55175d434c2e7,The Green Room Cafe,CT,2020-02-01T00:00:00-05:00,2020-03-01T00:00:00-05:00,6457,113,32.0,"{""<5"":3,""5-20"":44,""21-60"":14,""61-240"":20,"">240"":32}",11814.5,41.55915,-72.650214,722515.0,CT,9.0,9007.0,Middlesex County,90075416001.0
15397,sg:d2a3917309884d2981b577bc86d5813f,Westport Physical Therapy,CT,2020-02-01T00:00:00-05:00,2020-03-01T00:00:00-05:00,6880,129,41.0,"{""<5"":5,""5-20"":30,""21-60"":47,""61-240"":31,"">240"":16}",10796.5,41.144313000000004,-73.361936,713940.0,CT,9.0,9001.0,Fairfield County,90010502002.0
15426,sg:d540f90b847643f8bd4fe227e989da08,Paramount Professional Roofing,CT,2020-02-01T00:00:00-05:00,2020-03-01T00:00:00-05:00,6790,18,72.5,"{""<5"":1,""5-20"":6,""21-60"":1,""61-240"":3,"">240"":7}",2249.5,41.80292,-73.10860699999999,561740.0,CT,9.0,9005.0,Litchfield County,90053104001.0
15429,sg:d5906fb2ef584d578c41286bc0cc974a,Sullivan Schein Dental,CT,2020-02-01T00:00:00-05:00,2020-03-01T00:00:00-05:00,6492,73,26.0,"{""<5"":2,""5-20"":30,""21-60"":8,""61-240"":25,"">240"":8}",6386.5,41.475814,-72.806441,621210.0,CT,9.0,9009.0,New Haven County,90091758002.0
15668,sg:ef418bf3426e48b0a323cfa8885e74e1,Oral Facial Surgery Center,CT,2020-02-01T00:00:00-05:00,2020-03-01T00:00:00-05:00,6040,22,146.5,"{""<5"":0,""5-20"":1,""21-60"":8,""61-240"":6,"">240"":7}",2919.5,41.769,-72.520347,621210.0,CT,9.0,9003.0,Hartford County,90035147002.0
15687,sg:f117cffa477841409fd5e2e2db91bb1f,Epic Masonry & Restoration,CT,2020-02-01T00:00:00-05:00,2020-03-01T00:00:00-05:00,6492,65,40.0,"{""<5"":2,""5-20"":14,""21-60"":30,""61-240"":16,"">240"":3}",4523.0,41.478813,-72.81934,444130.0,CT,9.0,9009.0,New Haven County,90091754001.0
15828,sg:0127b090ce5345e99d619b62bd265bb3,Little Farmers Child Care Center,CT,2020-02-01T00:00:00-05:00,2020-03-01T00:00:00-05:00,6084,22,9.5,"{""<5"":1,""5-20"":15,""21-60"":5,""61-240"":1,"">240"":0}",543.0,41.853111,-72.336722,624410.0,CT,9.0,9013.0,Tolland County,90135331024.0
15900,sg:09cad767339246239c0cfd48ca021b9c,Frank's Driving School,CT,2020-02-01T00:00:00-05:00,2020-03-01T00:00:00-05:00,6067,236,40.0,"{""<5"":6,""5-20"":73,""21-60"":65,""61-240"":60,"">240"":32}",20270.0,41.660978,-72.681191,453310.0,CT,9.0,9003.0,Hartford County,90034903022.0
16048,sg:16d33eca0b804954a8ed0283464c46d9,Warren Auto Repair,CT,2020-02-01T00:00:00-05:00,2020-03-01T00:00:00-05:00,6754,1,21.0,"{""<5"":0,""5-20"":0,""21-60"":1,""61-240"":0,"">240"":0}",40.5,41.757627,-73.396301,447110.0,CT,9.0,9005.0,Litchfield County,90052651001.0
16258,sg:299a435750c04726822fac20ac23b28e,Hearthstone Castle,CT,2020-02-01T00:00:00-05:00,2020-03-01T00:00:00-05:00,6810,13,20.0,"{""<5"":2,""5-20"":5,""21-60"":6,""61-240"":0,"">240"":0}",310.5,41.378087,-73.448462,712120.0,CT,9.0,9001.0,Fairfield County,90012105001.0
16278,sg:2b4e4505e61743b990eef4d871c3b18e,B & N Transmissions,CT,2020-02-01T00:00:00-05:00,2020-03-01T00:00:00-05:00,6716,6,12.5,"{""<5"":0,""5-20"":4,""21-60"":0,""61-240"":0,"">240"":2}",530.0,41.627687,-72.96170699999999,811113.0,CT,9.0,9009.0,New Haven County,90093613003.0
16296,sg:2cbea06746cb439aaf8f190aba2776c3,IM=X Pilates,CT,2020-02-01T00:00:00-05:00,2020-03-01T00:00:00-05:00,6443,47,63.0,"{""<5"":1,""5-20"":4,""21-60"":14,""61-240"":27,"">240"":1}",4923.0,41.285973,-72.645938,713940.0,CT,9.0,9009.0,New Haven County,90091942014.0
16380,sg:34da8c50f4544548bcf2671d9a35e0e4,Sagres Restaurant,CT,2020-02-01T00:00:00-05:00,2020-03-01T00:00:00-05:00,6770,183,102.0,"{""<5"":8,""5-20"":52,""21-60"":20,""61-240"":40,"">240"":63}",22620.0,41.489946,-73.050872,722511.0,CT,9.0,9009.0,New Haven County,90093452011.0
16426,sg:38da4d0bb6834613aeb073f7de7b4f6e,First Congregational Church of Danbury UCC,CT,2020-02-01T00:00:00-05:00,2020-03-01T00:00:00-05:00,6810,72,24.0,"{""<5"":3,""5-20"":27,""21-60"":19,""61-240"":22,"">240"":1}",4665.5,41.392032,-73.454929,813110.0,CT,9.0,9001.0,Fairfield County,90012106004.0
16443,sg:3a493f119b3b45ba992ef8af3e455fa6,Koma Hibachi & Sushi,CT,2020-02-01T00:00:00-05:00,2020-03-01T00:00:00-05:00,6117,527,41.0,"{""<5"":11,""5-20"":138,""21-60"":184,""61-240"":156,"">240"":38}",41802.5,41.785191999999995,-72.74776700000001,722511.0,CT,9.0,9003.0,Hartford County,90034974001.0
16576,sg:45cdfa01206c4a02bdae36687eb30762,Candlelight Farms Airport,CT,2020-02-01T00:00:00-05:00,2020-03-01T00:00:00-05:00,6776,27,141.0,"{""<5"":0,""5-20"":7,""21-60"":3,""61-240"":7,"">240"":10}",3662.5,41.569377,-73.462567,488119.0,CT,9.0,9005.0,Litchfield County,90052534001.0
16588,sg:4729bb215a624454947914c8856d6912,First Church of Christ Scientist,CT,2020-02-01T00:00:00-05:00,2020-03-01T00:00:00-05:00,6840,8,42.0,"{""<5"":0,""5-20"":2,""21-60"":4,""61-240"":1,"">240"":1}",577.5,41.147636,-73.496064,813110.0,CT,9.0,9001.0,Fairfield County,90010351005.0
16677,sg:4f0004f98d12463ea958fd6e4fce36b7,HomeGoods,CT,2020-02-01T00:00:00-05:00,2020-03-01T00:00:00-05:00,6320,12,6.0,"{""<5"":1,""5-20"":9,""21-60"":1,""61-240"":1,"">240"":0}",306.0,41.373360999999996,-72.118545,442299.0,CT,9.0,9011.0,New London County,90118703004.0
16766,sg:58335bfb40a14cbf9ba7b32e50c7c7ee,Quality Inn,CT,2020-02-01T00:00:00-05:00,2020-03-01T00:00:00-05:00,6705,263,111.0,"{""<5"":5,""5-20"":47,""21-60"":53,""61-240"":64,"">240"":94}",34938.5,41.540601,-72.992611,721110.0,CT,9.0,9009.0,New Haven County,90093528003.0
16985,sg:6b423196650e4e4ebf6a2943ea308863,Blue Wave Orthodontics,CT,2020-02-01T00:00:00-05:00,2020-03-01T00:00:00-05:00,6820,18,319.5,"{""<5"":0,""5-20"":3,""21-60"":3,""61-240"":1,"">240"":11}",2949.5,41.079356,-73.468408,621210.0,CT,9.0,9001.0,Fairfield County,90010302002.0
17059,sg:7377d427639e4dd0a5f0a7b10defb1eb,Walgreens,CT,2020-02-01T00:00:00-05:00,2020-03-01T00:00:00-05:00,6051,758,13.0,"{""<5"":26,""5-20"":477,""21-60"":204,""61-240"":38,"">240"":13}",23128.5,41.670509,-72.7845,446110.0,CT,9.0,9003.0,Hartford County,90034159001.0
17165,sg:7f63cc5e2e284f35a39a97df1784d51e,Francesca's,CT,2020-02-01T00:00:00-05:00,2020-03-01T00:00:00-05:00,6338,38,32.5,"{""<5"":0,""5-20"":12,""21-60"":10,""61-240"":10,"">240"":6}",3500.0,41.476511,-71.96224699999999,448120.0,CT,9.0,9011.0,New London County,90117011005.0
17223,sg:84ff2c125ef542bc8bdded5e821752e5,Valenti VW Of Old Saybrook,CT,2020-02-01T00:00:00-05:00,2020-03-01T00:00:00-05:00,6475,19,134.0,"{""<5"":0,""5-20"":5,""21-60"":2,""61-240"":7,"">240"":5}",2397.0,41.310133,-72.382559,441120.0,CT,9.0,9007.0,Middlesex County,90076701003.0
17366,sg:927e064c1e8049b184e958a8bd6dd050,Z Technologies,CT,2020-02-01T00:00:00-05:00,2020-03-01T00:00:00-05:00,6854,99,59.0,"{""<5"":0,""5-20"":24,""21-60"":26,""61-240"":32,"">240"":17}",10249.0,41.107408,-73.43261600000001,812320.0,CT,9.0,9001.0,Fairfield County,90010432003.0
17628,sg:ad779e6783a648d3b538a55345779ea9,Threading Station,CT,2020-02-01T00:00:00-05:00,2020-03-01T00:00:00-05:00,6460,108,25.0,"{""<5"":1,""5-20"":37,""21-60"":35,""61-240"":30,"">240"":5}",7597.5,41.235640999999994,-73.03627,446120.0,CT,9.0,9009.0,New Haven County,90091508001.0
17717,sg:b6ee57f262e94a9ebf3e1836140303b2,Farmington Valley Regional Diagnostic Center,CT,2020-02-01T00:00:00-05:00,2020-03-01T00:00:00-05:00,6001,333,13.0,"{""<5"":23,""5-20"":181,""21-60"":75,""61-240"":36,"">240"":18}",15095.5,41.790495,-72.863764,611110.0,CT,9.0,9003.0,Hartford County,90034622013.0
17722,sg:b757343587a3454884c1fd75c8691e7c,Steven M Rapoport OD,CT,2020-02-01T00:00:00-05:00,2020-03-01T00:00:00-05:00,6385,50,8.5,"{""<5"":3,""5-20"":32,""21-60"":10,""61-240"":4,"">240"":1}",1654.5,41.342419,-72.132478,446130.0,CT,9.0,9011.0,New London County,90116934004.0
17884,sg:c6c52bf3e3f443e5bf9073a3b5dc43bf,GameStop,CT,2020-02-01T00:00:00-05:00,2020-03-01T00:00:00-05:00,6405,129,20.0,"{""<5"":1,""5-20"":66,""21-60"":53,""61-240"":9,"">240"":0}",4328.5,41.273221,-72.831496,451120.0,CT,9.0,9009.0,New Haven County,90091843001.0
17960,sg:cd8f46ce2a7e48e193b762e423eef857,Darien Auto Specialists,CT,2020-02-01T00:00:00-05:00,2020-03-01T00:00:00-05:00,6820,5,134.0,"{""<5"":0,""5-20"":1,""21-60"":1,""61-240"":2,"">240"":1}",594.0,41.075025,-73.471857,447110.0,CT,9.0,9001.0,Fairfield County,90010304001.0
17965,sg:cdd95e14ecd5449b9962b5a49e7118cc,Yale New Haven Hospital,CT,2020-02-01T00:00:00-05:00,2020-03-01T00:00:00-05:00,6516,339,60.0,"{""<5"":19,""5-20"":85,""21-60"":67,""61-240"":115,"">240"":53}",33851.0,41.257763,-72.951074,622110.0,CT,9.0,9009.0,New Haven County,90091551001.0
18048,sg:d4a8b8b3deca4b7dbf0c7cc9e43f9f9c,Plymouth Center School,CT,2020-02-01T00:00:00-05:00,2020-03-01T00:00:00-05:00,6782,403,18.0,"{""<5"":18,""5-20"":190,""21-60"":35,""61-240"":62,"">240"":98}",36688.5,41.679623,-73.053737,611110.0,CT,9.0,9005.0,Litchfield County,90054253002.0
18265,sg:ea6eeb5744d64838a4915cc0453ca21f,Stop & Shop,CT,2020-02-01T00:00:00-05:00,2020-03-01T00:00:00-05:00,6473,1616,21.0,"{""<5"":35,""5-20"":725,""21-60"":595,""61-240"":145,"">240"":116}",82910.0,41.393892,-72.860175,445110.0,CT,9.0,9009.0,New Haven County,90091672022.0
18294,sg:edf49d868f48460c8fc7474781f53cb0,Windermere Intermediate School,CT,2020-02-01T00:00:00-05:00,2020-03-01T00:00:00-05:00,6029,22,15.5,"{""<5"":0,""5-20"":16,""21-60"":4,""61-240"":0,"">240"":2}",842.0,41.871666999999995,-72.500251,611110.0,CT,9.0,9013.0,Tolland County,90135351005.0
18373,sg:f6809dc307cc4434b423509d0f5510da,Columbia Package Store,CT,2020-02-01T00:00:00-05:00,2020-03-01T00:00:00-05:00,6237,21,19.0,"{""<5"":1,""5-20"":14,""21-60"":3,""61-240"":0,"">240"":3}",1019.0,41.720163,-72.272779,445310.0,CT,9.0,9013.0,Tolland County,90138601002.0
18530,sg:0681295376a147bbaf0b7bc6c9bd57e7,Day Care Center Of New Canaan,CT,2020-02-01T00:00:00-05:00,2020-03-01T00:00:00-05:00,6840,35,14.0,"{""<5"":0,""5-20"":22,""21-60"":7,""61-240"":5,"">240"":1}",1551.0,41.141855,-73.49044599999999,624410.0,CT,9.0,9001.0,Fairfield County,90010351003.0
18694,sg:18f652994ea749948deef8eb97655b2b,Natchaug School,CT,2020-02-01T00:00:00-05:00,2020-03-01T00:00:00-05:00,6226,332,62.5,"{""<5"":10,""5-20"":89,""21-60"":62,""61-240"":83,"">240"":88}",37260.0,41.713664,-72.20685300000001,611110.0,CT,9.0,9015.0,Windham County,90158006002.0
18808,sg:229e8cb695df476eba6a92fe8a8e733d,Clear Choice,CT,2020-02-01T00:00:00-05:00,2020-03-01T00:00:00-05:00,6067,3,82.0,"{""<5"":0,""5-20"":0,""21-60"":1,""61-240"":1,"">240"":1}",431.0,41.649087,-72.66592,621210.0,CT,9.0,9003.0,Hartford County,90035242003.0
18870,sg:28a699d399be46aaba5335f7662b9431,Don Armando Restaurant,CT,2020-02-01T00:00:00-05:00,2020-03-01T00:00:00-05:00,6513,288,9.5,"{""<5"":21,""5-20"":174,""21-60"":38,""61-240"":23,"">240"":32}",14908.0,41.319934,-72.871977,722511.0,CT,9.0,9009.0,New Haven County,90091426032.0
19172,sg:445f0dea82344de7a41138efa912e7a8,Vazzy's Fine Italian Cuisine,CT,2020-02-01T00:00:00-05:00,2020-03-01T00:00:00-05:00,6614,250,25.0,"{""<5"":13,""5-20"":98,""21-60"":61,""61-240"":63,"">240"":15}",16809.5,41.206091,-73.132634,722511.0,CT,9.0,9001.0,Fairfield County,90010809001.0
19201,sg:47f3d8eb92b24a038e3a910b8f0addd0,Garden Sales,CT,2020-02-01T00:00:00-05:00,2020-03-01T00:00:00-05:00,6042,32,17.0,"{""<5"":0,""5-20"":17,""21-60"":5,""61-240"":6,"">240"":4}",2278.0,41.804041999999995,-72.518563,811411.0,CT,9.0,9003.0,Hartford County,90035142001.0
19255,sg:4c4bc7d22a3446f5bf0d63774f41bdf1,David Mccallum L ac,CT,2020-02-01T00:00:00-05:00,2020-03-01T00:00:00-05:00,6019,8,78.0,"{""<5"":1,""5-20"":1,""21-60"":0,""61-240"":5,"">240"":1}",1007.5,41.824705,-72.89604200000001,621111.0,CT,9.0,9003.0,Hartford County,90034641022.0
19378,sg:58a82aab28424d06b9dcb9b73f4240e8,Plainfield Little League Field Complex,CT,2020-02-01T00:00:00-05:00,2020-03-01T00:00:00-05:00,6374,297,70.0,"{""<5"":1,""5-20"":77,""21-60"":63,""61-240"":71,"">240"":85}",34602.0,41.678043,-71.923456,713940.0,CT,9.0,9015.0,Windham County,90159073003.0
19474,sg:62a6ba3e90d94a44a6072a477cc6af21,Manchester High School,CT,2020-02-01T00:00:00-05:00,2020-03-01T00:00:00-05:00,6040,2735,61.0,"{""<5"":13,""5-20"":462,""21-60"":883,""61-240"":1078,"">240"":299}",275568.0,41.781569,-72.517324,611110.0,CT,9.0,9003.0,Hartford County,90035143004.0
19498,sg:6539f2e127f24b49a5737e24145bbfa1,Town Fair Tire,CT,2020-02-01T00:00:00-05:00,2020-03-01T00:00:00-05:00,6851,29,13.0,"{""<5"":1,""5-20"":16,""21-60"":7,""61-240"":5,"">240"":0}",1238.5,41.157424,-73.421163,441310.0,CT,9.0,9001.0,Fairfield County,90010427001.0
19525,sg:679cef36bb28442b814c15ecfbb64c8d,Himalayan Cafe,CT,2020-02-01T00:00:00-05:00,2020-03-01T00:00:00-05:00,6475,70,90.0,"{""<5"":1,""5-20"":5,""21-60"":21,""61-240"":26,"">240"":17}",8908.5,41.286476,-72.407646,722511.0,CT,9.0,9007.0,Middlesex County,90076701001.0
19670,sg:74ac095db31e4634a6403ab54513ef47,Good Nature Market,CT,2020-02-01T00:00:00-05:00,2020-03-01T00:00:00-05:00,6510,57,19.0,"{""<5"":0,""5-20"":33,""21-60"":21,""61-240"":2,"">240"":1}",1804.0,41.31183,-72.92246899999999,445110.0,CT,9.0,9009.0,New Haven County,90091420003.0
20017,sg:95ed26e9e6bf441f801ef108b27c6e40,Fiddleheads Cafe,CT,2020-02-01T00:00:00-05:00,2020-03-01T00:00:00-05:00,6105,43,121.0,"{""<5"":2,""5-20"":8,""21-60"":7,""61-240"":8,"">240"":18}",5912.5,41.766124,-72.709886,722511.0,CT,9.0,9003.0,Hartford County,90035042003.0
20021,sg:9654636bed16477c8d7577c98b3442de,Rite Aid,CT,2020-02-01T00:00:00-05:00,2020-03-01T00:00:00-05:00,6410,124,12.5,"{""<5"":4,""5-20"":79,""21-60"":28,""61-240"":11,"">240"":2}",4267.0,41.503524,-72.903255,446110.0,CT,9.0,9009.0,New Haven County,90093431021.0
20120,sg:a141eb1befb24e0da601e3dc2a50b961,GE Capital Retail,CT,2020-02-01T00:00:00-05:00,2020-03-01T00:00:00-05:00,6851,775,346.0,"{""<5"":5,""5-20"":60,""21-60"":47,""61-240"":177,"">240"":486}",145944.5,41.144731,-73.428483,522110.0,CT,9.0,9001.0,Fairfield County,90010427001.0
20162,sg:a586fdb42a92410bbf6551ac5433b3a6,Lara's Labyrinth NextGen Escape Rooms,CT,2020-02-01T00:00:00-05:00,2020-03-01T00:00:00-05:00,6109,121,71.0,"{""<5"":1,""5-20"":30,""21-60"":21,""61-240"":64,"">240"":5}",12060.0,41.700276,-72.658698,423830.0,CT,9.0,9003.0,Hartford County,90034922002.0
20221,sg:ac9012dff58944bcbb080a7fcd04b142,Maron Eye Care,CT,2020-02-01T00:00:00-05:00,2020-03-01T00:00:00-05:00,6105,24,34.0,"{""<5"":0,""5-20"":10,""21-60"":4,""61-240"":1,"">240"":9}",2597.5,41.769037,-72.702476,621111.0,CT,9.0,9003.0,Hartford County,90035031004.0
20247,sg:af095c14ca374d77a0df090d92572296,Darien Viking Appliance Services,CT,2020-02-01T00:00:00-05:00,2020-03-01T00:00:00-05:00,6820,17,62.0,"{""<5"":0,""5-20"":6,""21-60"":2,""61-240"":5,"">240"":4}",1868.5,41.075955,-73.46175,444130.0,CT,9.0,9001.0,Fairfield County,90010303001.0
20309,sg:b5377776952d428282952727f6518d13,Vernon Storage,CT,2020-02-01T00:00:00-05:00,2020-03-01T00:00:00-05:00,6084,208,111.5,"{""<5"":0,""5-20"":37,""21-60"":43,""61-240"":55,"">240"":73}",28001.5,41.866738,-72.42385999999999,531130.0,CT,9.0,9013.0,Tolland County,90135331013.0
20426,sg:c10c87101d9f4482815d4a8ab4ab51cf,Educational Playcare Berlin,CT,2020-02-01T00:00:00-05:00,2020-03-01T00:00:00-05:00,6037,91,13.0,"{""<5"":6,""5-20"":42,""21-60"":11,""61-240"":20,"">240"":12}",6875.5,41.647233,-72.787456,624410.0,CT,9.0,9003.0,Hartford County,90034003001.0
20473,sg:c67e8ec42c684e9c8bf21f10787590c5,Fmc Ds,CT,2020-02-01T00:00:00-05:00,2020-03-01T00:00:00-05:00,6010,2,4.0,"{""<5"":2,""5-20"":0,""21-60"":0,""61-240"":0,"">240"":0}",5.0,41.665603999999995,-72.920008,621111.0,CT,9.0,9003.0,Hartford County,90034054021.0
20599,sg:d2fe1ad011d54dd3bdd0c179174f13ac,Storage Pros,CT,2020-02-01T00:00:00-05:00,2020-03-01T00:00:00-05:00,6902,9,8.0,"{""<5"":2,""5-20"":6,""21-60"":0,""61-240"":1,"">240"":0}",230.5,41.047765000000005,-73.553787,531130.0,CT,9.0,9001.0,Fairfield County,90010215003.0
20607,sg:d3cc9ef5bb064e84b528f215eccb4467,Emerson Williams School,CT,2020-02-01T00:00:00-05:00,2020-03-01T00:00:00-05:00,6109,341,109.0,"{""<5"":6,""5-20"":95,""21-60"":48,""61-240"":51,"">240"":141}",44662.0,41.703092,-72.680773,611110.0,CT,9.0,9003.0,Hartford County,90034924001.0
20644,sg:d812ce1503154f3b85950e39a305ab1a,Allaya Day Care Llc,CT,2020-02-01T00:00:00-05:00,2020-03-01T00:00:00-05:00,6106,231,41.0,"{""<5"":8,""5-20"":88,""21-60"":36,""61-240"":40,"">240"":59}",22758.0,41.758798,-72.70904,624410.0,CT,9.0,9003.0,Hartford County,90035041001.0
20716,sg:df8f2dffb91142e89ed4c718023bd8da,Healing Thru Touch,CT,2020-02-01T00:00:00-05:00,2020-03-01T00:00:00-05:00,6378,31,40.0,"{""<5"":0,""5-20"":6,""21-60"":15,""61-240"":10,"">240"":0}",2187.5,41.341432,-71.940095,621310.0,CT,9.0,9011.0,New London County,90117053003.0
20766,sg:e51e26f7a17c4b6e93086c2a102b6e07,Hollow Park,CT,2020-02-01T00:00:00-05:00,2020-03-01T00:00:00-05:00,6798,71,25.0,"{""<5"":2,""5-20"":27,""21-60"":24,""61-240"":16,"">240"":2}",4202.5,41.53406,-73.209909,712190.0,CT,9.0,9005.0,Litchfield County,90053621013.0
20777,sg:e60e2a9a39b84ead827b3423a85bda5e,Stone Academy,CT,2020-02-01T00:00:00-05:00,2020-03-01T00:00:00-05:00,6705,36,185.5,"{""<5"":0,""5-20"":2,""21-60"":1,""61-240"":24,"">240"":9}",5837.5,41.545117,-72.980358,611310.0,CT,9.0,9009.0,New Haven County,90093527012.0
20877,sg:f1f50bdf37f842f5848fae906b9a6716,Blissworks Yoga & Healing Arts,CT,2020-02-01T00:00:00-05:00,2020-03-01T00:00:00-05:00,6320,119,76.0,"{""<5"":2,""5-20"":12,""21-60"":30,""61-240"":62,"">240"":13}",13821.0,41.354469,-72.097411,713940.0,CT,9.0,9011.0,New London County,90116905002.0
21103,sg:06ddbb8b8bb64a689194c6aedc99ebff,FASTSIGNS,CT,2020-02-01T00:00:00-05:00,2020-03-01T00:00:00-05:00,6001,14,10.5,"{""<5"":2,""5-20"":7,""21-60"":3,""61-240"":1,"">240"":1}",604.5,41.808882000000004,-72.829449,339950.0,CT,9.0,9003.0,Hartford County,90034622013.0
21196,sg:0e5b4a398c934854ae72dfd0db219438,Supreme Hot Dogs,CT,2020-02-01T00:00:00-05:00,2020-03-01T00:00:00-05:00,6340,38,10.0,"{""<5"":2,""5-20"":27,""21-60"":7,""61-240"":1,"">240"":1}",1016.5,41.346028999999994,-72.053495,722511.0,CT,9.0,9011.0,New London County,90117027003.0
21220,sg:10544f9a39d54866b3e1f0aa9447803b,Town & Country Discount Oil,CT,2020-02-01T00:00:00-05:00,2020-03-01T00:00:00-05:00,6384,20,20.0,"{""<5"":3,""5-20"":7,""21-60"":9,""61-240"":1,"">240"":0}",610.0,41.574179,-71.862243,447110.0,CT,9.0,9011.0,New London County,90117081002.0
21354,sg:1eada94259534dcc8b7e17cd28d772f9,McDonald's,CT,2020-02-01T00:00:00-05:00,2020-03-01T00:00:00-05:00,6830,533,12.0,"{""<5"":17,""5-20"":342,""21-60"":138,""61-240"":27,"">240"":9}",16130.0,41.024094,-73.6354,722513.0,CT,9.0,9001.0,Fairfield County,90010105002.0
21387,sg:21a47bb9a25c4849b89e913d3dcdc397,Hess Corporation,CT,2020-02-01T00:00:00-05:00,2020-03-01T00:00:00-05:00,6067,262,357.5,"{""<5"":2,""5-20"":9,""21-60"":16,""61-240"":55,"">240"":180}",52243.0,41.650778,-72.66635500000001,447110.0,CT,9.0,9003.0,Hartford County,90035242003.0
21592,sg:36f9f0b6d35c4dab9844c8176f4a1438,Beacon Roofing Supply,CT,2020-02-01T00:00:00-05:00,2020-03-01T00:00:00-05:00,6615,1066,41.0,"{""<5"":21,""5-20"":266,""21-60"":403,""61-240"":360,"">240"":16}",77719.0,41.183863,-73.143865,444110.0,CT,9.0,9001.0,Fairfield County,90010804001.0
21738,sg:43be655b1cba4b1c97b9da6c7ea8b9ba,Taco Bell,CT,2020-02-01T00:00:00-05:00,2020-03-01T00:00:00-05:00,6514,389,10.0,"{""<5"":30,""5-20"":252,""21-60"":86,""61-240"":15,"">240"":6}",10405.5,41.372203999999996,-72.917817,722513.0,CT,9.0,9009.0,New Haven County,90091658012.0
21816,sg:4bc06278695c4e6ba553cfbe320aaecb,Sunoco,CT,2020-02-01T00:00:00-05:00,2020-03-01T00:00:00-05:00,6830,242,7.0,"{""<5"":26,""5-20"":172,""21-60"":27,""61-240"":17,"">240"":0}",5867.0,41.03633,-73.607079,447110.0,CT,9.0,9001.0,Fairfield County,90010107001.0
21881,sg:52fc2c8a33924940bfc521c468f90e8a,Mark A Breiner DDS Whole Body Dentistry,CT,2020-02-01T00:00:00-05:00,2020-03-01T00:00:00-05:00,6825,22,53.5,"{""<5"":0,""5-20"":8,""21-60"":3,""61-240"":7,"">240"":4}",2235.0,41.172185,-73.228104,621210.0,CT,9.0,9001.0,Fairfield County,90010614001.0
21966,sg:5b74920b3696478895b0e5ada88683a4,The Audubon New Haven,CT,2020-02-01T00:00:00-05:00,2020-03-01T00:00:00-05:00,6511,63,171.0,"{""<5"":0,""5-20"":9,""21-60"":8,""61-240"":19,"">240"":27}",9776.0,41.309751,-72.919405,522110.0,CT,9.0,9009.0,New Haven County,90091420002.0
22018,sg:5fb5fd64144248a791574f65bb767e1c,Pilates Greenhouse,CT,2020-02-01T00:00:00-05:00,2020-03-01T00:00:00-05:00,6877,98,54.5,"{""<5"":0,""5-20"":1,""21-60"":51,""61-240"":45,"">240"":1}",9090.5,41.290795,-73.494146,713940.0,CT,9.0,9001.0,Fairfield County,90012453003.0
22562,sg:96107eb65d1947b399bca7a83e92e066,BGR Radiator,CT,2020-02-01T00:00:00-05:00,2020-03-01T00:00:00-05:00,6374,62,409.5,"{""<5"":0,""5-20"":8,""21-60"":2,""61-240"":5,"">240"":47}",12213.5,41.664834,-71.90139,811111.0,CT,9.0,9015.0,Windham County,90159073002.0
22664,sg:9e9e053c868c4655b6862112115d363b,Patti Dunne School of Gymnastics,CT,2020-02-01T00:00:00-05:00,2020-03-01T00:00:00-05:00,6248,246,42.0,"{""<5"":5,""5-20"":62,""21-60"":88,""61-240"":76,"">240"":15}",19389.5,41.658179,-72.362498,713940.0,CT,9.0,9013.0,Tolland County,90135261012.0
22690,sg:a19d962ce69e40c1aad360e2ad544b9a,Main Street Pizza,CT,2020-02-01T00:00:00-05:00,2020-03-01T00:00:00-05:00,6424,34,9.5,"{""<5"":1,""5-20"":24,""21-60"":8,""61-240"":0,"">240"":1}",866.5,41.575214,-72.502014,722511.0,CT,9.0,9007.0,Middlesex County,90075502011.0
22697,sg:a1f1e27d4fa84be5b469957f5dfd870f,Confi Dental,CT,2020-02-01T00:00:00-05:00,2020-03-01T00:00:00-05:00,6492,2,99.5,"{""<5"":0,""5-20"":0,""21-60"":1,""61-240"":1,"">240"":0}",191.0,41.480534999999996,-72.806857,621210.0,CT,9.0,9009.0,New Haven County,90091758002.0
23044,sg:c2226a0ebc6b4979b7c172089d04a37b,DaVita,CT,2020-02-01T00:00:00-05:00,2020-03-01T00:00:00-05:00,6066,7,5.0,"{""<5"":3,""5-20"":4,""21-60"":0,""61-240"":0,"">240"":0}",57.5,41.829503,-72.478535,621492.0,CT,9.0,9013.0,Tolland County,90135303023.0
23111,sg:c83341d4caf64fbf8c0214666c28ac78,Winsted Diner,CT,2020-02-01T00:00:00-05:00,2020-03-01T00:00:00-05:00,6098,100,34.0,"{""<5"":0,""5-20"":36,""21-60"":30,""61-240"":24,"">240"":10}",7677.0,41.921624,-73.07387299999999,722511.0,CT,9.0,9005.0,Litchfield County,90053201004.0
23115,sg:c85b97a42f3b42b78af459674340fe01,Pizzeria Da Vinci,CT,2020-02-01T00:00:00-05:00,2020-03-01T00:00:00-05:00,6371,244,58.0,"{""<5"":4,""5-20"":40,""21-60"":83,""61-240"":87,"">240"":30}",24165.0,41.32482,-72.33368399999999,722511.0,CT,9.0,9011.0,New London County,90116601012.0
23118,sg:c879824fa7c44b5e8e36f189adc82cb4,Glenville Wine & Spirits,CT,2020-02-01T00:00:00-05:00,2020-03-01T00:00:00-05:00,6831,35,21.0,"{""<5"":0,""5-20"":17,""21-60"":10,""61-240"":7,"">240"":1}",1911.0,41.038779999999996,-73.66628399999999,445310.0,CT,9.0,9001.0,Fairfield County,90010101012.0
23139,sg:ca06ab4b89ee4b4aaa710dbbada6a1d5,Wooster St Pizza,CT,2020-02-01T00:00:00-05:00,2020-03-01T00:00:00-05:00,6416,87,21.0,"{""<5"":8,""5-20"":34,""21-60"":28,""61-240"":10,"">240"":7}",4764.0,41.601562,-72.693685,722511.0,CT,9.0,9007.0,Middlesex County,90075701002.0
23161,sg:cc295ad0cd38411eb109738843a66f1d,Orthopaedic Sports Specialists,CT,2020-02-01T00:00:00-05:00,2020-03-01T00:00:00-05:00,6033,9,152.0,"{""<5"":0,""5-20"":3,""21-60"":1,""61-240"":1,"">240"":4}",1188.5,41.720038,-72.618344,621111.0,CT,9.0,9003.0,Hartford County,90035203022.0
23195,sg:cfc1e86c583045c0a1210d7e1d377dfe,Peace Of Mind Canine,CT,2020-02-01T00:00:00-05:00,2020-03-01T00:00:00-05:00,6751,5,7.0,"{""<5"":0,""5-20"":3,""21-60"":0,""61-240"":2,"">240"":0}",338.5,41.637437,-73.24075,812910.0,CT,9.0,9005.0,Litchfield County,90053421001.0
23306,sg:db43e668001643868d9e7254257b2f71,Art Emporium of Old Saybrook,CT,2020-02-01T00:00:00-05:00,2020-03-01T00:00:00-05:00,6475,112,66.0,"{""<5"":1,""5-20"":30,""21-60"":22,""61-240"":55,"">240"":4}",10506.0,41.290616,-72.37566899999999,453998.0,CT,9.0,9007.0,Middlesex County,90076702001.0
23446,sg:e8dc21c455914c199da0b202be8a323a,Wells Fargo,CT,2020-02-01T00:00:00-05:00,2020-03-01T00:00:00-05:00,6801,29,7.0,"{""<5"":3,""5-20"":18,""21-60"":3,""61-240"":1,"">240"":4}",1464.5,41.413829,-73.379681,522110.0,CT,9.0,9001.0,Fairfield County,90012003011.0
23595,sg:f8f51f7e1a2a4d6ca0fde831d9113e0d,Latin Moves Dance Studio,CT,2020-02-01T00:00:00-05:00,2020-03-01T00:00:00-05:00,6902,140,54.0,"{""<5"":6,""5-20"":42,""21-60"":28,""61-240"":49,"">240"":15}",12648.5,41.048120000000004,-73.557749,713940.0,CT,9.0,9001.0,Fairfield County,90010214003.0
23666,sg:00559b62fd224f689181b60fb0af85e7,Tequila's Authentic Mexican,CT,2020-02-01T00:00:00-05:00,2020-03-01T00:00:00-05:00,6475,130,50.0,"{""<5"":1,""5-20"":24,""21-60"":51,""61-240"":51,"">240"":3}",10763.5,41.287658,-72.405051,722511.0,CT,9.0,9007.0,Middlesex County,90076701002.0
23764,sg:09b8fce952bb42298a3381688c8a69de,Aaron's,CT,2020-02-01T00:00:00-05:00,2020-03-01T00:00:00-05:00,6810,8,84.0,"{""<5"":0,""5-20"":2,""21-60"":2,""61-240"":2,"">240"":2}",887.0,41.398191,-73.456965,532289.0,CT,9.0,9001.0,Fairfield County,90012101001.0
24115,sg:2c9726533fd742d7b017c0ea18b6dd71,East Side Restaurant,CT,2020-02-01T00:00:00-05:00,2020-03-01T00:00:00-05:00,6051,208,63.0,"{""<5"":3,""5-20"":47,""21-60"":49,""61-240"":84,"">240"":25}",21221.5,41.668579,-72.767359,722511.0,CT,9.0,9003.0,Hartford County,90034153001.0
24119,sg:2cd095f9688a40a3a6fb43287091d201,Zion Baptist Church,CT,2020-02-01T00:00:00-05:00,2020-03-01T00:00:00-05:00,6457,15,75.0,"{""<5"":1,""5-20"":3,""21-60"":3,""61-240"":3,"">240"":5}",1813.0,41.597278,-72.69123499999999,813110.0,CT,9.0,9007.0,Middlesex County,90075412003.0
24135,sg:2e73a46cadef42b3b4aae416eeaed53e,Rich Farm Ice Cream Shop,CT,2020-02-01T00:00:00-05:00,2020-03-01T00:00:00-05:00,6478,2,6.0,"{""<5"":0,""5-20"":2,""21-60"":0,""61-240"":0,"">240"":0}",25.0,41.450684,-73.14529,722515.0,CT,9.0,9009.0,New Haven County,90093461022.0
24219,sg:35b35d597c8648f381d56a74a8c19571,The Women's Center for Psychotherapy,CT,2020-02-01T00:00:00-05:00,2020-03-01T00:00:00-05:00,6119,46,134.0,"{""<5"":0,""5-20"":1,""21-60"":11,""61-240"":17,"">240"":17}",7096.5,41.765152,-72.726955,621330.0,CT,9.0,9003.0,Hartford County,90034971002.0
24332,sg:4094dcf8eaa14aa5b8280ddb4ddc9b64,JJBM Maintenance Irrigation & Landscape,CT,2020-02-01T00:00:00-05:00,2020-03-01T00:00:00-05:00,6607,100,82.5,"{""<5"":2,""5-20"":25,""21-60"":18,""61-240"":24,"">240"":31}",12098.5,41.182203,-73.16971099999999,444130.0,CT,9.0,9001.0,Fairfield County,90010743006.0
24481,sg:4de9f73176644076b28863e26d6d99f6,Simone Wan L Ac,CT,2020-02-01T00:00:00-05:00,2020-03-01T00:00:00-05:00,6824,210,35.5,"{""<5"":5,""5-20"":79,""21-60"":39,""61-240"":47,"">240"":40}",19253.0,41.152632000000004,-73.248502,621111.0,CT,9.0,9001.0,Fairfield County,90010608002.0
24636,sg:5c286551105446a796073a891b9059f6,Glastonbury Coffee Shop,CT,2020-02-01T00:00:00-05:00,2020-03-01T00:00:00-05:00,6033,8,10.0,"{""<5"":0,""5-20"":7,""21-60"":1,""61-240"":0,"">240"":0}",128.0,41.713405,-72.606571,722515.0,CT,9.0,9003.0,Hartford County,90035203022.0
24906,sg:746b64ca519e4079abd7ac8b4b859e94,Teelab,CT,2020-02-01T00:00:00-05:00,2020-03-01T00:00:00-05:00,6525,12,30.5,"{""<5"":0,""5-20"":4,""21-60"":6,""61-240"":2,"">240"":0}",594.0,41.343159,-72.98509399999999,621511.0,CT,9.0,9009.0,New Haven County,90091602001.0
25099,sg:893f521c1b97432cbaed2030782c06c5,Classical Judo Institute,CT,2020-02-01T00:00:00-05:00,2020-03-01T00:00:00-05:00,6906,147,24.0,"{""<5"":4,""5-20"":60,""21-60"":37,""61-240"":37,"">240"":9}",9987.0,41.077197999999996,-73.519921,713940.0,CT,9.0,9001.0,Fairfield County,90010210001.0
25149,sg:8eff138635bb44c496cb3fd117ff6151,Calvin Hill Daycare Ctr & Klf Kindergarten,CT,2020-02-01T00:00:00-05:00,2020-03-01T00:00:00-05:00,6511,94,74.5,"{""<5"":1,""5-20"":23,""21-60"":14,""61-240"":44,"">240"":12}",10359.0,41.328223,-72.920863,611110.0,CT,9.0,9009.0,New Haven County,90091418001.0
25279,sg:9a89292e95a344ff8aa793073b056c18,Krispy Krunchy Chicken,CT,2020-02-01T00:00:00-05:00,2020-03-01T00:00:00-05:00,6085,75,5.0,"{""<5"":13,""5-20"":59,""21-60"":1,""61-240"":1,"">240"":1}",1201.0,41.755308,-72.887105,722513.0,CT,9.0,9003.0,Hartford County,90034603023.0
25468,sg:ad829713ac764ab59860aec4b891dd12,The Bistro,CT,2020-02-01T00:00:00-05:00,2020-03-01T00:00:00-05:00,6702,328,164.5,"{""<5"":11,""5-20"":63,""21-60"":51,""61-240"":54,"">240"":149}",46767.5,41.553084999999996,-73.040883,722511.0,CT,9.0,9009.0,New Haven County,90093501002.0
25686,sg:c1d514c738904015bbfe8b1c05d9db35,Smile Sensations,CT,2020-02-01T00:00:00-05:00,2020-03-01T00:00:00-05:00,6902,60,27.0,"{""<5"":1,""5-20"":26,""21-60"":14,""61-240"":8,"">240"":11}",4738.5,41.062287,-73.533441,621210.0,CT,9.0,9001.0,Fairfield County,90010216004.0
25706,sg:c3907b3c20c44bcfb9513bdb00846864,Tom Thumb Florist,CT,2020-02-01T00:00:00-05:00,2020-03-01T00:00:00-05:00,6824,17,11.0,"{""<5"":1,""5-20"":10,""21-60"":0,""61-240"":2,"">240"":4}",1388.5,41.145464000000004,-73.252549,453110.0,CT,9.0,9001.0,Fairfield County,90010615003.0
25775,sg:ca5255c5d1874a53956a73b71b4884dc,Union Savings Bank,CT,2020-02-01T00:00:00-05:00,2020-03-01T00:00:00-05:00,6877,3,7.0,"{""<5"":0,""5-20"":3,""21-60"":0,""61-240"":0,"">240"":0}",37.5,41.292552,-73.49300699999999,522110.0,CT,9.0,9001.0,Fairfield County,90012453003.0
25816,sg:cd6deedbbabf4ef5929a74c1b2d4e90e,SDSS Martial Arts of Fairfield,CT,2020-02-01T00:00:00-05:00,2020-03-01T00:00:00-05:00,6825,36,48.5,"{""<5"":0,""5-20"":6,""21-60"":17,""61-240"":13,"">240"":0}",2720.0,41.181251,-73.253399,713940.0,CT,9.0,9001.0,Fairfield County,90010610003.0
25941,sg:da3622e33f5541ba9e495279d7615b8e,Eugene's Green Garage,CT,2020-02-01T00:00:00-05:00,2020-03-01T00:00:00-05:00,6605,14,83.0,"{""<5"":0,""5-20"":1,""21-60"":4,""61-240"":7,"">240"":2}",1708.0,41.159983000000004,-73.224554,811111.0,CT,9.0,9001.0,Fairfield County,90010702001.0
25997,sg:e050f48205704116a06422bf9a679b66,Windham Dental Group,CT,2020-02-01T00:00:00-05:00,2020-03-01T00:00:00-05:00,6226,74,70.5,"{""<5"":2,""5-20"":11,""21-60"":17,""61-240"":26,"">240"":18}",9064.0,41.724517,-72.239898,621210.0,CT,9.0,9015.0,Windham County,90158003001.0
25999,sg:e0636f388a454e39bf9e91d7e931ab79,Sprint,CT,2020-02-01T00:00:00-05:00,2020-03-01T00:00:00-05:00,6002,30,85.5,"{""<5"":0,""5-20"":9,""21-60"":3,""61-240"":15,"">240"":3}",3211.5,41.815791,-72.712335,517312.0,CT,9.0,9003.0,Hartford County,90034712002.0
26043,sg:e51543e724b9441795416b192d8599c2,Wintonbury Hills Golf Course,CT,2020-02-01T00:00:00-05:00,2020-03-01T00:00:00-05:00,6002,59,142.0,"{""<5"":2,""5-20"":15,""21-60"":6,""61-240"":11,"">240"":25}",8091.0,41.860857,-72.753899,713910.0,CT,9.0,9003.0,Hartford County,90034714001.0
26070,sg:e7ce73200e974156be75de26bad09665,Sherkaan Indian Street Food,CT,2020-02-01T00:00:00-05:00,2020-03-01T00:00:00-05:00,6511,857,51.0,"{""<5"":6,""5-20"":155,""21-60"":318,""61-240"":251,"">240"":127}",83087.0,41.311951,-72.930832,722511.0,CT,9.0,9009.0,New Haven County,90093614021.0
26327,sg:014b485a7545484abaf9f2acbf25ea74,Tunxis Hill Center,CT,2020-02-01T00:00:00-05:00,2020-03-01T00:00:00-05:00,6825,1640,18.0,"{""<5"":80,""5-20"":844,""21-60"":459,""61-240"":170,"">240"":87}",75804.5,41.177093,-73.227587,531120.0,CT,9.0,9001.0,Fairfield County,90010613001.0
26333,sg:01b547caed204884acf4d4bf0f799c2d,Intermix,CT,2020-02-01T00:00:00-05:00,2020-03-01T00:00:00-05:00,6880,132,20.0,"{""<5"":4,""5-20"":63,""21-60"":43,""61-240"":19,"">240"":3}",6118.5,41.142163000000004,-73.361858,448120.0,CT,9.0,9001.0,Fairfield County,90010502002.0
26444,sg:0c76ab8b8f6a41b39821fc59b4a372c6,Susan LeClair LMFT LLC,CT,2020-02-01T00:00:00-05:00,2020-03-01T00:00:00-05:00,6107,88,106.0,"{""<5"":1,""5-20"":8,""21-60"":19,""61-240"":23,"">240"":37}",13213.5,41.758528999999996,-72.744789,621330.0,CT,9.0,9003.0,Hartford County,90034965001.0
26531,sg:13d5033f577d48b78c0eb2b1c6fef02d,Village Hair Care,CT,2020-02-01T00:00:00-05:00,2020-03-01T00:00:00-05:00,6057,1,51.0,"{""<5"":0,""5-20"":0,""21-60"":1,""61-240"":0,"">240"":0}",40.5,41.877906,-72.978114,812113.0,CT,9.0,9005.0,Litchfield County,90053061001.0
26602,sg:1b5c3abcb0d842e9bf9ea83c6a207261,Beta Shim,CT,2020-02-01T00:00:00-05:00,2020-03-01T00:00:00-05:00,6484,174,131.5,"{""<5"":3,""5-20"":22,""21-60"":24,""61-240"":63,"">240"":62}",25616.0,41.274460999999995,-73.132343,444130.0,CT,9.0,9001.0,Fairfield County,90011103022.0
26707,sg:23e883aece5f45a0ad4ccc7cfda76ab4,People's United Bank,CT,2020-02-01T00:00:00-05:00,2020-03-01T00:00:00-05:00,6515,6,6.5,"{""<5"":1,""5-20"":4,""21-60"":0,""61-240"":0,"">240"":1}",292.5,41.336794,-72.982161,522110.0,CT,9.0,9009.0,New Haven County,90091412004.0
26977,sg:3d3f09ef43a8495899abad13413f0607,Mayflower Montessori School,CT,2020-02-01T00:00:00-05:00,2020-03-01T00:00:00-05:00,6360,20,44.5,"{""<5"":1,""5-20"":7,""21-60"":3,""61-240"":3,"">240"":6}",2103.0,41.505157000000004,-72.09110600000001,624410.0,CT,9.0,9011.0,New London County,90116967003.0
26985,sg:3dfff94b1c6f487c824b5c60daba0eb3,Hawley Lane Shoes,CT,2020-02-01T00:00:00-05:00,2020-03-01T00:00:00-05:00,6516,990,326.5,"{""<5"":5,""5-20"":139,""21-60"":109,""61-240"":170,"">240"":567}",167829.5,41.290219,-72.966284,448210.0,CT,9.0,9009.0,New Haven County,90091571001.0
27048,sg:4360f51f820e434a9962d1dcd17bcca9,Center Sports of Columbia,CT,2020-02-01T00:00:00-05:00,2020-03-01T00:00:00-05:00,6237,30,32.5,"{""<5"":0,""5-20"":13,""21-60"":9,""61-240"":4,"">240"":4}",2089.0,41.713625,-72.286798,451110.0,CT,9.0,9013.0,Tolland County,90138601002.0
27112,sg:49d748fefc98415a999c94121b1ebedf,Milkcraft,CT,2020-02-01T00:00:00-05:00,2020-03-01T00:00:00-05:00,6107,227,28.0,"{""<5"":4,""5-20"":65,""21-60"":96,""61-240"":44,"">240"":18}",15652.5,41.761452,-72.74314100000001,722515.0,CT,9.0,9003.0,Hartford County,90034965001.0
27131,sg:4b74b684cd8f426d804138278e276474,United Rentals,CT,2020-02-01T00:00:00-05:00,2020-03-01T00:00:00-05:00,6604,149,69.0,"{""<5"":3,""5-20"":45,""21-60"":25,""61-240"":30,"">240"":46}",17137.5,41.189421,-73.191856,532490.0,CT,9.0,9001.0,Fairfield County,90012572002.0
27188,sg:514314bfc5304e8fa511e417634dfbed,West Rocks Middle School,CT,2020-02-01T00:00:00-05:00,2020-03-01T00:00:00-05:00,6851,744,83.0,"{""<5"":9,""5-20"":203,""21-60"":120,""61-240"":107,"">240"":305}",96723.5,41.134415000000004,-73.41539399999999,624410.0,CT,9.0,9001.0,Fairfield County,90010428002.0
27205,sg:526feac989164f01aed38e392d1e3223,Dad's Handyman and Home Improvement,CT,2020-02-01T00:00:00-05:00,2020-03-01T00:00:00-05:00,6422,13,24.0,"{""<5"":1,""5-20"":4,""21-60"":3,""61-240"":4,"">240"":1}",1016.0,41.471208000000004,-72.70489,621610.0,CT,9.0,9007.0,Middlesex County,90075851003.0
27362,sg:625cba9e5c5d40b69f902ae54de8c25a,Paley's Farm Market,CT,2020-02-01T00:00:00-05:00,2020-03-01T00:00:00-05:00,6069,10,76.0,"{""<5"":0,""5-20"":4,""21-60"":1,""61-240"":1,"">240"":4}",1201.0,41.869369,-73.50052600000001,445230.0,CT,9.0,9005.0,Litchfield County,90052621001.0
27365,sg:628241b706b6467f9711da6b0e10c254,Catalyst Health & Fitness,CT,2020-02-01T00:00:00-05:00,2020-03-01T00:00:00-05:00,6762,857,55.0,"{""<5"":10,""5-20"":106,""21-60"":363,""61-240"":373,"">240"":5}",73388.0,41.535154,-73.085604,713940.0,CT,9.0,9009.0,New Haven County,90093441003.0
27513,sg:72b79922a9b741df8eb756cebe0a2106,Alpha,CT,2020-02-01T00:00:00-05:00,2020-03-01T00:00:00-05:00,6615,90,23.5,"{""<5"":4,""5-20"":41,""21-60"":5,""61-240"":24,"">240"":16}",8177.0,41.179505,-73.136862,611110.0,CT,9.0,9001.0,Fairfield County,90010806002.0
27568,sg:7832b42cd3474cf7b0a3f34a09d387a3,Waterford Plaza,CT,2020-02-01T00:00:00-05:00,2020-03-01T00:00:00-05:00,6385,743,13.0,"{""<5"":30,""5-20"":458,""21-60"":167,""61-240"":35,"">240"":53}",30551.0,41.373901000000004,-72.138364,531120.0,CT,9.0,9011.0,New London County,90116937001.0
27682,sg:820b904d13c64bc8aab980d51e3af8ba,Shooters Pistol Range,CT,2020-02-01T00:00:00-05:00,2020-03-01T00:00:00-05:00,6776,170,31.0,"{""<5"":1,""5-20"":66,""21-60"":48,""61-240"":26,"">240"":29}",13644.5,41.55365,-73.418509,452319.0,CT,9.0,9005.0,Litchfield County,90052533002.0
28110,sg:ae79d43d87bf49e2955c6c29328150f4,NorthEast BioLab,CT,2020-02-01T00:00:00-05:00,2020-03-01T00:00:00-05:00,6514,77,77.0,"{""<5"":0,""5-20"":18,""21-60"":18,""61-240"":27,"">240"":14}",8377.5,41.401453000000004,-72.916862,621511.0,CT,9.0,9009.0,New Haven County,90091659004.0
28146,sg:b0da083d156d4910a961ffbec479ba7b,The Country Store,CT,2020-02-01T00:00:00-05:00,2020-03-01T00:00:00-05:00,6880,27,64.0,"{""<5"":2,""5-20"":10,""21-60"":0,""61-240"":12,"">240"":3}",2656.0,41.166790999999996,-73.382029,722511.0,CT,9.0,9001.0,Fairfield County,90010501001.0
28152,sg:b221e5ec387b4be3918f84e5006d8556,KinderCare,CT,2020-02-01T00:00:00-05:00,2020-03-01T00:00:00-05:00,6468,36,396.5,"{""<5"":0,""5-20"":11,""21-60"":4,""61-240"":2,"">240"":19}",5160.5,41.315847999999995,-73.218663,624410.0,CT,9.0,9001.0,Fairfield County,90011002002.0
28166,sg:b32711f7273d42c2b969bc37c93c7852,Harvest Time Church,CT,2020-02-01T00:00:00-05:00,2020-03-01T00:00:00-05:00,6831,53,108.0,"{""<5"":1,""5-20"":3,""21-60"":3,""61-240"":46,"">240"":0}",7084.5,41.080145,-73.70975200000001,813110.0,CT,9.0,9001.0,Fairfield County,90010101014.0
28281,sg:be2dd94d82664d72b69c1810e992d319,Connecticut Tire,CT,2020-02-01T00:00:00-05:00,2020-03-01T00:00:00-05:00,6037,6,6.5,"{""<5"":1,""5-20"":5,""21-60"":0,""61-240"":0,"">240"":0}",65.0,41.627664,-72.746126,441310.0,CT,9.0,9003.0,Hartford County,90034001003.0
28425,sg:ccd383c3cedf486d8bf6cf122de9c1f7,Monaco Center For Health & Healing,CT,2020-02-01T00:00:00-05:00,2020-03-01T00:00:00-05:00,6073,14,44.0,"{""<5"":1,""5-20"":4,""21-60"":3,""61-240"":5,"">240"":1}",1166.5,41.670579,-72.601789,621330.0,CT,9.0,9003.0,Hartford County,90035204003.0
28473,sg:d11bd6fd331a44858bbc0bbdcdbe2a8d,J Alden Clothiers,CT,2020-02-01T00:00:00-05:00,2020-03-01T00:00:00-05:00,6426,4,6.5,"{""<5"":0,""5-20"":3,""21-60"":0,""61-240"":0,"">240"":1}",277.5,41.348032,-72.428712,448120.0,CT,9.0,9007.0,Middlesex County,90076301005.0
28732,sg:eb8f85fec73b448fa088567dbac30fde,Hertz,CT,2020-02-01T00:00:00-05:00,2020-03-01T00:00:00-05:00,6114,9,12.0,"{""<5"":0,""5-20"":6,""21-60"":2,""61-240"":1,"">240"":0}",306.5,41.743183,-72.651275,532111.0,CT,9.0,9003.0,Hartford County,90035025001.0
28762,sg:ee72d4d8b9564a048340cce7e036b8a0,Cafe on the Green,CT,2020-02-01T00:00:00-05:00,2020-03-01T00:00:00-05:00,6811,22,42.0,"{""<5"":0,""5-20"":8,""21-60"":6,""61-240"":6,"">240"":2}",1726.0,41.413567,-73.519976,722511.0,CT,9.0,9001.0,Fairfield County,90012108001.0
28909,sg:fe14a57f6ee84ea69a32fa532a879118,Anya's Head Lice Remedy,CT,2020-02-01T00:00:00-05:00,2020-03-01T00:00:00-05:00,6850,18,36.5,"{""<5"":0,""5-20"":4,""21-60"":6,""61-240"":6,"">240"":2}",1676.0,41.121759000000004,-73.438008,621511.0,CT,9.0,9001.0,Fairfield County,90010432001.0
28976,sg:04a215dbcf9541188c3e7621e152bd19,Holmgren Subaru,CT,2020-02-01T00:00:00-05:00,2020-03-01T00:00:00-05:00,6254,300,50.5,"{""<5"":8,""5-20"":75,""21-60"":78,""61-240"":79,"">240"":60}",30406.0,41.567399,-72.128171,441110.0,CT,9.0,9011.0,New London County,90117121001.0
29077,sg:0e1c614faca6406d8e38e155c9048b8c,Sword In the Scroll Fencing Academy,CT,2020-02-01T00:00:00-05:00,2020-03-01T00:00:00-05:00,6226,255,92.0,"{""<5"":1,""5-20"":33,""21-60"":54,""61-240"":137,"">240"":30}",30420.5,41.706967,-72.210894,713950.0,CT,9.0,9015.0,Windham County,90158004003.0
29177,sg:17613fd29a6d4e55b57de2385c80c853,Valero Energy,CT,2020-02-01T00:00:00-05:00,2020-03-01T00:00:00-05:00,6606,107,10.0,"{""<5"":2,""5-20"":69,""21-60"":6,""61-240"":20,"">240"":10}",6520.5,41.215821000000005,-73.213365,447110.0,CT,9.0,9001.0,Fairfield County,90010725001.0
29202,sg:19cde57df89b4d5392ccc8087184b89c,Community School,CT,2020-02-01T00:00:00-05:00,2020-03-01T00:00:00-05:00,6712,214,40.5,"{""<5"":2,""5-20"":60,""21-60"":76,""61-240"":64,"">240"":12}",16345.0,41.500873,-72.977452,611110.0,CT,9.0,9009.0,New Haven County,90093471002.0
29304,sg:23a71d3e4e784cdb8b3fbf3be9fccaf7,Taco Bell,CT,2020-02-01T00:00:00-05:00,2020-03-01T00:00:00-05:00,6515,355,10.0,"{""<5"":27,""5-20"":233,""21-60"":67,""61-240"":18,"">240"":10}",10802.5,41.337706,-72.980117,722513.0,CT,9.0,9009.0,New Haven County,90091412004.0
29370,sg:2a871be39ea642378a2463b64ca6c962,Handle With Care Packaging Store,CT,2020-02-01T00:00:00-05:00,2020-03-01T00:00:00-05:00,6902,178,75.5,"{""<5"":4,""5-20"":29,""21-60"":40,""61-240"":73,"">240"":32}",20659.0,41.037781,-73.55289300000001,488991.0,CT,9.0,9001.0,Fairfield County,90010223001.0
29392,sg:2ca0526ba69c41b8b843633f28c53461,Rival & Friends Liquor Store,CT,2020-02-01T00:00:00-05:00,2020-03-01T00:00:00-05:00,6855,43,32.0,"{""<5"":2,""5-20"":13,""21-60"":12,""61-240"":12,"">240"":4}",3419.5,41.101341,-73.40704000000001,445310.0,CT,9.0,9001.0,Fairfield County,90010442003.0
29581,sg:3dac61dad22c4ec6ba83b37cb9567517,Eblens,CT,2020-02-01T00:00:00-05:00,2020-03-01T00:00:00-05:00,6511,109,22.0,"{""<5"":3,""5-20"":46,""21-60"":41,""61-240"":16,"">240"":3}",5371.0,41.313594,-72.935108,448140.0,CT,9.0,9009.0,New Haven County,90091407005.0
29603,sg:3fceed21c16c4893a2a6c3b78aafc2a2,All In One Home Care & Improvement,CT,2020-02-01T00:00:00-05:00,2020-03-01T00:00:00-05:00,6443,19,90.0,"{""<5"":0,""5-20"":5,""21-60"":3,""61-240"":8,"">240"":3}",2108.0,41.280668,-72.589127,621610.0,CT,9.0,9009.0,New Haven County,90091941003.0
29620,sg:416d15e6927442ad967e477125a5f739,La Quinta Inn & Suites Stamford New York City,CT,2020-02-01T00:00:00-05:00,2020-03-01T00:00:00-05:00,6902,241,151.0,"{""<5"":2,""5-20"":50,""21-60"":30,""61-240"":55,"">240"":104}",35082.5,41.044098999999996,-73.56229499999999,721110.0,CT,9.0,9001.0,Fairfield County,90010223003.0
29651,sg:43fb79581b65495e97f320a856dcf020,Medical Care Center of Cheshire,CT,2020-02-01T00:00:00-05:00,2020-03-01T00:00:00-05:00,6410,27,203.0,"{""<5"":0,""5-20"":3,""21-60"":1,""61-240"":13,"">240"":10}",4434.5,41.509554,-72.899114,621111.0,CT,9.0,9009.0,New Haven County,90093431022.0
29701,sg:48366ec072c04f9db338f8c8a9327c91,NJ Diet,CT,2020-02-01T00:00:00-05:00,2020-03-01T00:00:00-05:00,6484,11,213.0,"{""<5"":0,""5-20"":0,""21-60"":0,""61-240"":7,"">240"":4}",2013.5,41.273629,-73.133656,812191.0,CT,9.0,9001.0,Fairfield County,90011103022.0
29741,sg:4c311f56f92643b696533afd41710f17,Liberty Bank,CT,2020-02-01T00:00:00-05:00,2020-03-01T00:00:00-05:00,6035,7,5.0,"{""<5"":2,""5-20"":4,""21-60"":0,""61-240"":1,"">240"":0}",205.5,41.952009000000004,-72.787908,522110.0,CT,9.0,9003.0,Hartford County,90034681022.0
29909,sg:5a3eb2a8bca34b3e8f15344c265b42e3,Ron's Auto Body & Repair,CT,2020-02-01T00:00:00-05:00,2020-03-01T00:00:00-05:00,6451,17,17.0,"{""<5"":2,""5-20"":10,""21-60"":2,""61-240"":1,"">240"":2}",841.5,41.522113,-72.824791,811121.0,CT,9.0,9009.0,New Haven County,90091708004.0
29936,sg:5cc29b426afd4189b8e5e68866090e99,Schramm Beth OD,CT,2020-02-01T00:00:00-05:00,2020-03-01T00:00:00-05:00,6226,14,26.0,"{""<5"":0,""5-20"":3,""21-60"":7,""61-240"":0,"">240"":4}",1281.0,41.713007,-72.215713,446130.0,CT,9.0,9015.0,Windham County,90158006003.0
30034,sg:669f6a139de844b4bf360f5e30dde1a7,Michaels Arts & Crafts,CT,2020-02-01T00:00:00-05:00,2020-03-01T00:00:00-05:00,6042,1066,28.0,"{""<5"":10,""5-20"":306,""21-60"":585,""61-240"":141,"">240"":24}",54523.0,41.809542,-72.52973100000001,451130.0,CT,9.0,9003.0,Hartford County,90035141021.0
30035,sg:669fee39c8dd4ee0af67e9fc9de486e0,Trinity Baptist Church,CT,2020-02-01T00:00:00-05:00,2020-03-01T00:00:00-05:00,6511,88,81.0,"{""<5"":2,""5-20"":21,""21-60"":13,""61-240"":42,"">240"":10}",9515.0,41.309560999999995,-72.919433,813110.0,CT,9.0,9009.0,New Haven County,90091420002.0
30112,sg:6f47dd60f58d4270b8d766c9e7b8759b,Fairfield Fire Department Station 2,CT,2020-02-01T00:00:00-05:00,2020-03-01T00:00:00-05:00,6824,232,82.5,"{""<5"":3,""5-20"":50,""21-60"":47,""61-240"":67,"">240"":65}",28219.5,41.169703000000005,-73.239554,922160.0,CT,9.0,9001.0,Fairfield County,90010613002.0
30196,sg:76fd48c9ef17481d96c7b3fdff41cc6a,Valero Energy,CT,2020-02-01T00:00:00-05:00,2020-03-01T00:00:00-05:00,6776,208,14.5,"{""<5"":10,""5-20"":112,""21-60"":67,""61-240"":16,"">240"":3}",7266.5,41.535009,-73.422894,447110.0,CT,9.0,9005.0,Litchfield County,90052534004.0
30285,sg:7fb52906e46a4f2bace22bba508c7883,Citi Trends,CT,2020-02-01T00:00:00-05:00,2020-03-01T00:00:00-05:00,6106,430,21.0,"{""<5"":15,""5-20"":191,""21-60"":135,""61-240"":76,"">240"":13}",22450.5,41.759285999999996,-72.698911,452210.0,CT,9.0,9003.0,Hartford County,90035029002.0
30342,sg:8550f5f71da040c7a82e31fb448221f1,Ct College of Emergency Physicians,CT,2020-02-01T00:00:00-05:00,2020-03-01T00:00:00-05:00,6473,26,24.5,"{""<5"":2,""5-20"":8,""21-60"":6,""61-240"":5,"">240"":5}",2300.5,41.402955,-72.874016,621111.0,CT,9.0,9009.0,New Haven County,90091671007.0
30371,sg:884181adbfb844cfb95f4c75b3d725b4,Alfa Romeo of Westport,CT,2020-02-01T00:00:00-05:00,2020-03-01T00:00:00-05:00,6880,88,73.0,"{""<5"":4,""5-20"":20,""21-60"":18,""61-240"":9,"">240"":37}",11223.5,41.138405999999996,-73.329705,441110.0,CT,9.0,9001.0,Fairfield County,90010506002.0
30422,sg:8c75c7887e80406b9d3a638fad7dd39b,Cool Things For Less,CT,2020-02-01T00:00:00-05:00,2020-03-01T00:00:00-05:00,6854,216,51.0,"{""<5"":4,""5-20"":63,""21-60"":53,""61-240"":58,"">240"":38}",20793.0,41.085955,-73.426164,451211.0,CT,9.0,9001.0,Fairfield County,90010445002.0
30487,sg:92500a533d72436abf83410da93e648a,Sharp Training,CT,2020-02-01T00:00:00-05:00,2020-03-01T00:00:00-05:00,6320,2,276.5,"{""<5"":0,""5-20"":0,""21-60"":1,""61-240"":0,"">240"":1}",280.5,41.347482,-72.100588,624410.0,CT,9.0,9011.0,New London County,90116907001.0
30540,sg:986183d844d542a9907121fdece0a12f,St Joseph School,CT,2020-02-01T00:00:00-05:00,2020-03-01T00:00:00-05:00,6484,122,49.0,"{""<5"":4,""5-20"":27,""21-60"":40,""61-240"":44,"">240"":7}",10269.5,41.318056,-73.096797,611110.0,CT,9.0,9001.0,Fairfield County,90011101002.0
30670,sg:a42dc71e54e949d7b87616566c1ffb2f,Farmington Psychotherapy Center,CT,2020-02-01T00:00:00-05:00,2020-03-01T00:00:00-05:00,6032,14,20.5,"{""<5"":0,""5-20"":7,""21-60"":6,""61-240"":0,"">240"":1}",570.5,41.72587,-72.823051,621330.0,CT,9.0,9003.0,Hartford County,90034602021.0
30673,sg:a4818f48be484f82af6f32c60513f586,Bonfire Grille,CT,2020-02-01T00:00:00-05:00,2020-03-01T00:00:00-05:00,6460,258,61.0,"{""<5"":4,""5-20"":39,""21-60"":82,""61-240"":128,"">240"":5}",24282.5,41.220898999999996,-73.005351,722511.0,CT,9.0,9009.0,New Haven County,90091511003.0
30868,sg:b930232f0d0544758a22fc7cc076afe3,College & University Insurance Group,CT,2020-02-01T00:00:00-05:00,2020-03-01T00:00:00-05:00,6119,4,59.0,"{""<5"":0,""5-20"":0,""21-60"":2,""61-240"":2,"">240"":0}",382.0,41.756475,-72.727819,611310.0,CT,9.0,9003.0,Hartford County,90034969004.0
30891,sg:bbdddbf7bee3409da75e1b2b373327de,Fairlawn Park,CT,2020-02-01T00:00:00-05:00,2020-03-01T00:00:00-05:00,6705,1684,32.0,"{""<5"":37,""5-20"":656,""21-60"":349,""61-240"":373,"">240"":269}",143123.5,41.548187,-73.001356,712190.0,CT,9.0,9009.0,New Haven County,90093527023.0
31052,sg:cbcc5c0c0f7646deb99e074b72a5aa07,La Flor De Mexico 2,CT,2020-02-01T00:00:00-05:00,2020-03-01T00:00:00-05:00,6605,197,62.0,"{""<5"":1,""5-20"":59,""21-60"":37,""61-240"":58,"">240"":42}",21047.5,41.177332,-73.20353,722511.0,CT,9.0,9001.0,Fairfield County,90010712003.0
31196,sg:dbdc31cc13964aa2b94b9b14688cb689,Autosport,CT,2020-02-01T00:00:00-05:00,2020-03-01T00:00:00-05:00,6069,52,82.0,"{""<5"":1,""5-20"":16,""21-60"":8,""61-240"":6,"">240"":21}",6469.5,41.883857,-73.47138100000001,452319.0,CT,9.0,9005.0,Litchfield County,90052621002.0
31256,sg:e3d0c412f5ea477d9bcc5ac81a0e366a,Big Lots Stores,CT,2020-02-01T00:00:00-05:00,2020-03-01T00:00:00-05:00,6111,303,20.0,"{""<5"":5,""5-20"":148,""21-60"":133,""61-240"":16,"">240"":1}",9897.0,41.664898,-72.722149,452319.0,CT,9.0,9003.0,Hartford County,90034941002.0
31352,sg:ed9ba9c0741a470baab99294e10611cb,Anytime Fitness,CT,2020-02-01T00:00:00-05:00,2020-03-01T00:00:00-05:00,6417,199,47.0,"{""<5"":2,""5-20"":27,""21-60"":97,""61-240"":67,"">240"":6}",15794.5,41.384042,-72.435544,713940.0,CT,9.0,9007.0,Middlesex County,90076201002.0
31378,sg:efd6487f85f946278ad579d34448dbc6,Notre Dame Catholic High School,CT,2020-02-01T00:00:00-05:00,2020-03-01T00:00:00-05:00,6825,2113,145.0,"{""<5"":15,""5-20"":321,""21-60"":322,""61-240"":568,"">240"":887}",315455.0,41.224733,-73.246207,611110.0,CT,9.0,9001.0,Fairfield County,90010601001.0
31388,sg:f078ba12f3074daba3d838dd0db0d815,TD Bank,CT,2020-02-01T00:00:00-05:00,2020-03-01T00:00:00-05:00,6117,17,7.0,"{""<5"":0,""5-20"":14,""21-60"":3,""61-240"":0,"">240"":0}",296.5,41.783615000000005,-72.74695899999999,522110.0,CT,9.0,9003.0,Hartford County,90034974001.0
31666,sg:0bef6dbb10d142febb2f3c9513771370,Harrington Engineering,CT,2020-02-01T00:00:00-05:00,2020-03-01T00:00:00-05:00,6340,42,83.0,"{""<5"":1,""5-20"":11,""21-60"":5,""61-240"":15,"">240"":10}",5000.0,41.388433,-72.085992,722511.0,CT,9.0,9011.0,New London County,90119800001.0
31695,sg:0e67d26b7f214441a74b21d7977553a0,Golden Garden Chinese Restaurant,CT,2020-02-01T00:00:00-05:00,2020-03-01T00:00:00-05:00,6475,53,14.0,"{""<5"":2,""5-20"":38,""21-60"":7,""61-240"":4,"">240"":2}",1845.5,41.292621999999994,-72.374888,722511.0,CT,9.0,9007.0,Middlesex County,90076702001.0
31973,sg:2688fb96bb3b4dac8a8e6402bdbe21df,Platt Marc W Dr,CT,2020-02-01T00:00:00-05:00,2020-03-01T00:00:00-05:00,6473,51,47.0,"{""<5"":0,""5-20"":13,""21-60"":15,""61-240"":19,"">240"":4}",4589.5,41.405163,-72.84604300000001,621310.0,CT,9.0,9009.0,New Haven County,90091672023.0
31979,sg:270da61819d24fd8887d617a4b66214f,Norwalk Auto Glass Repair,CT,2020-02-01T00:00:00-05:00,2020-03-01T00:00:00-05:00,6851,79,46.0,"{""<5"":0,""5-20"":18,""21-60"":27,""61-240"":13,"">240"":21}",8315.0,41.119163,-73.407139,423390.0,CT,9.0,9001.0,Fairfield County,90010436003.0
32005,sg:292685e7160f472681522e261f5b5404,Ocean State Job Lot,CT,2020-02-01T00:00:00-05:00,2020-03-01T00:00:00-05:00,6095,118,33.0,"{""<5"":3,""5-20"":30,""21-60"":41,""61-240"":14,"">240"":30}",11350.0,41.821319,-72.654258,452319.0,CT,9.0,9003.0,Hartford County,90034737007.0
